stop_id,stop_code,stop_name,stop_desc,stop_lat,stop_lon,zone_id,stop_url,location_type,parent_station,stop_timezone,wheelchair_boarding
par_8_06075,06075,PZA.GUIJO-URB.EL GUIJO,Plaza del Guijo 3,40.6046142578125,-4.02216482162476,B3,http://www.crtm.es,0,,Europe/Madrid,2
par_8_06158,06158,CTRA.EL ESCORIAL-PZA.CRUZ ROJA,Ctra del Escorial 73,40.5743217468262,-4.00717210769653,B3,http://www.crtm.es,0,,Europe/Madrid,2
par_8_06354,06354,GABRIEL GªMÁRQUEZ-ANTONIO FDEZ.MARÍA,Calle   Gabriel García Márquez 6 B,40.6236267089844,-4.01140022277832,B3,http://www.crtm.es,0,,Europe/Madrid,2
par_8_09144,09144,CTRA.M510-URB.EL CERRILLO,Ctra de Colmenarejo 11400,40.5671463012695,-4.01297092437744,B3,http://www.crtm.es,0,,Europe/Madrid,2
par_8_09145,09145,CAÑADA DE LAS MERINAS-CTRA.GALAPAGAR,Calle de la Cañada de las Merinas 12,40.5625877380371,-4.01422500610352,B3,http://www.crtm.es,0,,Europe/Madrid,2
par_8_09146,09146,CAÑADA DE LAS MERINAS-CENTRO DE SALUD,Calle del Pisuerga 1,40.5606727600098,-4.01375913619995,B3,http://www.crtm.es,0,,Europe/Madrid,2
par_8_09147,09147,CAÑADA DE LAS MERINAS-CTRA.GALAPAGAR,Calle de la Cañada de las Merinas 16,40.5623588562012,-4.01431608200073,B3,http://www.crtm.es,0,,Europe/Madrid,2
par_8_09858,09858,CTRA.CERRO ALARCÓN-URB.LOS PAJARILLOS,Ctra   Cerro Alarcón 11 B,40.4985198974609,-4.07088422775269,C1,http://www.crtm.es,0,,Europe/Madrid,2
par_8_09859,09859,NAVA-PZA.CRISTO,Calle   Nava 9,40.5011825561523,-4.0693097114563,C1,http://www.crtm.es,0,,Europe/Madrid,2
par_8_09860,09860,SAN JUAN-FÁBRICA HARINAS,Calle   Huertos del Molino 65,40.4994735717773,-4.06296920776367,C1,http://www.crtm.es,0,,Europe/Madrid,2
par_8_09861,09861,CºMINA DE FALCÓ-CAMPING VALDEMORILLO,Ctra   M-510 (Colmenarejo) 17,40.5039367675781,-4.05468368530273,C1,http://www.crtm.es,0,,Europe/Madrid,2
par_8_09873,09873,CºMINA DE FALCÓ-CAMPING VALDEMORILLO,Ctra   M-510 (Colmenarejo) 10,40.5035781860352,-4.05448913574219,C1,http://www.crtm.es,0,,Europe/Madrid,2
par_8_09874,09874,CTRA.CERRO ALARCÓN-URB.LOS PAJARILLOS,Ctra   Cerro Alarcón 13,40.498291015625,-4.07089281082153,C1,http://www.crtm.es,0,,Europe/Madrid,2
par_8_09944,09944,GUADARRAMA-AYUNTAMIENTO,Calle   Guadarrama 77,40.5802268981934,-4.00661087036133,B3,http://www.crtm.es,0,,Europe/Madrid,2
par_8_09945,09945,GUADARRAMA-CENTRO CULTURAL,Calle   Guadarrama 119,40.5825653076172,-4.00912714004517,B3,http://www.crtm.es,0,,Europe/Madrid,2
par_8_09946,09946,GUADARRAMA-CENTRO CULTURAL,Calle   Guadarrama 119,40.5823669433594,-4.00911235809326,B3,http://www.crtm.es,0,,Europe/Madrid,2
par_8_09948,09948,CTRA.M510-COLONIA ESPAÑA,Ctra de Guadarrama 27,40.6232032775879,-4.0265154838562,B3,http://www.crtm.es,0,,Europe/Madrid,2
par_8_09949,09949,CTRA.M510-COLONIA ESPAÑA,Ctra de Galapagar 3800,40.6237831115723,-4.02648878097534,B3,http://www.crtm.es,0,,Europe/Madrid,2
par_8_09950,09950,AZUELA-BURIL,Calle  Azuela 42,40.6259155273438,-4.02257251739502,B3,http://www.crtm.es,0,,Europe/Madrid,2
par_8_09951,09951,AZUELA-BURIL,Calle  Azuela 46,40.6260643005371,-4.02294111251831,B3,http://www.crtm.es,0,,Europe/Madrid,2
par_8_09952,09952,ESCOFINA-C.C.LOS OLIVOS,Calle   Escofina 41,40.627269744873,-4.01812362670898,B3,http://www.crtm.es,0,,Europe/Madrid,2
par_8_09953,09953,ESCOFINA-C.C.LOS OLIVOS,Calle  Escofina 55,40.6261787414551,-4.01743316650391,B3,http://www.crtm.es,0,,Europe/Madrid,2
par_8_09954,09954,GABRIEL GªMÁRQUEZ-29 DE OCTUBRE,Calle   Gabriel García Márquez 13,40.623592376709,-4.01304292678833,B3,http://www.crtm.es,0,,Europe/Madrid,2
par_8_09955,09955,GABRIEL GªMÁRQUEZ-CENTRO PROFESORADO,Calle  Ramón Fernández Soler 55,40.6237449645996,-4.01529169082642,B3,http://www.crtm.es,0,,Europe/Madrid,2
par_8_09999,09999,GUADARRAMA-AYUNTAMIENTO,Calle   Guadarrama 54,40.5802574157715,-4.00642204284668,B3,http://www.crtm.es,0,,Europe/Madrid,2
par_8_11122,11122,CTRA.VALDEMORILLO-IGLESIA,Ctra de Valdemorillo 40,40.560546875,-4.01878929138184,B3,http://www.crtm.es,0,,Europe/Madrid,2
par_8_11123,11123,CTRA.VALDEMORILLO-IGLESIA,Ctra de Valdemorillo 13,40.5605010986328,-4.01856422424316,B3,http://www.crtm.es,0,,Europe/Madrid,2
par_8_11124,11124,CTRA.M510-EMBALSE VALMAYOR,Ctra de Valdemorillo 105,40.5414619445801,-4.04557704925537,C1,http://www.crtm.es,0,,Europe/Madrid,2
par_8_11125,11125,CTRA.M510-CENTRO DE TRABAJO VALMAYOR,Ctra de Valdemorillo 15400,40.5412826538086,-4.04542112350464,C1,http://www.crtm.es,0,,Europe/Madrid,2
par_8_11126,11126,CTRA.M510-URB.PINO ALTO,Avda   Pino Alto 5,40.5156478881836,-4.05476093292236,C1,http://www.crtm.es,0,,Europe/Madrid,2
par_8_11127,11127,CTRA.M510-URB.PINO ALTO,Avda   Pino Alto 5,40.5158195495605,-4.05468130111694,C1,http://www.crtm.es,0,,Europe/Madrid,2
par_8_11810,11810,RAMÓN GAMONAL-CENTRO DE SALUD,Calle   Ramón Gamonal 20,40.5007858276367,-4.06632947921753,C1,http://www.crtm.es,0,,Europe/Madrid,2
par_8_11813,11813,AV.PINO ALTO-VALMAYOR,Avda   Pino Alto 6,40.5107345581055,-4.04926633834839,C1,http://www.crtm.es,0,,Europe/Madrid,2
par_8_11814,11814,AV.PINO ALTO-AV.NORTE,Avda   Pino Alto 34,40.5149574279785,-4.05032396316528,C1,http://www.crtm.es,0,,Europe/Madrid,2
par_8_11815,11815,AV.PINO ALTO-AV.NORTE,Avda   Pino Alto 34,40.5148582458496,-4.05052280426025,C1,http://www.crtm.es,0,,Europe/Madrid,2
par_8_11816,11816,AV.PINO ALTO-VALMAYOR,Avda   Pino Alto 8,40.510814666748,-4.04944467544556,C1,http://www.crtm.es,0,,Europe/Madrid,2
par_8_12144,12144,CTRA.VALDEMORILLO-URB.FUENTE DEL CONEJO,Ctra de Valdemorillo 88,40.5572090148926,-4.02314424514771,B3,http://www.crtm.es,0,,Europe/Madrid,2
par_8_12145,12145,CTRA.VALDEMORILLO-URB.FUENTE DEL CONEJO,Ctra de Valdemorillo 88,40.5572471618652,-4.02286148071289,B3,http://www.crtm.es,0,,Europe/Madrid,2
par_8_12454,12454,CTRA.M510-URB.CONGOSTO,Ctra de Guadarrama SN,40.5886039733887,-4.01190042495728,B3,http://www.crtm.es,0,,Europe/Madrid,2
par_8_12455,12455,CTRA.M510-URB.CONGOSTO,Ctra de Guadarrama 8600,40.5890769958496,-4.01171827316284,B3,http://www.crtm.es,0,,Europe/Madrid,2
par_8_12458,12458,CTRA.GUADARRAMA-URB.LA HERRADURA,Calle de la Pedriza 32,40.5797233581543,-4.0109395980835,B3,http://www.crtm.es,0,,Europe/Madrid,2
par_8_12460,12460,PEDRIZA-CEMENTERIO VIEJO,Calle de la Pedriza 26,40.5794143676758,-4.00821733474731,B3,http://www.crtm.es,0,,Europe/Madrid,2
par_8_12461,12461,PEDRIZA-CEMENTERIO VIEJO,Calle de la Pedriza 26,40.5793495178223,-4.00829887390137,B3,http://www.crtm.es,0,,Europe/Madrid,2
par_8_12505,12505,CTRA.GUADARRAMA-PERALEDA,Ctra de Guadarrama 2,40.5756072998047,-4.00987339019775,B3,http://www.crtm.es,0,,Europe/Madrid,2
par_8_12506,12506,CTRA.GUADARRAMA-PERALEDA,Ctra de Guadarrama 2,40.5755310058594,-4.01007270812988,B3,http://www.crtm.es,0,,Europe/Madrid,2
par_8_12507,12507,CTRA.GUADARRAMA-URB.LA HERRADURA,Urb   Galapark 20,40.5795440673828,-4.010582447052,B3,http://www.crtm.es,0,,Europe/Madrid,2
par_8_12595,12595,CºMINA DE FALCÓ-CAMPING SAN JUAN,Calle   Rotonda del Ebro 1,40.509033203125,-4.05000686645508,C1,http://www.crtm.es,0,,Europe/Madrid,2
par_8_12596,12596,CºMINA DE FALCÓ-CAMPING SAN JUAN,Cmno de la Mina de Falco SN,40.5088806152344,-4.04994583129883,C1,http://www.crtm.es,0,,Europe/Madrid,2
par_8_12949,12949,SAN JUAN-CTRA.M510,Calle   San Juan 93,40.4998893737793,-4.05713415145874,C1,http://www.crtm.es,0,,Europe/Madrid,2
par_8_12950,12950,SAN JUAN-CTRA.M510,Calle   San Juan SN,40.4997024536133,-4.05762672424316,C1,http://www.crtm.es,0,,Europe/Madrid,2
par_8_15797,15797,ESTACIÓN DE AUTOBUSES COLLADO VILLALBA,Calle   Rafael Alberti 15,40.6264419555664,-4.00456142425537,B3,http://www.crtm.es,0,,Europe/Madrid,2
par_8_17852,17852,CTRA.COLMENAREJO-PZA.CRUZ ROJA,Ctra de Colmenarejo 6,40.5733947753906,-4.00604772567749,B3,http://www.crtm.es,0,,Europe/Madrid,0
par_8_18137,18137,CºROBLEDO CHAVELA-POL.IND.LA GAZUELA,Cmno   Robledo de Chavela 24,40.4970893859863,-4.06833648681641,C1,http://www.crtm.es,0,,Europe/Madrid,0
par_8_18138,18138,CºROBLEDO CHAVELA-PLAZA DE TOROS,Cmno   Robledo de Chavela 117,40.497142791748,-4.06969404220581,C1,http://www.crtm.es,0,,Europe/Madrid,0
par_8_18139,18139,ERAS CERRADAS-CEMENTERIO,Calle   Eras Cerradas 15,40.4980316162109,-4.06313514709473,C1,http://www.crtm.es,0,,Europe/Madrid,0
par_8_18140,18140,ERAS CERRADAS-CEMENTERIO,Calle   Eras Cerradas 9,40.4975280761719,-4.06388235092163,C1,http://www.crtm.es,0,,Europe/Madrid,0
par_8_18884,18884,PARQUE LA NAVA,Ctra   M-510 (Navalagamella) 5,40.5008659362793,-4.07142925262451,C1,http://www.crtm.es,0,,Europe/Madrid,0
par_8_18885,18885,ERAS CERRADAS-ALTOS DE SANTA ANA,Calle   Eras Cerradas 33,40.499137878418,-4.0605092048645,C1,http://www.crtm.es,0,,Europe/Madrid,0
par_8_18886,18886,ERAS CERRADAS-ALTO DE SANTA ANA,Calle   Eras Cerradas 33,40.4990997314453,-4.06036710739136,C1,http://www.crtm.es,0,,Europe/Madrid,0
par_8_20294,20294,RUIZ DE ALARCÓN-AV. GALAPAGAR,Calle   Ruiz de Alarcón 2,40.6234359741211,-4.00636053085327,B3,http://www.crtm.es,0,,Europe/Madrid,0
par_8_20295,20295,RUIZ DE ALARCÓN-AV. GALAPAGAR,Calle   Ruiz de Alarcón 2,40.623592376709,-4.00584268569946,B3,http://www.crtm.es,0,,Europe/Madrid,0
par_8_20845,20845,CTRA.COLMENAREJO-ESCUELA INFANTIL,Ctra de Colmenarejo 10700,40.5726280212402,-4.00735902786255,B3,http://www.crtm.es,0,,Europe/Madrid,0
par_8_20874,20874,SAN JUAN-FÁBRICA DE HARINAS,Calle   San Juan 75,40.4996299743652,-4.06164979934692,C1,http://www.crtm.es,0,,Europe/Madrid,0
par_8_20875,20875,LA PAZ-CENTRO DE SALUD,Calle   La Paz 53,40.5006484985352,-4.06558418273926,C1,http://www.crtm.es,0,,Europe/Madrid,0
par_8_20876,20876,NAVA-PZA.CRISTO,Calle   Nava 8,40.5013236999512,-4.06937122344971,C1,http://www.crtm.es,0,,Europe/Madrid,0
par_8_20904,20904,CTRA.M510-URB.EL CERRILLO,Ctra de Colmenarejo 11400,40.5669136047363,-4.01289653778076,B3,http://www.crtm.es,0,,Europe/Madrid,0
par_8_06002,06002,INTERCAMBIADOR MONCLOA,Calle de la Princesa 89,40.4343032836914,-3.71930313110352,A,http://www.crtm.es,0,est_90_14,,2
par_8_06032,06032,CAMINO VALLADOLID-PºJOAQUÍN R.JIMÉNEZ,Calle   Camino de Valladolid 8,40.5748901367188,-3.92768049240112,B3,http://www.crtm.es,0,,Europe/Madrid,2
par_8_06034,06034,CAMINO VALLADOLID-IGLESIA,Calle   Camino de Valladolid 28,40.5761904968066,-3.93154154995907,B3,http://www.crtm.es,0,,Europe/Madrid,2
par_8_06057,06057,AV.TORRELODONES-URB.LAS MARÍAS,Avda de Torrelodones 8,40.5760955810547,-3.94363522529602,B3,http://www.crtm.es,0,,Europe/Madrid,2
par_8_06058,06058,JESUSA LARA-PARQUE PRADOGRANDE,Calle   Jesusa Lara 1300,40.5781669616699,-3.95226573944092,B3,http://www.crtm.es,0,,Europe/Madrid,2
par_8_06070,06070,CTRA.TORRELODONES-CAÑUELO,Ctra  Torrelodones 11 A,40.5772705078125,-4.00088357925415,B3,http://www.crtm.es,0,,Europe/Madrid,2
par_8_06071,06071,JESUSA LARA-ANTONIO LASSO,Calle   Jesusa Lara 44,40.5797309875488,-3.95808935165405,B3,http://www.crtm.es,0,,Europe/Madrid,2
par_8_06072,06072,CTRA.TORRELODONES-URB.LOS JARALES,Ctra del Puente Nuevo 3,40.5832023620605,-3.97170352935791,B3,http://www.crtm.es,0,,Europe/Madrid,2
par_8_06073,06073,CTRA.TORRELODONES-URB.EL CORZO,Ctra  Torrelodones 42,40.5768394470215,-3.99645829200745,B3,http://www.crtm.es,0,,Europe/Madrid,2
par_8_06074,06074,SOBERANÍA-PZA.CRUZ ROJA,Plaza de la Cruz Roja 1,40.574104309082,-4.00537300109863,B3,http://www.crtm.es,0,,Europe/Madrid,2
par_8_06077,06077,CTRA.TORRELODONES-CAÑUELO,Ctra   Torrelodones 26,40.5771369934082,-4.00068044662476,B3,http://www.crtm.es,0,,Europe/Madrid,2
par_8_06078,06078,CTRA.TORRELODONES-URB.LOS JARALES,Ctra del Puente Nuevo 9,40.5831642150879,-3.97093510627747,B3,http://www.crtm.es,0,,Europe/Madrid,2
par_8_06079,06079,CTRA.TORRELODONES-MONTE INÉS,Calle   Fuente de la Teja 12,40.5797157287598,-3.95903420448303,B3,http://www.crtm.es,0,,Europe/Madrid,2
par_8_06092,06092,JESUSA LARA-PARQUE PRADOGRANDE,Calle   Jesusa Lara 15,40.5778732299805,-3.95194268226624,B3,http://www.crtm.es,0,,Europe/Madrid,2
par_8_06093,06093,AV.TORRELODONES-URB.LAS MARÍAS,Avda de Torrelodones 6,40.5764694213867,-3.94275450706482,B3,http://www.crtm.es,0,,Europe/Madrid,2
par_8_06094,06094,CTRA.A6-AV.TORRELODONES,Paseo de Emilia Alarcos 25,40.5774345397949,-3.93849086761475,B3,http://www.crtm.es,0,,Europe/Madrid,2
par_8_06149,06149,CTRA.M505-BURGOCENTRO,Ctra del Escorial 1300,40.4909934997559,-3.87664604187012,B2,http://www.crtm.es,0,,Europe/Madrid,2
par_8_06164,06164,CTRA.M505-BURGOCENTRO,Calle de la Comunidad de Madrid 41,40.4915809631348,-3.87868332862854,B2,http://www.crtm.es,0,,Europe/Madrid,2
par_8_06166,06166,CTRA.EL ESCORIAL-QUINTA DEL SOL,Ctra del Escorial 5,40.4859046936035,-3.8656895160675,B2,http://www.crtm.es,0,,Europe/Madrid,2
par_8_06268,06268,AV.PADRE HUIDOBRO-PºERMITA,Avda del Padre Huidobro 9700,40.4628105163574,-3.77879428863525,B1,http://www.crtm.es,0,,Europe/Madrid,2
par_8_09072,09072,CTRA.TORRELODONES-URB.EL CORZO,Ctra  Torrelodones 48,40.5769004821777,-3.99553751945496,B3,http://www.crtm.es,0,,Europe/Madrid,2
par_8_09104,09104,PZA.JOSÉ MªUNCETA-POLIDEPORTIVO,Avda de la Dehesa 64,40.5792503356934,-3.93853998184204,B3,http://www.crtm.es,0,,Europe/Madrid,2
par_8_09998,09998,SOBERANÍA-PZA. CRUZ ROJA,Calle de los Alamillos 1,40.5744438171387,-4.00471639633179,B3,http://www.crtm.es,0,,Europe/Madrid,2
par_8_10704,10704,AV.TORRELODONES-GUARDIA CIVIL,Avda de Torrelodones 7,40.5767021179199,-3.94742441177368,B3,http://www.crtm.es,0,,Europe/Madrid,2
par_8_10725,10725,AV.DEHESA-INSTITUTO,Avda de la Dehesa 64,40.5812454223633,-3.93585014343262,B3,http://www.crtm.es,0,,Europe/Madrid,2
par_8_10726,10726,AV.TORRELODONES-GUARDIA CIVIL,Avda de Torrelodones 14,40.5769004821777,-3.94841980934143,B3,http://www.crtm.es,0,,Europe/Madrid,2
par_8_10727,10727,JESUSA LARA-CASA DE LA CULTURA,Calle   Jesusa Lara 1600,40.5791854858398,-3.95562386512756,B3,http://www.crtm.es,0,,Europe/Madrid,2
par_8_11090,11090,CTRA.M505-CEREZALES,Ctra del Escorial 8,40.4857368469238,-3.865238904953,B2,http://www.crtm.es,0,,Europe/Madrid,2
par_8_12371,12371,CAÑADA DE LAS MERINAS-CENTRO DE SALUD,Calle de la Cañada de las Merinas 17,40.5604248046875,-4.01325941085815,B3,http://www.crtm.es,0,,Europe/Madrid,2
par_8_12372,12372,CTRA.VILLANUEVA DEL PARDILLO-INSTITUTO,Ctra de Villanueva del Pardillo 9 A,40.5555877685547,-4.01315116882324,B3,http://www.crtm.es,0,,Europe/Madrid,2
par_8_12373,12373,CTRA.VILLANUEVA DEL PARDILLO-INSTITUTO,Ctra de Villanueva del Pardillo 9 A,40.5555152893066,-4.01315021514893,B3,http://www.crtm.es,0,,Europe/Madrid,2
par_8_12374,12374,AV.UNIVERSIDAD CARLOS III-POLIDEPORTIVO,Ctra de Villanueva del Pardillo 8,40.5520668029785,-4.0116925239563,B3,http://www.crtm.es,0,,Europe/Madrid,2
par_8_12375,12375,AV.UNIVERSIDAD CARLOS III-POLIDEPORTIVO,Avda de la Universidad Carlos III SN,40.5522232055664,-4.01131677627563,B3,http://www.crtm.es,0,,Europe/Madrid,2
par_8_12376,12376,AV.UNIVERSIDAD CARLOS III-RESIDENCIA,Avda de la Universidad Carlos III 22,40.5471420288086,-4.01128768920898,B3,http://www.crtm.es,0,,Europe/Madrid,2
par_8_12377,12377,AV.UNIVERSIDAD CARLOS III-RESIDENCIA,Avda de la Universidad Carlos III 22,40.546314239502,-4.01129913330078,B3,http://www.crtm.es,0,,Europe/Madrid,2
par_8_12378,12378,AV.UNIVERSIDAD CARLOS III-UNIVERSIDAD,Avda de la Universidad Carlos III 22,40.5425720214844,-4.01077032089233,B3,http://www.crtm.es,0,,Europe/Madrid,2
par_8_12951,12951,AV.COMUNIDAD MADRID-COLEGIOS,Avda de Torrelodones 2,40.5782661437988,-3.93799448013306,B3,http://www.crtm.es,0,,Europe/Madrid,2
par_8_15972,15972,CAMINO VALLADOLID-M.LÓPEZ VILLASEÑOR,Avda de la Comunidad de Madrid 2,40.5768321521625,-3.93463410430851,B3,http://www.crtm.es,0,,Europe/Madrid,2
par_8_16701,16701,JESUSA LARA-CASA DE LA CULTURA,Calle   Jesusa Lara 1700,40.579174041748,-3.95675802230835,B3,http://www.crtm.es,0,,Europe/Madrid,2
par_8_20098,20098,AV.ROSARIO MANZANEQUE-FRANCISCO LENCINA,Avda de Rosario Manzaneque 22,40.5841178894043,-3.95277547836304,B3,http://www.crtm.es,0,,Europe/Madrid,0
par_8_23,23,ESCUELA UNIVERSITARIA DE ESTADISTICA,Avda de Puerta de Hierro 5400,40.4483261108398,-3.73622155189514,A,http://www.crtm.es,0,,Europe/Madrid,0
est_90_14,14,Intercambiador de Moncloa,Plaza de la Moncloa 1,40.43523,-3.71919,A,http://www.crtm.es,1,,Europe/Madrid,0
par_8_06065,06065,CTRA.LA NAVATA-EST.GALAPAGAR LA NAVATA,Ctra de Galapagar-La Navata 139,40.5994071960449,-3.98272895812988,B3,http://www.crtm.es,0,,Europe/Madrid,2
par_8_06066,06066,CTRA.LA NAVATA-ERMITA LA NAVATA,Ctra de Galapagar-La Navata 89,40.5949058532715,-3.98548746109009,B3,http://www.crtm.es,0,,Europe/Madrid,2
par_8_06067,06067,CTRA.LA NAVATA-SOL,Ctra de Galapagar-La Navata 57,40.5903053283691,-3.98831510543823,B3,http://www.crtm.es,0,,Europe/Madrid,2
par_8_06068,06068,CTRA.LA NAVATA-URB.CARRANZA,Ctra de Galapagar-La Navata 27,40.5862693786621,-3.99269866943359,B3,http://www.crtm.es,0,,Europe/Madrid,2
par_8_06069,06069,CTRA.LA NAVATA-SAN GREGORIO,Calle de San Gregorio 89,40.5817337036133,-3.99946117401123,B3,http://www.crtm.es,0,,Europe/Madrid,2
par_8_06082,06082,CTRA.LA NAVATA-URB.CARRANZA,Ctra de Galapagar-La Navata 4400,40.5861892700195,-3.99254393577576,B3,http://www.crtm.es,0,,Europe/Madrid,2
par_8_06083,06083,CTRA.LA NAVATA-SOL,Ctra de Galapagar-La Navata 3700,40.5906791687012,-3.98774170875549,B3,http://www.crtm.es,0,,Europe/Madrid,2
par_8_06084,06084,CTRA.LA NAVATA-ERMITA LA NAVATA,Ctra de Galapagar-La Navata 118,40.5949859619141,-3.98547673225403,B3,http://www.crtm.es,0,,Europe/Madrid,2
par_8_06085,06085,CTRA.LA NAVATA-EST.GALAPAGAR LA NAVATA,Ctra de Galapagar-La Navata 137,40.5992965698242,-3.98276281356812,B3,http://www.crtm.es,0,,Europe/Madrid,2
par_8_12156,12156,CTRA.LA NAVATA-URB.LOS OLMOS,Ctra de Galapagar-La Navata 196,40.6031684875488,-3.9830322265625,B3,http://www.crtm.es,0,,Europe/Madrid,2
par_8_12157,12157,CTRA.LA NAVATA-URB.LOS OLMOS,Ctra de Galapagar-La Navata 169,40.6028861999512,-3.98335909843445,B3,http://www.crtm.es,0,,Europe/Madrid,2
par_8_12456,12456,CTRA.GUADARRAMA-INSTITUTO,Ctra de Guadarrama SN,40.5822868347168,-4.01124954223633,B3,http://www.crtm.es,0,,Europe/Madrid,2
par_8_12457,12457,CTRA.GUADARRAMA-INSTITUTO,Ctra de Guadarrama SN,40.5826416015625,-4.01106595993042,B3,http://www.crtm.es,0,,Europe/Madrid,2
par_8_12459,12459,CTRA.GUADARRAMA-COLEGIO,Ctra de Guadarrama 25,40.5802268981934,-4.01075792312622,B3,http://www.crtm.es,0,,Europe/Madrid,2
par_8_12462,12462,ESCUELAS-MERCADO,Calle   Escuelas 17,40.5805931091309,-4.00424146652222,B3,http://www.crtm.es,0,,Europe/Madrid,2
par_8_12463,12463,ESCUELAS-MERCADO,Calle   Escuelas 24,40.5806503295898,-4.00366306304932,B3,http://www.crtm.es,0,,Europe/Madrid,2
par_8_12464,12464,CTRA.VILLALBA-SAN GREGORIO,Ctra de Villalba 19,40.5816192626953,-4.0001802444458,B3,http://www.crtm.es,0,,Europe/Madrid,2
par_8_15525,15525,PºMORET-MONCLOA,Paseo de Moret 1,40.4344520568848,-3.72050714492798,A,http://www.crtm.es,0,est_90_14,,2
par_8_18236,18236,CºESCORIAL-SEGOVIA,Cmno del Escorial 32,40.6233978271484,-4.03334045410156,B3,http://www.crtm.es,0,,Europe/Madrid,0
par_8_18237,18237,CºESCORIAL-CIUDAD REAL,Calle de Ciudad Real 12,40.623649597168,-4.03316688537598,B3,http://www.crtm.es,0,,Europe/Madrid,0
par_8_18493,18493,CTRA.LA NAVATA-CENTRO DE SALUD,Ctra de Galapagar-La Navata 4900,40.5834732055664,-3.99606037139893,B3,http://www.crtm.es,0,,Europe/Madrid,0
par_8_18494,18494,CTRA.LA NAVATA-CENTRO DE SALUD,Ctra de Galapagar-La Navata 4900,40.5835075378418,-3.99608445167542,B3,http://www.crtm.es,0,,Europe/Madrid,0
par_8_19913,19913,COLON-COLONIA ESPAÑA,Calle   Colonia España 13,40.6183013916016,-4.03706836700439,B3,http://www.crtm.es,0,,Europe/Madrid,0
par_8_06107,06107,CTRA.A6-EST.PINAR,Avda de los Bomberos 2,40.521411895752,-3.88535308837891,B2,http://www.crtm.es,0,,Europe/Madrid,2
par_8_06244,06244,AV.ESPAÑA-EL ZOCO,Avda   España 53,40.4662456391127,-3.86705697874913,B2,http://www.crtm.es,0,,Europe/Madrid,2
par_8_08791,08791,CTRA.POZUELO-INS.NACIONAL DE SANIDAD,Ctra de Pozuelo de Alarcón 3900,40.4591111617398,-3.86337982162338,B2,http://www.crtm.es,0,,Europe/Madrid,2
par_8_08792,08792,CTRA.POZUELO-INS.NACIONAL DE SANIDAD,Ctra de Pozuelo de Alarcón 3900,40.4589313549982,-3.86333034315242,B2,http://www.crtm.es,0,,Europe/Madrid,2
par_8_09333,09333,COMUNIDAD CASTILLA LA MANCHA-BURGOCENTRO,Calle de la Comunidad Castilla-La Mancha 1,40.4900894165039,-3.87682318687439,B2,http://www.crtm.es,0,,Europe/Madrid,2
par_8_09804,09804,CTRA.A6-PLAYA DE LAS AMÉRICAS,Calle de la Vía de Servicio de las Rozas 1,40.5414848327637,-3.89217114448547,B2,http://www.crtm.es,0,,Europe/Madrid,2
par_8_09805,09805,CTRA.A6-PQUE.EUROPA EMPRESARIAL,Ctra   Vía Servicio Carretera de A Coruña 24.200,40.539737701416,-3.89212441444397,B2,http://www.crtm.es,0,,Europe/Madrid,2
par_8_09807,09807,CTRA.A6-PARQUE EMPRESARIAL LAS ROZAS,Ctra   Vía Servicio Carretera de A Coruña sn,40.5274047851563,-3.88734459877014,B2,http://www.crtm.es,0,,Europe/Madrid,2
par_8_09808,09808,CTRA.A6-TALLERES RENFE,Calle de la Vía de Servicio de las Rozas 1,40.5274772644043,-3.88640093803406,B2,http://www.crtm.es,0,,Europe/Madrid,2
par_8_11830,11830,SEVERO OCHOA-PABLO NERUDA,Calle   Severo Ochoa 2,40.5189247131348,-3.89262747764587,B2,http://www.crtm.es,0,,Europe/Madrid,2
par_8_11831,11831,SEVERO OCHOA-PABLO NERUDA,Calle   Severo Ochoa 1,40.5183258056641,-3.89286756515503,B2,http://www.crtm.es,0,,Europe/Madrid,2
par_8_11958,11958,APEADERO-EST.LAS MATAS,Calle   Apeadero 6,40.5521011352539,-3.89746141433716,B2,http://www.crtm.es,0,,Europe/Madrid,2
par_8_11959,11959,CTRA.CORUÑA-EST.LAS MATAS,Ctra   Vía Servicio Carretera de A Coruña SN,40.5519701248567,-3.89806580142118,B2,http://www.crtm.es,0,,Europe/Madrid,2
par_8_12446,12446,TRVA.NAVALCARBÓN-HERON CITY,Trva   Navalcarbón 1,40.5159339904785,-3.89969396591187,B2,http://www.crtm.es,0,,Europe/Madrid,2
par_8_12447,12447,TRVA.NAVALCARBÓN-HERON CITY,Travesía de Navalcarbón SN,40.5156517028809,-3.89964294433594,B2,http://www.crtm.es,0,,Europe/Madrid,2
par_8_12995,12995,AV.ESPAÑA-EL ZOCO,Avda   España 4900,40.4665683319198,-3.86727344688043,B2,http://www.crtm.es,0,,Europe/Madrid,2
par_8_13038,13038,VELÁZQUEZ-C.C.CENTRO OESTE,Calle  Velázquez 37,40.4533838855783,-3.86667934670326,B2,http://www.crtm.es,0,,Europe/Madrid,2
par_8_13042,13042,VELÁZQUEZ-C.C.CENTRO OESTE,Calle  Velázquez 37,40.4533137668132,-3.86641899685071,B2,http://www.crtm.es,0,,Europe/Madrid,2
par_8_17244,17244,PZA.ABASTO-C.C.ESPACIO TORRELODONES,Plaza del Abasto SN,40.5691604614258,-3.92069053649902,B3,http://www.crtm.es,0,,Europe/Madrid,2
par_8_17923,17923,J.RODRIGO-HOSPITAL PUERTA DE HIERRO,Calle   Joaquín Rodrigo 1,40.4488069361189,-3.87511102971141,B2,http://www.crtm.es,0,,Europe/Madrid,0
par_8_20035,20035,CTRA.A6-C.C.ESPACIO TORRELODONES,Ctra   Nacional VI (Madrid- A Coruña) 28500,40.5712074653237,-3.9204619960908,B3,http://www.crtm.es,0,,Europe/Madrid,0
par_8_20576,20576,CAÑADA REAL-NAVAZO,Calle de la Cañada Real 20,40.5670204162598,-4.02002143859863,B3,http://www.crtm.es,0,,Europe/Madrid,0
par_8_20577,20577,CAÑADA REAL-URB.PARQUE AZUL,Calle de la Cañada Real 8,40.5646896362305,-4.01776552200317,B3,http://www.crtm.es,0,,Europe/Madrid,0
par_8_20578,20578,CAÑADA REAL-URB.PARQUE AZUL,Calle de la Cañada Real 8,40.5648422241211,-4.01779127120972,B3,http://www.crtm.es,0,,Europe/Madrid,0
par_8_20579,20579,PRADO MARINERO-RESERVA,Calle del Prado Marinero 12,40.5626831054688,-4.01121473312378,B3,http://www.crtm.es,0,,Europe/Madrid,0
par_8_20580,20580,CTRA.COLMENAREJO-JAZMÍN,Calle del Jazmín 2,40.5719108581543,-4.00793933868408,B3,http://www.crtm.es,0,,Europe/Madrid,0
par_8_20581,20581,MELONARES-PLAZA TORERO JOSÉ TOMÁS,Calle de los Melonares 1,40.5781669616699,-4.00234985351563,B3,http://www.crtm.es,0,,Europe/Madrid,0
par_8_20582,20582,SAN GREGORIO-TENERÍA,Calle de San Gregorio 89,40.5813674926758,-4.00004625320435,B3,http://www.crtm.es,0,,Europe/Madrid,0
par_8_20583,20583,AV.VÍCTIMAS DEL TERRORISMO-CENTRO SALUD,Avda de las Víctimas del Terrorismo 1,40.5845642089844,-3.99712824821472,B3,http://www.crtm.es,0,,Europe/Madrid,0
par_8_20584,20584,COTOS-JUAN FRAILE,Calle   Cotos 7,40.5792541503906,-4.00351238250732,B3,http://www.crtm.es,0,,Europe/Madrid,0
par_8_20585,20585,GUADARRAMA-PZA.IGLESIA,Calle   Guadarrama 1,40.5781517028809,-4.00409841537476,B3,http://www.crtm.es,0,,Europe/Madrid,0
par_8_20586,20586,CAÑADA REAL-CTRA.GALAPAGAR,Calle de la Cañada Real 5,40.5630989074707,-4.01513051986694,B3,http://www.crtm.es,0,,Europe/Madrid,0
par_8_06060,06060,MONTE PEREGRINOS-HÍPICA Y GOLF,Calle   Monte Peregrinos 2,40.5915184020996,-3.95653223991394,B3,http://www.crtm.es,0,,Europe/Madrid,2
par_8_06061,06061,AV.SICILIA-PIAMONTE,Avda   Sicilia 67,40.5952529907227,-3.96146631240845,B3,http://www.crtm.es,0,,Europe/Madrid,2
par_8_06062,06062,AV.NORMANDÍA-ALSACIA,Avda de Normandía 7,40.592586517334,-3.96796321868896,B3,http://www.crtm.es,0,,Europe/Madrid,2
par_8_06063,06063,AV.SAJONIA-AV.TOSCANA,Avda de Sajonia 18,40.5961265563965,-3.96589875221252,B3,http://www.crtm.es,0,,Europe/Madrid,2
par_8_06064,06064,AV.BOHEMIA-FUENTES CLARAS,Avda de Bohemia 23,40.6031227111816,-3.97060918807983,B3,http://www.crtm.es,0,,Europe/Madrid,2
par_8_06086,06086,AV.BOHEMIA-FUENTES CLARAS,Avda de Bohemia 21,40.6030387878418,-3.97080898284912,B3,http://www.crtm.es,0,,Europe/Madrid,2
par_8_06087,06087,AV.TOSCANA-TEJAS VERDES,Avda   Toscana 40,40.5967254638672,-3.96756196022034,B3,http://www.crtm.es,0,,Europe/Madrid,2
par_8_06088,06088,AV.NORMANDÍA-ALSACIA,Avda de Normandía 8,40.5925674438477,-3.96811652183533,B3,http://www.crtm.es,0,,Europe/Madrid,2
par_8_06089,06089,AV.SICILIA-PIAMONTE,Avda   Sicilia 67,40.5951461791992,-3.96137022972107,B3,http://www.crtm.es,0,,Europe/Madrid,2
par_8_06090,06090,MONTE PEREGRINOS-HÍPICA Y GOLF,Calle   Monte Peregrinos 2,40.5908813476563,-3.95514059066772,B3,http://www.crtm.es,0,,Europe/Madrid,2
par_8_06091,06091,CTRA.A6-ANTONIO LASSO,Ctra   Nacional VI (Madrid- A Coruña) 32.000,40.5868988037109,-3.95394945144653,B3,http://www.crtm.es,0,,Europe/Madrid,2
par_8_10879,10879,PIAMONTE-COLEGIO,Calle   Piamonte 4,40.5959930419922,-3.95795512199402,B3,http://www.crtm.es,0,,Europe/Madrid,2
par_8_10889,10889,MONTE PEREGRINOS-COLEGIO,Calle   Monte Peregrinos 2,40.5948486328125,-3.95706415176392,B3,http://www.crtm.es,0,,Europe/Madrid,2
par_8_11084,11084,CTRA.A6-URB.LA BERZOSILLA,Avda de la Comunidad de Madrid 16,40.5838928505982,-3.95034132889947,B3,http://www.crtm.es,0,,Europe/Madrid,2
par_8_11460,11460,AV.COMUNIDAD MADRID-AV.TORRELODONES,Avda de la Comunidad de Madrid 2,40.5783551097586,-3.93901504741398,B3,http://www.crtm.es,0,,Europe/Madrid,2
par_8_11848,11848,AV.SICILIA-IGLESIA,Avda   Sicilia 27,40.6005897521973,-3.96641230583191,B3,http://www.crtm.es,0,,Europe/Madrid,2
par_8_11849,11849,AV.TOSCANA-MORAVIA,Avda   Toscana 8,40.5999755859375,-3.96756172180176,B3,http://www.crtm.es,0,,Europe/Madrid,2
par_8_15621,15621,AV.NORMANDÍA-EMILIA PARDO BAZÁN,Avda de Normandía 25,40.5916328430176,-3.96438074111938,B3,http://www.crtm.es,0,,Europe/Madrid,2
par_8_15622,15622,AV.NORMANDÍA-EMILIA PARDO BAZÁN,Avda de Normandía 25,40.5919227600098,-3.96442031860352,B3,http://www.crtm.es,0,,Europe/Madrid,2
par_8_15963,15963,AV.ROSARIO MANZANEQUE-RESIDENCIA,Avda de Rosario Manzaneque 20,40.5841598510742,-3.95304799079895,B3,http://www.crtm.es,0,,Europe/Madrid,2
par_8_15964,15964,AV.ROSARIO MANZANEQUE-CASA DE LA CULTURA,Avda de Rosario Manzaneque 1,40.5793571472168,-3.95642971992493,B3,http://www.crtm.es,0,,Europe/Madrid,2
par_8_08413,08413,CAMINO VALLADOLID-PºJOAQUÍN R.JIMÉNEZ,Calle   Camino de Valladolid 1,40.5745048522949,-3.9272735118866,B3,http://www.crtm.es,0,,Europe/Madrid,2
par_8_09103,09103,DR.MINGO ALSINA-EST.TORRELODONES,Calle   Doctor Mingo Alsina 22,40.5740013122559,-3.95583367347717,B3,http://www.crtm.es,0,,Europe/Madrid,2
par_8_10703,10703,JAVIER GªDE LEANIZ-JESUSA LARA,Calle   Javier García de Leaniz 3,40.5785255432129,-3.95353507995605,B3,http://www.crtm.es,0,,Europe/Madrid,2
par_8_10705,10705,AV.DEHESA-POLIDEPORTIVO,Avda de la Dehesa 64,40.5789451599121,-3.93846487998962,B3,http://www.crtm.es,0,,Europe/Madrid,2
par_8_10706,10706,AV.DEHESA-INSTITUTO,Calle del Instituto 1,40.5810852050781,-3.9357533454895,B3,http://www.crtm.es,0,,Europe/Madrid,2
par_8_10707,10707,AV.DEHESA-CENTRO DE SALUD,Avda de la Dehesa 63,40.581298828125,-3.92956495285034,B3,http://www.crtm.es,0,,Europe/Madrid,2
par_8_10708,10708,JOSÉ SÁNCHEZ RUBIO-AV.DEHESA,Calle   José Sánchez Rubio 19,40.5799522399902,-3.92662787437439,B3,http://www.crtm.es,0,,Europe/Madrid,2
par_8_10709,10709,JOSÉ SÁNCHEZ RUBIO-JOSÉ MARÍA MORENO,Calle   José Sánchez Rubio 30,40.5782470703125,-3.92783308029175,B3,http://www.crtm.es,0,,Europe/Madrid,2
par_8_10710,10710,PZA.CAÑO-AYUNTAMIENTO,Plaza del Caño 4,40.5765266418457,-3.92928624153137,B3,http://www.crtm.es,0,,Europe/Madrid,2
par_8_10728,10728,AGAPITO MARTÍNEZ-CENTRO DE ATENCIÓN,Calle   Agapito Martínez 32,40.5769386291504,-3.95822668075562,B3,http://www.crtm.es,0,,Europe/Madrid,2
par_8_10753,10753,AV.TORRELODONES-HERRADOR,Avda de Torrelodones 51,40.5729904174805,-3.95396447181702,B3,http://www.crtm.es,0,,Europe/Madrid,2
par_8_13141,13141,AV.CASTILLO OLIVARES-POLICIA LOCAL,Avda   Castillo de Olivares 1,40.5695457458496,-3.92682695388794,B3,http://www.crtm.es,0,,Europe/Madrid,2
par_8_13142,13142,AV.CASTILLO OLIVARES-HOTEL,Avda   Castillo de Olivares SN,40.5713157653809,-3.92507934570313,B3,http://www.crtm.es,0,,Europe/Madrid,2
par_8_13143,13143,RIBADESELLA-LOS BOMBEROS,Calle   Ribadesella 19,40.5721549987793,-3.92726469039917,B3,http://www.crtm.es,0,,Europe/Madrid,2
par_8_15965,15965,JAVIER GªDE LEANIZ-JOSÉ LUIS MARTÍNEZ,Calle   Javier García de Leaniz 11 A,40.5753860473633,-3.95396304130554,B3,http://www.crtm.es,0,,Europe/Madrid,2
par_8_15973,15973,PZA.EPIFANIO VELASCO-IGLESIA,Plaza de Epifanio Velasco 4,40.5765762329102,-3.93205165863037,B3,http://www.crtm.es,0,,Europe/Madrid,2
par_8_15975,15975,AV.CASTILLO OLIVARES-HOSPITAL MADRID,Avda   Castillo de Olivares 2,40.5706100463867,-3.92563652992249,B3,http://www.crtm.es,0,,Europe/Madrid,2
par_8_17110,17110,NUEVA-CENTRO DE SALUD,Calle   Nueva 27,40.5816421508789,-3.93133020401001,B3,http://www.crtm.es,0,,Europe/Madrid,2
par_8_18784,18784,PZA.DEL CAÑO-CARLOS PICABEA,Plaza del Caño 1,40.576530456543,-3.9296407699585,B3,http://www.crtm.es,0,,Europe/Madrid,0
par_8_18862,18862,AV.FONTANILLA-C.C.ESPACIO TORRELODONES,Avda de la Fontanilla 2,40.5690040588379,-3.92126703262329,B3,http://www.crtm.es,0,,Europe/Madrid,0
par_8_18863,18863,AV.FONTANILLA-PARQUE,Avda de la Fontanilla 2,40.566764831543,-3.92283129692078,B3,http://www.crtm.es,0,,Europe/Madrid,0
par_8_18864,18864,AV.FONTANILLA-PARQUE,Avda de la Fontanilla 2,40.5666618347168,-3.92242813110352,B3,http://www.crtm.es,0,,Europe/Madrid,0
par_8_18865,18865,AV.FONTANILLA 9,Avda de la Fontanilla 9,40.5647239685059,-3.92120838165283,B3,http://www.crtm.es,0,,Europe/Madrid,0
par_8_18866,18866,AV.FONTANILLA 62,Avda de la Fontanilla 64,40.5644912719727,-3.92103981971741,B3,http://www.crtm.es,0,,Europe/Madrid,0
par_8_18867,18867,ARROYO DE LOS VIALES-VALDEHURONES,Calle   Arroyo de los Viales 72,40.5657920837402,-3.91868329048157,B3,http://www.crtm.es,0,,Europe/Madrid,0
par_8_19884,19884,JAVIER GªDE LEANIZ-ESCUELA DE IDIOMAS,Calle   Javier García de Leaniz 9,40.5769081115723,-3.95411467552185,B3,http://www.crtm.es,0,,Europe/Madrid,0
par_8_19886,19886,NUEVA-HERRÉN LARGA,Calle   Nueva 8,40.5780715942383,-3.93175339698792,B3,http://www.crtm.es,0,,Europe/Madrid,0
par_8_20183,20183,AV.FONTANILLA-ARROYO DE LOS VIALES,Avda de la Fontanilla 78,40.5655708312988,-3.91923546791077,B3,http://www.crtm.es,0,,Europe/Madrid,0
par_8_20184,20184,VALDEHURONES-HERRÉN DE MADRID,Calle   Herrén de Madrid 32,40.5640907287598,-3.91591954231262,B3,http://www.crtm.es,0,,Europe/Madrid,0
par_8_10714,10714,AV.ROBLES-CEDRO,Avda de los Robles 12,40.5850616157944,-3.92398408905562,B3,http://www.crtm.es,0,,Europe/Madrid,2
par_8_10724,10724,AV.DEHESA-CENTRO DE SALUD,Avda de la Dehesa 28,40.581404538506,-3.92954615904725,B3,http://www.crtm.es,0,,Europe/Madrid,2
par_8_15526,15526,MAR ROJO-AV.DEHESA,Calle del Mar Rojo S/N,40.5806558896422,-3.92629836418024,B3,http://www.crtm.es,0,,Europe/Madrid,2
par_8_15527,15527,MAR ROJO-AV.DEHESA,Calle del Mar Rojo S/N,40.5805739684215,-3.92640357290763,B3,http://www.crtm.es,0,,Europe/Madrid,2
par_8_15529,15529,AV.ROBLES-URB.MONTE LOS ÁNGELES,Avda de los Robles 74,40.5826275975919,-3.92532122358869,B3,http://www.crtm.es,0,,Europe/Madrid,2
par_8_16208,16208,ÁLAMO-RESIDENCIA,Calle   Álamo 1,40.586342691693,-3.92149663467102,B3,http://www.crtm.es,0,,Europe/Madrid,2
par_8_19245,19245,AV. ROBLES-CENTRO GERIÁTRICO,Avda de los Robles 5,40.585528558041,-3.92078829790926,B3,http://www.crtm.es,0,,Europe/Madrid,0
par_8_19246,19246,AV.ROBLES-CEDRO,Avda de los Robles 19,40.584991444963,-3.92374679918135,B3,http://www.crtm.es,0,,Europe/Madrid,0
par_8_19247,19247,AV.ROBLES-URB.MONTE LOS ÁNGELES,Avda de los Robles 70,40.5825836005814,-3.92519064364217,B3,http://www.crtm.es,0,,Europe/Madrid,0
par_8_10735,10735,AV.LAGO-DEPURADORA,Avda del Lago 21,40.5711784362793,-3.89784622192383,B3,http://www.crtm.es,0,,Europe/Madrid,2
par_8_12220,12220,AV.PEÑASCALES-TANATORIO,Paseo   Joaquín Ruiz Jiménez 32,40.5737308882457,-3.92146534500076,B3,http://www.crtm.es,0,,Europe/Madrid,2
par_8_12221,12221,AV.PEÑASCALES-URB.BELLA VISTA,Avda de los Peñascales 2,40.5738198122409,-3.91708348109945,B3,http://www.crtm.es,0,,Europe/Madrid,2
par_8_12222,12222,AV.PEÑASCALES-URB.SALUD Y ALEGRÍA,Avda de los Peñascales 11,40.5737698331863,-3.90744238109619,B3,http://www.crtm.es,0,,Europe/Madrid,2
par_8_12223,12223,AV.PEÑASCALES-PISTAS DE TENIS,Avda de los Peñascales 21,40.5726449137411,-3.90384752775922,B3,http://www.crtm.es,0,,Europe/Madrid,2
par_8_12224,12224,AV.LAGO-EMBALSE LOS PEÑASCALES,Avda del Lago 18,40.5725758056475,-3.90000703724578,B3,http://www.crtm.es,0,,Europe/Madrid,2
par_8_12227,12227,AV.LAGO-RESIDENCIA DE ANCIANOS,Avda del Lago 27,40.5683555603027,-3.89854097366333,B3,http://www.crtm.es,0,,Europe/Madrid,2
par_8_12231,12231,PºJOAQUÍN R.JIMÉNEZ-LOS ALMENDROS,Paseo   Joaquín Ruiz Jiménez 1,40.5738848623623,-3.92361765140241,B3,http://www.crtm.es,0,,Europe/Madrid,2
par_8_13144,13144,AV.CONDE DE LAS ALMENAS-BIBLIOTECA,Avda   Conde de las Almenas 2,40.5749441961722,-3.92520353992324,B3,http://www.crtm.es,0,,Europe/Madrid,2
par_8_13146,13146,AV.CONDE DE LAS ALMENAS-ARTURO PACIOS,Avda   Conde de las Almenas 20,40.5778411520063,-3.92230152965532,B3,http://www.crtm.es,0,,Europe/Madrid,2
par_8_13149,13149,AV.PARDO-URB.PEÑALAR,Avda del Pardo 10,40.5815139001541,-3.91471910146089,B3,http://www.crtm.es,0,,Europe/Madrid,2
par_8_13150,13150,AV.PARDO-URB.ARROYO DE TROFA,Avda del Pardo 18,40.581866774478,-3.90996219696076,B3,http://www.crtm.es,0,,Europe/Madrid,2
par_8_13151,13151,AV.PARDO-URB.MONTEALEGRE,Avda del Pardo 40,40.5822667585375,-3.90146028799449,B3,http://www.crtm.es,0,,Europe/Madrid,2
par_8_13152,13152,AV.PARDO-CLAVEL,Avda del Pardo 42,40.5827653362295,-3.89759139082581,B3,http://www.crtm.es,0,,Europe/Madrid,2
par_8_13153,13153,AV.PARDO-AV.MONTE,Avda del Pardo 42 B,40.5819043338358,-3.88894261983189,B3,http://www.crtm.es,0,,Europe/Madrid,2
par_8_13154,13154,AV.HITO-AV.LOMA,Avda del Hito 1,40.5793187288951,-3.88426500623555,B3,http://www.crtm.es,0,,Europe/Madrid,2
par_8_13155,13155,AV.LOMA Nº38,Avda de la Loma 40,40.5786098331991,-3.88625242363658,B3,http://www.crtm.es,0,,Europe/Madrid,2
par_8_13156,13156,AV.RODEO-AV.LOMA,Avda del Rodeo 100,40.5768363585212,-3.88843838440311,B3,http://www.crtm.es,0,,Europe/Madrid,2
par_8_13157,13157,AV.RODEO-BAJA,Avda del Rodeo 62,40.5734043316356,-3.89074400707296,B3,http://www.crtm.es,0,,Europe/Madrid,2
par_8_13158,13158,AV.RODEO Nº1,Avda del Rodeo 1,40.5766566439169,-3.89188591572937,B3,http://www.crtm.es,0,,Europe/Madrid,2
par_8_13164,13164,AV.LAGO-DEPURADORA,Avda del Lago 26,40.570671081543,-3.89813494682312,B3,http://www.crtm.es,0,,Europe/Madrid,2
par_8_13166,13166,AV.LAGO-COLEGIO,Avda del Lago 29,40.5672912597656,-3.89852666854858,B3,http://www.crtm.es,0,,Europe/Madrid,2
par_8_15974,15974,CTRA.EL PARDO-F.RIVAS,Avda del Pardo 8,40.5801496425226,-3.91862321534101,B3,http://www.crtm.es,0,,Europe/Madrid,2
par_8_15980,15980,AV.PARDO-PADRE MUNDINA,Avda del Pardo 42 B,40.5824127197266,-3.89113140106201,B3,http://www.crtm.es,0,,Europe/Madrid,2
par_8_15981,15981,AV.HITO-COLINA,Avda del Hito 34,40.5807011631007,-3.88607916296234,B3,http://www.crtm.es,0,,Europe/Madrid,2
par_8_15983,15983,AV.MONTE-AV.LAGO,Avda del Monte 1,40.5717448951824,-3.89796391479699,B3,http://www.crtm.es,0,,Europe/Madrid,2
par_8_18860,18860,AV.PEÑASCALES-DOCTOR BEDOYA,Avda de los Peñascales 2,40.5744411370623,-3.91938394953601,B3,http://www.crtm.es,0,,Europe/Madrid,0
par_8_19261,19261,AV.MONTE-TOMILLAR,Avda del Monte 17,40.5752502499065,-3.89667574270026,B3,http://www.crtm.es,0,,Europe/Madrid,0
par_8_19262,19262,AV.TRANSVERSAL-TOMILLAR,Avda   Transversal 7,40.578447534199,-3.89212237242543,B3,http://www.crtm.es,0,,Europe/Madrid,0
par_8_19263,19263,MORERAS-TOMILLO,Calle   Moreras 14,40.5803909301758,-3.90169143676758,B3,http://www.crtm.es,0,,Europe/Madrid,0
par_8_10729,10729,PºJOAQUÍN RUIZ JIMÉNEZ-LOS ALMENDROS,Paseo   Joaquín Ruiz Jiménez 14,40.5738868713379,-3.92376780509949,B3,http://www.crtm.es,0,,Europe/Madrid,2
par_8_10730,10730,AV.PEÑASCALES-TANATORIO,Paseo   Joaquín Ruiz Jiménez 32,40.5735893249512,-3.92134189605713,B3,http://www.crtm.es,0,,Europe/Madrid,2
par_8_10731,10731,AV.PEÑASCALES-URB.BELLA VISTA,Avda de los Peñascales 2,40.5737380981445,-3.91717338562012,B3,http://www.crtm.es,0,,Europe/Madrid,2
par_8_10732,10732,AV.PEÑASCALES-URB.SALUD Y ALEGRÍA,Avda de los Peñascales 13,40.5736923217773,-3.9069652557373,B3,http://www.crtm.es,0,,Europe/Madrid,2
par_8_10733,10733,AV.PEÑASCALES-PISTAS DE TENIS,Avda de los Peñascales 21,40.5725593566895,-3.90352368354797,B3,http://www.crtm.es,0,,Europe/Madrid,2
par_8_10734,10734,AV.LAGO-EMBALSE LOS PEÑASCALES,Avda del Lago 18,40.5724067687988,-3.89987111091614,B3,http://www.crtm.es,0,,Europe/Madrid,2
par_8_10739,10739,AV.TOMILLAR-AV.TRANSVERSAL,Avda   Transversal 5 H,40.5783729553223,-3.89262557029724,B3,http://www.crtm.es,0,,Europe/Madrid,2
par_8_10740,10740,AV.RODEO Nº26,Avda del Rodeo 26,40.5758934020996,-3.89194297790527,B3,http://www.crtm.es,0,,Europe/Madrid,2
par_8_10741,10741,AV.RODEO-BAJA,Avda del Rodeo 54,40.5730400085449,-3.89134979248047,B3,http://www.crtm.es,0,,Europe/Madrid,2
par_8_10742,10742,AV.RODEO-AV.LA LOMA,Avda del Rodeo 102,40.5770645141602,-3.88846111297607,B3,http://www.crtm.es,0,,Europe/Madrid,2
par_8_10743,10743,AV.LOMA Nº38,Avda de la Loma 38,40.578556060791,-3.88641333580017,B3,http://www.crtm.es,0,,Europe/Madrid,2
par_8_10744,10744,AV.HITO-AV.LOMA,Avda del Hito 2,40.5793380737305,-3.88421416282654,B3,http://www.crtm.es,0,,Europe/Madrid,2
par_8_10745,10745,AV.PARDO-AV.MONTE,Avda del Pardo 42 B,40.5818901062012,-3.88884401321411,B3,http://www.crtm.es,0,,Europe/Madrid,2
par_8_10746,10746,AV.PARDO-CLAVEL,Avda del Pardo 42,40.582836151123,-3.89780139923096,B3,http://www.crtm.es,0,,Europe/Madrid,2
par_8_10747,10747,AV.PARDO-URB.MONTEALEGRE,Avda del Pardo 40,40.5823554992676,-3.90167045593262,B3,http://www.crtm.es,0,,Europe/Madrid,2
par_8_10752,10752,AV.PARDO-URB.PEÑALAR,Avda del Pardo 10,40.5814590454102,-3.91493940353394,B3,http://www.crtm.es,0,,Europe/Madrid,2
par_8_13145,13145,CTRA.M618-BIBLIOTECA,Avda   Conde de las Almenas 4,40.5755310058594,-3.92500734329224,B3,http://www.crtm.es,0,,Europe/Madrid,2
par_8_13147,13147,AV.CONDE DE LAS ALMENAS-ARTURO PACIOS,Avda   Conde de las Almenas 20,40.5778846740723,-3.92272400856018,B3,http://www.crtm.es,0,,Europe/Madrid,2
par_8_13185,13185,AV.MONTE-CºPRESA,Avda del Monte 1,40.5718460083008,-3.89689826965332,B3,http://www.crtm.es,0,,Europe/Madrid,2
par_8_13186,13186,AV.PARDO-URB.ARROYO DE TROFA,Avda del Pardo 20,40.5819320678711,-3.90988850593567,B3,http://www.crtm.es,0,,Europe/Madrid,2
par_8_18149,18149,AV.HITO-FONDO DEL HITO,Avda del Hito 34,40.5806770324707,-3.88593316078186,B3,http://www.crtm.es,0,,Europe/Madrid,0
par_8_18861,18861,AV.PEÑASCALES-DOCTOR BEDOYA,Avda de los Peñascales 2,40.5743980407715,-3.91919088363647,B3,http://www.crtm.es,0,,Europe/Madrid,0
par_8_19260,19260,AV.MONTE-ESTANQUE,Avda del Monte 21 B,40.5757102966309,-3.89583921432495,B3,http://www.crtm.es,0,,Europe/Madrid,0
