stop_id,stop_code,stop_name,stop_desc,stop_lat,stop_lon,zone_id,stop_url,location_type,parent_station,stop_timezone,wheelchair_boarding
par_8_06692,06692,AV.OLÍMPICA-PABELLÓN DEPORTIVO,Avda   Olímpica 3 A,40.5364875793457,-3.63275647163391,B1,http://www.crtm.es,0,,Europe/Madrid,2
par_8_06693,06693,PºEUROPA-MARÍA SANTOS COLMENAR,Paseo   Europa 26,40.544750213623,-3.62408328056335,B1,http://www.crtm.es,0,,Europe/Madrid,2
par_8_06697,06697,CTRA.A1-URB.FUENTE EL FRESNO,Ctra   N-I ( Burgos) 23400,40.5890731811523,-3.58275675773621,B2,http://www.crtm.es,0,,Europe/Madrid,2
par_8_06700,06700,CTRA.A1-CIRCUITO DEL JARAMA,Ctra   N-I ( Burgos) 26000,40.6117782592773,-3.58051896095276,B3,http://www.crtm.es,0,,Europe/Madrid,2
par_8_06701,06701,CTRA.A1-URB.CIUDALCAMPO,Ctra   Nacional I 28.300,40.627872467041,-3.58638119697571,B3,http://www.crtm.es,0,,Europe/Madrid,2
par_8_06703,06703,CTRA.A1-URB.VALDELAGUA,Ctra   Nacional I 30.800,40.6490173339844,-3.59648966789246,B3,http://www.crtm.es,0,,Europe/Madrid,2
par_8_06704,06704,AV.MADRID-LUDOTECA,Avda de Madrid 37,40.6804046630859,-3.61402225494385,B3,http://www.crtm.es,0,,Europe/Madrid,2
par_8_06705,06705,AV.MADRID-LUDOTECA,Calle de Félix Sanz 31,40.680347442627,-3.61427021026611,B3,http://www.crtm.es,0,,Europe/Madrid,2
par_8_06719,06719,CTRA.A1-URB.CIUDALCAMPO,Ctra   A-1 27.9,40.6262359619141,-3.58786845207214,B3,http://www.crtm.es,0,,Europe/Madrid,2
par_8_06720,06720,CTRA.A1-CIRCUITO DEL JARAMA,Ctra   N-I Burgos S/N,40.6107482910156,-3.58099460601807,B3,http://www.crtm.es,0,,Europe/Madrid,2
par_8_06723,06723,CTRA.A1-URB.FUENTE EL FRESNO,Ctra   N-I ( Burgos) 23400,40.5893402099609,-3.58359813690186,B2,http://www.crtm.es,0,,Europe/Madrid,2
par_8_06751,06751,PºEUROPA-PARQUE PICOS DE OLITE,Paseo   Europa 26,40.5448379516602,-3.62434387207031,B1,http://www.crtm.es,0,,Europe/Madrid,2
par_8_06752,06752,BULV.SALVADOR ALLENDE-SORIA,Bulv de Salvador Allende 19,40.5379219055176,-3.63352560997009,B1,http://www.crtm.es,0,,Europe/Madrid,2
par_8_09142,09142,ERAS-AV.MADRID,Calle de las Eras 29,40.7437629699707,-3.60351824760437,C1,http://www.crtm.es,0,,Europe/Madrid,2
par_8_09143,09143,PºERMITA-PRADO CONCEJO,Paseo de la Ermita 30,40.7441024780273,-3.59886622428894,C1,http://www.crtm.es,0,,Europe/Madrid,2
par_8_09648,09648,AV.ESPAÑA-ALMIRANTE MARTEL,Avda de España 73 I,40.7374076843262,-3.58526921272278,C1,http://www.crtm.es,0,,Europe/Madrid,2
par_8_09649,09649,PZA.MAYOR-FUENTE,Calle de la Fuente 1,40.7323379516602,-3.58282065391541,C1,http://www.crtm.es,0,,Europe/Madrid,2
par_8_09834,09834,AV.MADRID-POL.IND.NORTE SAN AGUSTÍN,Polg las Cabezas 4,40.6912307739258,-3.60760045051575,B3,http://www.crtm.es,0,,Europe/Madrid,2
par_8_09848,09848,AV.MADRID-POL.IND.NORTE SAN AGUSTÍN,Polg las Cabezas 3,40.6910743713379,-3.60770559310913,B3,http://www.crtm.es,0,,Europe/Madrid,2
par_8_09864,09864,ROBREGORDO-BALAGARES,Calle  Balagares 16,41.1036262512207,-3.59476089477539,C2,http://www.crtm.es,0,,Europe/Madrid,2
par_8_09865,09865,ROBREGORDO-BALAGARES,Calle  Balagares 23,41.1035270690918,-3.59495043754578,C2,http://www.crtm.es,0,,Europe/Madrid,2
par_8_09939,09939,ROSALEDA-URB.VISTASIERRA,Calle de la Rosaleda 51,40.7438621520996,-3.59252738952637,C1,http://www.crtm.es,0,,Europe/Madrid,2
par_8_10019,10019,PºEUROPA-GTA.ANTONIO GAUDÍ,Paseo   Europa 7,40.5562934875488,-3.61487126350403,B1,http://www.crtm.es,0,,Europe/Madrid,2
par_8_10034,10034,CTRA.A1-CRUCE AOSLOS,Ctra   A-1 84500,41.0616416931152,-3.60962820053101,C2,http://www.crtm.es,0,,Europe/Madrid,2
par_8_10036,10036,CTRA.A1-CRUCE AOSLOS,Ctra   A-1 84500,41.0626449584961,-3.61070847511292,C2,http://www.crtm.es,0,,Europe/Madrid,2
par_8_10037,10037,AV.LA CABRERA-PICO DE LA MIEL,Avda de la Cabrera 69,40.869930267334,-3.60975313186646,C2,http://www.crtm.es,0,,Europe/Madrid,2
par_8_10041,10041,CTRA.A1-URB.VALDELAGUA,Ctra   Nacional I 30500,40.6478576660156,-3.59653854370117,B3,http://www.crtm.es,0,,Europe/Madrid,2
par_8_10329,10329,PZA.MAYOR-AYUNTAMIENTO,Plaza  Mayor 0.200,40.7326011657715,-3.58231377601624,C1,http://www.crtm.es,0,,Europe/Madrid,2
par_8_10333,10333,ROSALEDA-URB.VISTASIERRA,Calle de la Rosaleda 51,40.7437629699707,-3.59259748458862,C1,http://www.crtm.es,0,,Europe/Madrid,2
par_8_10336,10336,PºERMITA-ERAS DEL CABRERO,Paseo de la Ermita 19,40.744255065918,-3.59911632537842,C1,http://www.crtm.es,0,,Europe/Madrid,2
par_8_10338,10338,EL VELLÓN-PZA.MAYOR,Plaza   Mayor 11,40.7661895751953,-3.58284401893616,C2,http://www.crtm.es,0,,Europe/Madrid,2
par_8_10339,10339,EL VELLÓN-PZA.IGLESIA,Plaza de la Iglesia (El Vellón) 6,40.7659721374512,-3.58172821998596,C2,http://www.crtm.es,0,,Europe/Madrid,2
par_8_10340,10340,VENTURADA-CTRA.IRÚN,Ctra   Irún 10,40.7987747192383,-3.62275767326355,C2,http://www.crtm.es,0,,Europe/Madrid,2
par_8_10341,10341,VENTURADA-CTRA.IRÚN,Ctra   Irún 7,40.7979927062988,-3.6225962638855,C2,http://www.crtm.es,0,,Europe/Madrid,2
par_8_10342,10342,CABANILLAS DE LA SIERRA-REAL,Calle  Real 57,40.8205757141113,-3.62581944465637,C2,http://www.crtm.es,0,,Europe/Madrid,2
par_8_10343,10343,CABANILLAS DE LA SIERRA-REAL,Calle  real 78,40.8206024169922,-3.62564182281494,C2,http://www.crtm.es,0,,Europe/Madrid,2
par_8_10345,10345,AV.LA CABRERA-LUIS FDEZ.UROSA,Avda de la Cabrera 23,40.8621520996094,-3.61349081993103,C2,http://www.crtm.es,0,,Europe/Madrid,2
par_8_10346,10346,AV.LA CABRERA-LUIS FDEZ.UROSA,Avda de la Cabrera 28,40.8624420166016,-3.61327981948853,C2,http://www.crtm.es,0,,Europe/Madrid,2
par_8_10347,10347,AV.MADRID-AYUNTAMIENTO,Avda de Madrid 82,40.926383972168,-3.61812257766724,C2,http://www.crtm.es,0,,Europe/Madrid,2
par_8_10348,10348,AV.MADRID-AYUNTAMIENTO,Avda de Madrid 85,40.9263496398926,-3.61821722984314,C2,http://www.crtm.es,0,,Europe/Madrid,2
par_8_10378,10378,NAVARREDONDA-PZA.CONSTITUCIÓN,Plaza de la Constitución (Navarredonda) 1,40.9906845092773,-3.72517323493958,C2,http://www.crtm.es,0,,Europe/Madrid,2
par_8_10379,10379,SAN MAMÉS-PZA.CONSTITUCIÓN,Plaza de la Constitución (San Mamés) 5,40.9927597045898,-3.70849204063416,C2,http://www.crtm.es,0,,Europe/Madrid,2
par_8_10381,10381,VILLAVIEJA DEL LOZOYA-CTRA.SIERRA,Cmno de las Huertecillas 2,41.0064544677734,-3.67365407943726,C2,http://www.crtm.es,0,,Europe/Madrid,2
par_8_10386,10386,LA SERNA DEL MONTE-PZA.IGLESIA,Plaza de la Iglesia 2,41.0302810668945,-3.62530279159546,C2,http://www.crtm.es,0,,Europe/Madrid,2
par_8_10388,10388,BRAOJOS-CLLON.DE LOS PERROS,Calle de la Fuente 28,41.0394859313965,-3.64076137542725,C2,http://www.crtm.es,0,,Europe/Madrid,2
par_8_10390,10390,CTRA.A1-CRUCE LA SERNA DEL MONTE,Ctra de Nacional I (Madrid-Burgos) 80000,41.0275268554688,-3.62167263031006,C2,http://www.crtm.es,0,,Europe/Madrid,2
par_8_10391,10391,CTRA.A1-CRUCE LA SERNA DEL MONTE,Ctra de Nacional I (Madrid-Burgos) 80400,41.0284652709961,-3.62283515930176,C2,http://www.crtm.es,0,,Europe/Madrid,2
par_8_10394,10394,SOMOSIERRA-CTRA.IRÚN,Ctra de Irún 2,41.1316032409668,-3.58095502853394,C2,http://www.crtm.es,0,,Europe/Madrid,2
par_8_10395,10395,SOMOSIERRA-CTRA.IRÚN,Ctra de Irún SN,41.1313400268555,-3.58113121986389,C2,http://www.crtm.es,0,,Europe/Madrid,2
par_8_10396,10396,SIETEIGLESIAS-REAL,Calle del Real 6,40.9114379882813,-3.58593440055847,C2,http://www.crtm.es,0,,Europe/Madrid,2
par_8_10397,10397,SIETEIGLEIAS-REAL,Calle del Real 9,40.9118843078613,-3.58648443222046,C2,http://www.crtm.es,0,,Europe/Madrid,2
par_8_10411,10411,CTRA.M138-EL BERRUECO,Ctra   M-138 24,40.8884315490723,-3.56176519393921,C2,http://www.crtm.es,0,,Europe/Madrid,2
par_8_10412,10412,EL BERRUECO-REAL,Calle   Real 31,40.8886222839355,-3.56188559532166,C2,http://www.crtm.es,0,,Europe/Madrid,2
par_8_10550,10550,PºLA CASTELLANA-HOSPITAL LA PAZ,Paseo de la Castellana 296,40.4795417785645,-3.68592572212219,A,http://www.crtm.es,0,,Europe/Madrid,2
par_8_10610,10610,AV.ESPAÑA-EST.ALCOBENDAS S.SEB.REYES,Avda de España 50,40.5461807250977,-3.63418197631836,B1,http://www.crtm.es,0,,Europe/Madrid,2
par_8_10614,10614,AV.ESPAÑA-EST.ALCOBENDAS-S.S.REYES,Avda de España 52,40.546688079834,-3.63500165939331,B1,http://www.crtm.es,0,,Europe/Madrid,2
par_8_10666,10666,AV.LA CABRERA-CTRA.VALDEMANCO,Avda de la Cabrera 6,40.8573150634766,-3.61332750320435,C2,http://www.crtm.es,0,,Europe/Madrid,2
par_8_11022,11022,AV.MONTERREY-AV.GUADARRAMA,Avda de Monterrey SN,40.793773651123,-3.60042667388916,C2,http://www.crtm.es,0,,Europe/Madrid,2
par_8_11044,11044,AV.MADRID-URB.LOS TERREROS,Avda de Madrid 136,40.92822265625,-3.62116861343384,C2,http://www.crtm.es,0,,Europe/Madrid,2
par_8_11045,11045,AV.MADRID-URB.LOS TERREROS,Avda de Madrid 171,40.9282569885254,-3.62144207954407,C2,http://www.crtm.es,0,,Europe/Madrid,2
par_8_11184,11184,CTRA.A1-POL.IND.SUR SAN AGUSTÍN,Avia   A-1 31700,40.6581153869629,-3.6019766330719,B3,http://www.crtm.es,0,,Europe/Madrid,2
par_8_11185,11185,CTRA.A1-POL.IND.SUR SAN AGUSTÍN,Avia   A-1 31500,40.656982421875,-3.60187196731567,B3,http://www.crtm.es,0,,Europe/Madrid,2
par_8_11201,11201,CTRA.M127-URB.PRADERA DEL AMOR,Ctra del Berrueco-La Cabrera 1800,40.8783264160156,-3.58350586891174,C2,http://www.crtm.es,0,,Europe/Madrid,2
par_8_11202,11202,CTRA.M127-URB.PRADERA DEL AMOR,Ctra del Berrueco-La Cabrera 14 T,40.8784828186035,-3.58277153968811,C2,http://www.crtm.es,0,,Europe/Madrid,2
par_8_11241,11241,CTRA.M122-LOS MELONARES,Ctra   M-122 (El Espartal) 700,40.7656135559082,-3.59526777267456,C2,http://www.crtm.es,0,,Europe/Madrid,2
par_8_11242,11242,CTRA.M122-LOS MELONARES,Ctra   M-122 (El Espartal) 700,40.7654876708984,-3.59533786773682,C2,http://www.crtm.es,0,,Europe/Madrid,2
par_8_11293,11293,AV.MADRID-CENTRO DE ESTUDIOS,Avda de Madrid 43,40.9897003173828,-3.63850784301758,C2,http://www.crtm.es,0,,Europe/Madrid,2
par_8_11294,11294,VENTURADA-URB.TOLLE LEGE,Ctra   Irún 52200,40.8081321716309,-3.62454056739807,C2,http://www.crtm.es,0,,Europe/Madrid,2
par_8_11295,11295,VENTURADA-URB.TOLLE LEGE,Ctra   Irún 52000,40.8065032958984,-3.6246440410614,C2,http://www.crtm.es,0,,Europe/Madrid,2
par_8_11402,11402,PºEUROPA-GTA.ANTONIO GAUDÍ,Paseo   Europa 7,40.5563850402832,-3.61443519592285,B1,http://www.crtm.es,0,,Europe/Madrid,2
par_8_11524,11524,CABANILLAS DE LA SIERRA-LOS BARRANCOS,Calle  Real 19,40.8179206848145,-3.62542700767517,C2,http://www.crtm.es,0,,Europe/Madrid,2
par_8_11542,11542,CABANILLAS DE LA S.-CTRA.ANTIGUA N1,Ctra  Antigua N-I (Madrid-Burgos) 8,40.8246612548828,-3.62860918045044,C2,http://www.crtm.es,0,,Europe/Madrid,2
par_8_11543,11543,CABANILLAS DE LA S.-CTRA.ANTIGUA N1,Ctra   Antigua N-I (Madrid-Burgos) 54100,40.8249664306641,-3.62838673591614,C2,http://www.crtm.es,0,,Europe/Madrid,2
par_8_11544,11544,CABANILLAS DE LA SIERRA-LOS BARRANCOS,Calle  Real 54,40.8180847167969,-3.62526249885559,C2,http://www.crtm.es,0,,Europe/Madrid,2
par_8_11735,11735,CTRA.TORRELAGUNA-GUARDIA CIVIL,Avda de Madrid 5,40.9232521057129,-3.61437606811523,C2,http://www.crtm.es,0,,Europe/Madrid,2
par_8_11736,11736,CTRA.TORRELAGUNA-GUARDIA CIVIL,Avda de Madrid 16,40.9234046936035,-3.61425876617432,C2,http://www.crtm.es,0,,Europe/Madrid,2
par_8_11995,11995,AV.LA CABRERA-CTRA.VALDEMANCO,Avda de la Cabrera 8,40.8573722839355,-3.61316180229187,C2,http://www.crtm.es,0,,Europe/Madrid,2
par_8_11996,11996,AV.LA CABRERA-PICO DE LA MIEL,Avda de la Cabrera 80,40.8698768615723,-3.60961031913757,C2,http://www.crtm.es,0,,Europe/Madrid,2
par_8_12018,12018,PRADOS QUEMADOS-CTRA.ESTACIÓN,Calle  Prados Quemados 10,40.9303817749023,-3.62673568725586,C2,http://www.crtm.es,0,,Europe/Madrid,2
par_8_12019,12019,PRADOS QUEMADOS-CTRA.ESTACIÓN,Calle  Prados Quemados 13,40.9305267333984,-3.62709331512451,C2,http://www.crtm.es,0,,Europe/Madrid,2
par_8_12097,12097,AV.MADRID-RESIDENCIAL GUADALIX,Avda de Madrid 3,40.6769714355469,-3.61399078369141,B3,http://www.crtm.es,0,,Europe/Madrid,2
par_8_12098,12098,AV.MADRID-RESIDENCIAL GUADALIX,Avda de Madrid 3,40.6767425537109,-3.61424899101257,B3,http://www.crtm.es,0,,Europe/Madrid,2
par_8_12421,12421,PºEUROPA-AV.MONTES DE OCA,Avda de Somosierra 14,40.5532073974609,-3.61732339859009,B1,http://www.crtm.es,0,,Europe/Madrid,2
par_8_12422,12422,PºEUROPA-AV.MONTES DE OCA,Paseo   Europa 1,40.553352355957,-3.61756086349487,B1,http://www.crtm.es,0,,Europe/Madrid,2
par_8_12442,12442,SAN ROQUE-ESCUELA DE HOSTELERÍA,Calle de las Eras 100,40.7429962158203,-3.60731315612793,C1,http://www.crtm.es,0,,Europe/Madrid,2
par_8_12480,12480,EL VELLÓN-LA MINA,Ctra   M-129 (Torrelaguna) 3900,40.7683753967285,-3.5784432888031,C2,http://www.crtm.es,0,,Europe/Madrid,2
par_8_12545,12545,AV.MADRID-REAL,Avda de Madrid 17,40.9924964904785,-3.63813042640686,C2,http://www.crtm.es,0,,Europe/Madrid,2
par_8_12546,12546,AV.MADRID-CENTRO DE ESTUDIOS,Avda de Madrid 39,40.990421295166,-3.63824129104614,C2,http://www.crtm.es,0,,Europe/Madrid,2
par_8_12690,12690,FUENTE-ÁLAMO,Calle del Álamo 8,40.7311630249023,-3.58507251739502,C1,http://www.crtm.es,0,,Europe/Madrid,2
par_8_12781,12781,ERAS-AV.MADRID,Calle de las Eras 54,40.743824005127,-3.60366082191467,C1,http://www.crtm.es,0,,Europe/Madrid,2
par_8_12881,12881,CTRA.M122-EL CAMPILLO,Ctra   M-122 (El Vellón) SN,40.7649612426758,-3.60119795799255,C1,http://www.crtm.es,0,,Europe/Madrid,2
par_8_15191,15191,PºEUROPA-AV.ESPAÑA,Paseo   Europa 26,40.5417900085449,-3.62687826156616,B1,http://www.crtm.es,0,,Europe/Madrid,2
par_8_15192,15192,PºEUROPA-AV.JUNCAL,Paseo   Europa 26,40.541389465332,-3.62699270248413,B1,http://www.crtm.es,0,,Europe/Madrid,2
par_8_15546,15546,AV.MONTERREY-PUERTO DE CANENCIA,Avda de Monterrey SN,40.7882499694824,-3.60793876647949,C2,http://www.crtm.es,0,,Europe/Madrid,2
par_8_15547,15547,AV.MONTERREY-PUERTO DE CANENCIA,Avda de Monterrey SN,40.7881965637207,-3.60768938064575,C2,http://www.crtm.es,0,,Europe/Madrid,2
par_8_15769,15769,AV.MADRID-CTRA.MANJIRÓN,Avda de Madrid 99,40.9838027954102,-3.63772583007813,C2,http://www.crtm.es,0,,Europe/Madrid,2
par_8_15770,15770,AV.MADRID-CTRA.MANJIRÓN,Avda de Madrid 113,40.9822807312012,-3.63786578178406,C2,http://www.crtm.es,0,,Europe/Madrid,2
par_8_15941,15941,AV.LA CABRERA-RESIDENCIA,Avda de la Cabrera 98,40.8734703063965,-3.60599994659424,C2,http://www.crtm.es,0,,Europe/Madrid,2
par_8_15942,15942,AV.LA CABRERA-RESIDENCIA,Avda de la Cabrera 81,40.8736038208008,-3.60616731643677,C2,http://www.crtm.es,0,,Europe/Madrid,2
par_8_15988,15988,CTRA.A1-LA LOBERA,Ctra  A-1 31,40.6530418395996,-3.59878468513489,B3,http://www.crtm.es,0,,Europe/Madrid,2
par_8_15990,15990,CTRA.A1-SALGUERILLA,Avia   A-1 32100,40.6624526977539,-3.60473656654358,B3,http://www.crtm.es,0,,Europe/Madrid,2
par_8_15992,15992,CTRA.M122-HACILLA,Calle de la Magdalena 27,40.7671012878418,-3.58622884750366,C2,http://www.crtm.es,0,,Europe/Madrid,2
par_8_15993,15993,CTRA.M122-TRVA.DEHESA,Calle de la Magdalena 76,40.7677574157715,-3.58636474609375,C2,http://www.crtm.es,0,,Europe/Madrid,2
par_8_16163,16163,CTRA.A1-CRUCE COTOS DE MONTERREY,Calle   Cotos de Monterey SN,40.7855567932129,-3.61459875106812,C2,http://www.crtm.es,0,,Europe/Madrid,2
par_8_16295,16295,CTRA.M634-URB.CHAPARRITAS,Ctra   M-634 (Buitrago de Lozoya) 2500,41.0072746276855,-3.66248440742493,C2,http://www.crtm.es,0,,Europe/Madrid,2
par_8_16437,16437,CTRA.ANTIGUA DE BURGOS-C.C.ALEGRA,Ctra   N-I ( Burgos) 19900,40.5660285949707,-3.60559248924255,B1,http://www.crtm.es,0,,Europe/Madrid,2
par_8_16438,16438,CTRA.ANTIGUA DE BURGOS-C.C.ALEGRA,Ctra   N-I ( Burgos) 19900,40.566089630127,-3.6059238910675,B1,http://www.crtm.es,0,,Europe/Madrid,2
par_8_16450,16450,CTRA.A1-CRUCE EL VELLÓN,Avia   A-1 47000,40.7637634277344,-3.60494303703308,C1,http://www.crtm.es,0,,Europe/Madrid,2
par_8_16554,16554,CTRA.M122-EL CAMPILLO,Ctra   M-122 (El Vellón) S/N,40.765007019043,-3.60151839256287,C1,http://www.crtm.es,0,,Europe/Madrid,2
par_8_16713,16713,CERRO DE SAN PEDRO-ESCUELA DE HOSTELERÍA,Calle de las Eras SN,40.7427787780762,-3.60718107223511,C1,http://www.crtm.es,0,,Europe/Madrid,2
par_8_17025,17025,PºEUROPA-HOSPITAL INFANTA SOFÍA,Paseo   Europa 11,40.5602951049805,-3.61124610900879,B1,http://www.crtm.es,0,,Europe/Madrid,2
par_8_17470,17470,INTERCAMBIADOR DE PLAZA CASTILLA,Avda de Asturias 2,40.4667778015137,-3.69078540802002,A,http://www.crtm.es,0,est_90_21,,2
par_8_17474,17474,PºEUROPA-HOSPITAL INFANTA SOFÍA,Paseo   Europa 11,40.5593185424805,-3.61180424690247,B1,http://www.crtm.es,0,,Europe/Madrid,2
par_8_17974,17974,CTRA.A1-CRUCE EL VELLÓN,Avia   A-1 47000,40.7639465332031,-3.60448265075684,C1,http://www.crtm.es,0,,Europe/Madrid,0
par_8_17975,17975,CTRA.A1-CºVIEJO DE FRANCIA,Avia   A-1 39100,40.7175903320313,-3.57766008377075,C1,http://www.crtm.es,0,,Europe/Madrid,0
par_8_18074,18074,INTERCAMBIADOR DE PLAZA CASTILLA,Paseo de la Castellana 195 A,40.4675521850586,-3.68892955780029,A,http://www.crtm.es,0,est_90_21,,0
par_8_18361,18361,AV.MADRID-AV.ALCALDE LORENZO GINÉS,Avda de Madrid 32,40.6853103637695,-3.61101412773132,B3,http://www.crtm.es,0,,Europe/Madrid,0
par_8_18362,18362,AV.MADRID-AV.ALCALDE LORENZO GINÉS,Avda de Madrid 32,40.6852645874023,-3.61117935180664,B3,http://www.crtm.es,0,,Europe/Madrid,0
par_8_19230,19230,ROBREGORDO-ERAS,Calle   Balagares 52,41.1061897277832,-3.59533190727234,C2,http://www.crtm.es,0,,Europe/Madrid,0
par_8_19231,19231,ROBREGORDO-ERAS,Calle   Balagares 67,41.1060638427734,-3.59550929069519,C2,http://www.crtm.es,0,,Europe/Madrid,0
par_8_20841,20841,ROSALEDA-NARDOS,Calle de la Rosaleda 17,40.7399215698242,-3.58851289749146,C1,http://www.crtm.es,0,,Europe/Madrid,0
par_8_20842,20842,ROSALEDA-NARDOS,Calle de la Rosaleda 17,40.7397842407227,-3.58859443664551,C1,http://www.crtm.es,0,,Europe/Madrid,0
par_8_21130,21130,AV.MADRID-REAL,Avda de Madrid 13,40.9925956726074,-3.63815522193909,C2,http://www.crtm.es,0,,Europe/Madrid,0
par_8_21161,21161,REAL-CMNO.LAS POZUELAS,Calle del Real 41,40.9141120910645,-3.58929491043091,C2,http://www.crtm.es,0,,Europe/Madrid,0
par_8_21162,21162,REAL-CMNO.LAS POZUELAS,Calle del Real 16000,40.9143447875977,-3.58941555023193,C2,http://www.crtm.es,0,,Europe/Madrid,0
par_8_3253,3253,Pº CASTELLANA-HOSPITAL LA PAZ,Acces  Nudo Norte 29700,40.4806365966797,-3.68515825271606,A,http://www.crtm.es,0,,Europe/Madrid,0
est_90_21,21,Intercambiador de Plaza de Castilla,Paseo de la Castellana 189,40.4669,-3.6892,A,http://www.crtm.es,1,,Europe/Madrid,0
par_8_10384,10384,GASCONES-PZA.CONSTITUCIÓN,Plaza de la Constitución 14,41.017749786377,-3.64196610450745,C2,http://www.crtm.es,0,,Europe/Madrid,2
par_8_10385,10385,GASCONES-PZA.CONSTITUCIÓN,Plaza de la Constitución 6,41.0177841186523,-3.64212107658386,C2,http://www.crtm.es,0,,Europe/Madrid,2
par_8_10387,10387,LA SERNA DEL MONTE-PZA.IGLESIA,Calle de Carlos Ruiz 13,41.0302658081055,-3.62496972084045,C2,http://www.crtm.es,0,,Europe/Madrid,2
par_8_16296,16296,CTRA.M634-URB.CHAPARRITAS,Ctra   M-634 (Buitrago de Lozoya) 2500,41.0074195861816,-3.66245007514954,C2,http://www.crtm.es,0,,Europe/Madrid,2
par_8_10403,10403,PIÑUÉCAR-PZA.MAYOR,Plaza  Mayor 3,41.0330963134766,-3.59949088096619,C2,http://www.crtm.es,0,,Europe/Madrid,2
par_8_10404,10404,MADARCOS-TRVA.SAN MATEO,Trva de San Mateo 5,41.0475387573242,-3.58277320861816,C2,http://www.crtm.es,0,,Europe/Madrid,2
par_8_10406,10406,HORCAJO DE LA SIERRA-CARRETAS,Ctra   M-141 48,41.0674057006836,-3.58535289764404,C2,http://www.crtm.es,0,,Europe/Madrid,2
par_8_10407,10407,HORCAJO DE LA SIERRA-CARRETAS,Ctra   M-141 22,41.0676498413086,-3.58554530143738,C2,http://www.crtm.es,0,,Europe/Madrid,2
par_8_10408,10408,AOSLOS-REAL,Calle   Real 128,41.0543518066406,-3.5979106426239,C2,http://www.crtm.es,0,,Europe/Madrid,2
par_8_10409,10409,AOSLOS-REAL,Calle   Real 39,41.0543556213379,-3.59775590896606,C2,http://www.crtm.es,0,,Europe/Madrid,2
par_8_10410,10410,LA ACEBEDA-PZA. PLAZUELA,Calle de la Plazuela SN,41.0863838195801,-3.62372708320618,C2,http://www.crtm.es,0,,Europe/Madrid,2
par_8_12564,12564,PIÑUÉCAR-PZA.MAYOR,Calle  Carretera 21,41.0330429077148,-3.59932374954224,C2,http://www.crtm.es,0,,Europe/Madrid,2
par_8_12879,12879,CTRA.M136-EL LOMO,Ctra de M-136 (Horcajo-Aoslos) 2800,41.0577049255371,-3.5907769203186,C2,http://www.crtm.es,0,,Europe/Madrid,2
par_8_12880,12880,CTRA.M136-EL LOMO,Ctra de M-136 (Horcajo-Aoslos) 2800,41.0577125549316,-3.59103870391846,C2,http://www.crtm.es,0,,Europe/Madrid,2
par_8_18193,18193,CTRA.M978-ROYUELO,Ctra de la Acebeda 3300,41.0843658447266,-3.61570739746094,C2,http://www.crtm.es,0,,Europe/Madrid,0
par_8_18194,18194,CTRA.M978-ROYUELO,Ctra de la Acebeda 3300,41.08447265625,-3.61567282676697,C2,http://www.crtm.es,0,,Europe/Madrid,0
par_8_10325,10325,CTRA.M137-PRÁDENA DEL RINCÓN,Calle  Real 10,41.0438537597656,-3.54093027114868,C2,http://www.crtm.es,0,,Europe/Madrid,2
par_8_10326,10326,CTRA.M137-PRÁDENA DEL RINCÓN,Calle  Real 11,41.0438690185547,-3.54109716415405,C2,http://www.crtm.es,0,,Europe/Madrid,2
par_8_10327,10327,CTRA.M141-HORCAJUELO DE LA SIERRA,Calle   Pozas 4,41.059814453125,-3.54509568214417,C2,http://www.crtm.es,0,,Europe/Madrid,2
par_8_10328,10328,MONTEJO DE LA SIERRA-PZA.FUENTE,Plaza de la Fuente 1,41.0599021911621,-3.52961301803589,C2,http://www.crtm.es,0,,Europe/Madrid,2
par_8_10389,10389,AV.MADRID-REAL,Avda de Madrid 13,40.992603302002,-3.63808393478394,C2,http://www.crtm.es,0,,Europe/Madrid,2
par_8_10401,10401,GANDULLAS-PZA.SIERRA,Calle de la Carretera Montejo-Buitrago 8,41.0128326416016,-3.60201859474182,C2,http://www.crtm.es,0,,Europe/Madrid,2
par_8_10402,10402,GANDULLAS-PZA.SIERRA,Plaza de la Sierra 1,41.012939453125,-3.6019721031189,C2,http://www.crtm.es,0,,Europe/Madrid,2
par_8_16297,16297,MONTEJO DE LA SIERRA-COLEGIO,Ctra  M-141 (Horcajuelo de la Sierra) 1 B,41.05712890625,-3.53514838218689,C2,http://www.crtm.es,0,,Europe/Madrid,2
par_8_16298,16298,MONTEJO DE LA SIERRA-COLEGIO,Ctra  M-141 (Horcajuelo de la Sierra) 1 B,41.0572547912598,-3.53523254394531,C2,http://www.crtm.es,0,,Europe/Madrid,2
par_8_10317,10317,ROBLEDILLO DE LA JARA-IGLESIA,Calle de la Fuente 24,40.9521217346191,-3.52520990371704,C2,http://www.crtm.es,0,,Europe/Madrid,2
par_8_10319,10319,BERZOSA DE LOZOYA-REAL,Calle   Real 22900,40.9748001098633,-3.52269172668457,C2,http://www.crtm.es,0,,Europe/Madrid,2
par_8_10320,10320,BERZOSA DE LOZOYA-REAL,Calle   Real 22900,40.9746894836426,-3.52267909049988,C2,http://www.crtm.es,0,,Europe/Madrid,2
par_8_10321,10321,CTRA.M127-SERRADA DE LA FUENTE,Avda del Berrueco 1,40.9902763366699,-3.53582000732422,C2,http://www.crtm.es,0,,Europe/Madrid,2
par_8_10322,10322,CTRA.M127-SERRADA DE LA FUENTE,Avda del Berrueco 22,40.9902038574219,-3.53599786758423,C2,http://www.crtm.es,0,,Europe/Madrid,2
par_8_10323,10323,CTRA.M127-PAREDES DE BUITRAGO,Calle de la Soledad 1,41.005199432373,-3.56120991706848,C2,http://www.crtm.es,0,,Europe/Madrid,2
par_8_10324,10324,CTRA.M127-PAREDES DE BUITRAGO,Calle de la Soledad 2,41.0052185058594,-3.56135272979736,C2,http://www.crtm.es,0,,Europe/Madrid,2
par_8_12547,12547,CTRA.MANJIRÓN-AV.MADRID,Ctra   M-126 (Manjirón) 100,40.9825172424316,-3.63738059997559,C2,http://www.crtm.es,0,,Europe/Madrid,2
par_8_12548,12548,CTRA.MANJIRÓN-AV.MADRID,Ctra  M-126 (Manjirón) 2,40.9823913574219,-3.63739132881165,C2,http://www.crtm.es,0,,Europe/Madrid,2
par_8_16706,16706,ROBLEDILLO DE LA JARA-ERAS,Calle de la Fuente 5,40.9539031982422,-3.52552127838135,C2,http://www.crtm.es,0,,Europe/Madrid,2
par_8_16707,16707,ROBLEDILLO DE LA JARA-ERAS,Calle de la Fuente 2,40.9539833068848,-3.52573561668396,C2,http://www.crtm.es,0,,Europe/Madrid,2
par_8_19075,19075,CTRA.M126-CRUCE CTRA.BUITRAGO,Ctra   M-126 (Buitrago) 5000,40.9700546264648,-3.58753418922424,C2,http://www.crtm.es,0,,Europe/Madrid,0
par_8_19076,19076,BERZOSA DE LOZOYA-PARQUE,Ctra   Berzosa-Paredes de Buitrago 1,40.9760398864746,-3.52518558502197,C2,http://www.crtm.es,0,,Europe/Madrid,0
par_8_19077,19077,BERZOSA DE LOZOYA-PARQUE,Calle   Real 2,40.9759063720703,-3.52500629425049,C2,http://www.crtm.es,0,,Europe/Madrid,0
par_8_10316,10316,CERVERA DE BUITRAGO-BARRIO NUEVO,Calle de la Iglesia 82,40.9199905395508,-3.53091740608215,C2,http://www.crtm.es,0,,Europe/Madrid,2
par_8_10398,10398,CTRA.M135-CINCOVILLAS,Calle   Mayor (Cinco Villas) 4,40.9578056335449,-3.61158299446106,C2,http://www.crtm.es,0,,Europe/Madrid,2
par_8_10399,10399,CTRA.M135-CINCOVILLAS,Plaza   Mayor (Cinco Villas) 5,40.9577827453613,-3.61208200454712,C2,http://www.crtm.es,0,,Europe/Madrid,2
par_8_10400,10400,MANJIRÓN-IGLESIA,Avda del Villar 25,40.9648818969727,-3.58441019058228,C2,http://www.crtm.es,0,,Europe/Madrid,2
par_8_11839,11839,NAVAS DE BUITRAGO-PZA.CONSTITUCIÓN,Plaza de la Constitución (Navas) 3,40.9349746704102,-3.5980327129364,C2,http://www.crtm.es,0,,Europe/Madrid,2
par_8_12529,12529,CERVERA DE BUITRAGO-AYUNTAMIENTO,Calle de la Iglesia 2,40.9222640991211,-3.53021097183228,C2,http://www.crtm.es,0,,Europe/Madrid,2
par_8_12530,12530,CERVERA DE BUITRAGO-AYUNTAMIENTO,Calle de la Iglesia 5,40.9222755432129,-3.53003287315369,C2,http://www.crtm.es,0,,Europe/Madrid,2
par_8_12882,12882,CTRA.M127-CERCA DE LA SALLADERA,Ctra de La Cabrera a la A-1 (M-127) 15500,40.9346694946289,-3.54149985313416,C2,http://www.crtm.es,0,,Europe/Madrid,2
par_8_12883,12883,CTRA.M127-UMBRÍA DEL JUNCAREJO,Ctra de La Cabrera a la A-1 (M-127) 15.7,40.9383544921875,-3.54354929924011,C2,http://www.crtm.es,0,,Europe/Madrid,2
par_8_15994,15994,CTRA.M135-TURINA,Ctra  M-135 (Manjirón-Lozoyuela) 14,40.93212890625,-3.62356877326965,C2,http://www.crtm.es,0,,Europe/Madrid,2
par_8_15996,15996,CTRA.M135-TURINA,Ctra  M-135 (Manjirón-Lozoyuela) 3,40.9321746826172,-3.6236879825592,C2,http://www.crtm.es,0,,Europe/Madrid,2
par_8_18201,18201,CTRA.M135-LAS TOMILLERAS,Ctra  M-135 (Manjirón-Lozoyuela) 35,40.9433898925781,-3.62011075019836,C2,http://www.crtm.es,0,,Europe/Madrid,0
par_8_18202,18202,CTRA.M135-LAS TOMILLERAS,Ctra  M-135 (Manjirón-Lozoyuela) 35,40.9433670043945,-3.61955213546753,C2,http://www.crtm.es,0,,Europe/Madrid,0
par_8_18203,18203,CTRA.M127-UMBRÍA DEL JUNCAREJO,Ctra de La Cabrera a la A-1 (M-127) 15000,40.9381446838379,-3.54365468025208,C2,http://www.crtm.es,0,,Europe/Madrid,0
par_8_18987,18987,FUENTE-PEÑA EL PALOMAR,Calle de la Fuente 31,40.9283561706543,-3.61855673789978,C2,http://www.crtm.es,0,,Europe/Madrid,0
par_8_18988,18988,FUENTE-PEÑA EL PALOMAR,Calle de la Fuente 10,40.9283027648926,-3.61833047866821,C2,http://www.crtm.es,0,,Europe/Madrid,0
par_8_18989,18989,CERVERA DE BUITRAGO-BºZAGALASCASAS,Ctra de Montejo 600,40.9247131347656,-3.53077697753906,C2,http://www.crtm.es,0,,Europe/Madrid,0
par_8_18990,18990,CERVERA DE BUITRAGO-BºZAGALASCASAS,Ctra de Montejo 600,40.9250183105469,-3.53075551986694,C2,http://www.crtm.es,0,,Europe/Madrid,0
par_8_19424,19424,MANJIRÓN-IGLESIA,Avda del Villar 5800,40.9646835327148,-3.58432531356812,C2,http://www.crtm.es,0,,Europe/Madrid,0
par_8_20622,20622,M-913-RESIDENCIA,Ctra   M-913 (Lozoyuela a Navas) 2400,40.9331169128418,-3.59902572631836,C2,http://www.crtm.es,0,,Europe/Madrid,0
par_8_20623,20623,M-913-RESIDENCIA,Ctra   M-913 (Lozoyuela a Navas) 2400,40.9334144592285,-3.59881448745728,C2,http://www.crtm.es,0,,Europe/Madrid,0
par_8_10349,10349,CTRA.M604-EL CUADRÓN,Ctra de Rascafría 1,40.9426651000977,-3.66021084785461,C2,http://www.crtm.es,0,,Europe/Madrid,2
par_8_10350,10350,CTRA.M604-EL CUADRÓN,Ctra de Rascafría 2800,40.9430122375488,-3.66064190864563,C2,http://www.crtm.es,0,,Europe/Madrid,2
par_8_10351,10351,CTRA.M969-CRUCE GARGANTA,Ctra   Comarcal 100,40.9415626525879,-3.69994950294495,C2,http://www.crtm.es,0,,Europe/Madrid,2
par_8_10352,10352,CTRA.M969-CRUCE GARGANTA,Ctra  Comarcal SN,40.9418334960938,-3.70008301734924,C2,http://www.crtm.es,0,,Europe/Madrid,2
par_8_10354,10354,CTRA.M604-CRUCE GARGANTA,Ctra de Rascafría 5700,40.9419937133789,-3.69924139976501,C2,http://www.crtm.es,0,,Europe/Madrid,2
par_8_10356,10356,CTRA.M629-CRUCE CANENCIA,Ctra de Canencia 21.600,40.9427146911621,-3.7104754447937,C2,http://www.crtm.es,0,,Europe/Madrid,2
par_8_10357,10357,CTRA.M604-CRUCE CANENCIA,Ctra de Rascafría 6500,40.9432258605957,-3.70976805686951,C2,http://www.crtm.es,0,,Europe/Madrid,2
par_8_10358,10358,CTRA.M604-CRUCE CANENCIA,Ctra de Rascafría 6500,40.9431076049805,-3.70987391471863,C2,http://www.crtm.es,0,,Europe/Madrid,2
par_8_10360,10360,CANENCIA-PZA.CONSTITUCIÓN,Plaza de la Constitución 16,40.9093132019043,-3.73780798912048,C2,http://www.crtm.es,0,,Europe/Madrid,2
par_8_10361,10361,CTRA.M604-CRUCE GARGANTILLA,Ctra de Gargantilla-Lozoya 4,40.9446678161621,-3.72514486312866,C2,http://www.crtm.es,0,,Europe/Madrid,2
par_8_10362,10362,CTRA.M604-CRUCE GARGANTILLA,Ctra de Gargantilla-Lozoya 2,40.9447593688965,-3.72502708435059,C2,http://www.crtm.es,0,,Europe/Madrid,2
par_8_10367,10367,CTRA.M604-LOZOYA,Avda de Lozoya 15,40.9494705200195,-3.79101920127869,C2,http://www.crtm.es,0,,Europe/Madrid,2
par_8_10368,10368,CTRA.M604-LOZOYA,Avda de Lozoya 17,40.9495429992676,-3.79091310501099,C2,http://www.crtm.es,0,,Europe/Madrid,2
par_8_10369,10369,PINILLA DEL VALLE-AYUNTAMIENTO,Plaza del Gobernador 3,40.92626953125,-3.81861758232117,C2,http://www.crtm.es,0,,Europe/Madrid,2
par_8_10370,10370,ALAMEDA DEL VALLE-AYUNTAMIENTO,Plaza de Santa Marina 11,40.9179267883301,-3.84390449523926,C2,http://www.crtm.es,0,,Europe/Madrid,2
par_8_10371,10371,CTRA.M604-OTERUELO DEL VALLE,Ctra   M-604 (de la A-1 al Puerto de Navacerrada) 4,40.9163436889648,-3.85687589645386,C2,http://www.crtm.es,0,,Europe/Madrid,2
par_8_10372,10372,CTRA.M604-OTERUELO DEL VALLE,Calle de la Paz 25,40.9163513183594,-3.85621094703674,C2,http://www.crtm.es,0,,Europe/Madrid,2
par_8_10373,10373,RASCAFRÍA-PZA.ABETOS,Avda de Cascajales 5,40.9026031494141,-3.8779981136322,C2,http://www.crtm.es,0,,Europe/Madrid,2
par_8_11028,11028,CTRA.M629-CRUCE CANENCIA,Ctra de Canencia 21.600,40.9426727294922,-3.71029686927795,C2,http://www.crtm.es,0,,Europe/Madrid,2
par_8_12491,12491,PINILLA DEL VALLE-COLEGIO,Calle de Canal Isabel II 900,40.927074432373,-3.82232141494751,C2,http://www.crtm.es,0,,Europe/Madrid,2
par_8_12492,12492,PINILLA DEL VALLE-COLEGIO,Calle de Canal Isabel II 900,40.9270286560059,-3.82243967056274,C2,http://www.crtm.es,0,,Europe/Madrid,2
par_8_18150,18150,ALAMEDA DEL VALLE-GRANDE,Calle   Grande 34,40.9217720031738,-3.84554481506348,C2,http://www.crtm.es,0,,Europe/Madrid,0
par_8_18151,18151,ALAMEDA DEL VALLE-GRANDE,Calle   Grande 37,40.9213562011719,-3.84548020362854,C2,http://www.crtm.es,0,,Europe/Madrid,0
par_8_18199,18199,CTRA.M969-PRADOS REDONDOS,M-969 SN,40.9304504394531,-3.69487929344177,C2,http://www.crtm.es,0,,Europe/Madrid,0
par_8_18200,18200,CTRA.M969-PRADOS REDONDOS,M-969 SN,40.9307060241699,-3.69475126266479,C2,http://www.crtm.es,0,,Europe/Madrid,0
par_8_18985,18985,RASCAFRÍA-AV.VALLE,Avda del Valle 40,40.905086517334,-3.87833976745605,C2,http://www.crtm.es,0,,Europe/Madrid,0
par_8_18986,18986,RASCAFRÍA-AV.VALLE,Avda del Valle 40,40.905200958252,-3.87844800949097,C2,http://www.crtm.es,0,,Europe/Madrid,0
par_8_20423,20423,GARGANTA DE LOS MONTES-SAN ISIDRO,Calle de San Isidro 30,40.9218063354492,-3.68977689743042,C2,http://www.crtm.es,0,,Europe/Madrid,0
par_8_20809,20809,CTRA.M604-URB.EL TOMILLAR,Ctra de Gargantilla-Canencia 7300,40.9443359375,-3.72066235542297,C2,http://www.crtm.es,0,,Europe/Madrid,0
par_8_20810,20810,CTRA.M604-URB.EL TOMILLAR,Ctra de Gargantilla-Canencia 7300,40.9441680908203,-3.72056555747986,C2,http://www.crtm.es,0,,Europe/Madrid,0
par_8_09198,09198,CTRA.M604-PUERTO DE COTOS,Ctra   M-604  41.800,40.823418687101,-3.96214810032231,C2,http://www.crtm.es,0,,Europe/Madrid,2
par_8_17053,17053,CTRA.M604-MONASTERIO EL PAULAR,Ctra  M-604 (de la A-1 al Puerto de Navacerrada) 1,40.8872718811035,-3.88711333274841,C2,http://www.crtm.es,0,,Europe/Madrid,2
par_8_17995,17995,RASCAFRÍA-AV.PAULAR,Avda del Paular 29,40.9029121398926,-3.87848901748657,C2,http://www.crtm.es,0,,Europe/Madrid,0
par_8_17996,17996,RASCAFRÍA-AV.PAULAR,Avda del Paular 29,40.9029769897461,-3.87843060493469,C2,http://www.crtm.es,0,,Europe/Madrid,0
par_8_17997,17997,CTRA.M604-MONASTERIO EL PAULAR,Ctra  M-604 (de la A-1 al Puerto de Navacerrada) 1,40.8872451782227,-3.88684010505676,C2,http://www.crtm.es,0,,Europe/Madrid,0
par_8_20681,20681,REAL-OTERUELO DEL VALLE,Calle   Real 2,40.914119720459,-3.85455536842346,C2,http://www.crtm.es,0,,Europe/Madrid,0
par_8_10353,10353,CTRA.M604-CRUCE GARGANTA,Ctra de Rascafría 23,40.9421043395996,-3.69991970062256,C2,http://www.crtm.es,0,,Europe/Madrid,2
par_8_10363,10363,CTRA.M634-CRUCE GARGANTILLA,Cmno de la Estación SN,40.944881439209,-3.72461247444153,C2,http://www.crtm.es,0,,Europe/Madrid,2
par_8_10364,10364,CTRA.M634-CRUCE GARGANTILLA,Cmno de la Estación SN,40.9448738098145,-3.72443437576294,C2,http://www.crtm.es,0,,Europe/Madrid,2
par_8_10374,10374,GARGANTILLA DEL LOZOYA-PZA.CARLOS RUIZ,Plaza de Carlos Ruiz 4,40.9648895263672,-3.71733260154724,C2,http://www.crtm.es,0,,Europe/Madrid,2
par_8_10375,10375,GARGANTILLA DEL LOZOYA-PZA.CARLOS RUIZ,Plaza de Carlos Ruiz 10,40.9649391174316,-3.71764206886292,C2,http://www.crtm.es,0,,Europe/Madrid,2
par_8_10376,10376,CTRA.M634-PINILLA DE BUITRAGO,Ctra de Gargantilla 9700,40.981502532959,-3.69335842132568,C2,http://www.crtm.es,0,,Europe/Madrid,2
par_8_10377,10377,CTRA.M634-PINILLA DE BUITRAGO,Ctra de Gargantilla 9700,40.981258392334,-3.69345092773438,C2,http://www.crtm.es,0,,Europe/Madrid,2
par_8_10380,10380,SAN MAMÉS-PZA.CONSTITUCIÓN,Plaza de la Constitución (San Mamés) 8,40.992919921875,-3.70858883857727,C2,http://www.crtm.es,0,,Europe/Madrid,2
par_8_10382,10382,VILLAVIEJA DEL LOZOYA-CTRA.SIERRA,Ctra de la Sierra 40,41.006477355957,-3.67396354675293,C2,http://www.crtm.es,0,,Europe/Madrid,2
par_8_12338,12338,CTRA.M634-URB.LA DEHESA,Avda de la Estación SN,40.9596405029297,-3.71664595603943,C2,http://www.crtm.es,0,,Europe/Madrid,2
par_8_12339,12339,CTRA.M634-URB.LA DEHESA,Avda de la Estación 13500,40.959056854248,-3.71642589569092,C2,http://www.crtm.es,0,,Europe/Madrid,2
par_8_18191,18191,SAN MAMÉS-CTRA.NAVARREDONDA,Ctra de Pinilla de Buitrago 2,40.9921684265137,-3.70940113067627,C2,http://www.crtm.es,0,,Europe/Madrid,0
par_8_18192,18192,SAN MAMÉS-CTRA.NAVARREDONDA,Ctra de Pinilla de Buitrago 2,40.9922409057617,-3.70933055877686,C2,http://www.crtm.es,0,,Europe/Madrid,0
par_8_18195,18195,MANJIRÓN-CERRADILLA,Avda del Villar 2,40.9662590026855,-3.58789253234863,C2,http://www.crtm.es,0,,Europe/Madrid,0
par_8_18196,18196,MANJIRÓN-CERRADILLA,Avda del Villar 3,40.9664688110352,-3.58791828155518,C2,http://www.crtm.es,0,,Europe/Madrid,0
par_8_18197,18197,MANJIRÓN-ERAS,Avda del Villar 52,40.963062286377,-3.58226704597473,C2,http://www.crtm.es,0,,Europe/Madrid,0
par_8_18198,18198,MANJIRÓN-IGLESIA,Avda del Villar 45,40.963207244873,-3.5821852684021,C2,http://www.crtm.es,0,,Europe/Madrid,0
par_8_06736,06736,CTRA.M100-EL CASETÓN,Ctra  M-111 Paracuellos a Fuente El Saz SN,40.5845527648926,-3.56065630912781,B2,http://www.crtm.es,0,,Europe/Madrid,2
par_8_06747,06747,CTRA-M100-EL CASETÓN,Ctra  Algete 21.600,40.5852546691895,-3.56085133552551,B2,http://www.crtm.es,0,,Europe/Madrid,2
par_8_09172,09172,TALAMANCA DE JARAMA-GUADALAJARA,Calle   Guadalajara 18,40.7443084716797,-3.50862383842468,C2,http://www.crtm.es,0,,Europe/Madrid,2
par_8_09534,09534,VALDETORRES DE JARAMA-SOLEDAD,Calle   Calvario 3,40.6941413879395,-3.51217150688171,C1,http://www.crtm.es,0,,Europe/Madrid,2
par_8_10044,10044,CTRA.N320-CRUCE CARAQUIZ,Ctra de N-320 Torrelaguna-Guadalajara 325800,40.7678070068359,-3.50965595245361,C2,http://www.crtm.es,0,,Europe/Madrid,2
par_8_10047,10047,CTRA.N320-CRUCE CARAQUIZ,Ctra de N-320 Torrelaguna-Guadalajara 325800,40.7675933837891,-3.50971364974976,C2,http://www.crtm.es,0,,Europe/Madrid,2
par_8_10048,10048,CTRA.M111-CºMALATONES,Ctra de Paracuellos 80,40.6144027709961,-3.54047799110413,B3,http://www.crtm.es,0,,Europe/Madrid,2
par_8_10227,10227,CTRA.M100-CºVIEJO DE BARAJAS,Ctra   Algete 22200,40.5834121704102,-3.57415270805359,B2,http://www.crtm.es,0,,Europe/Madrid,2
par_8_10228,10228,CTRA.M100-CºVIEJO DE BARAJAS,Ctra  Algete 22.400,40.5837631225586,-3.57461667060852,B2,http://www.crtm.es,0,,Europe/Madrid,2
par_8_10300,10300,AV.JULIÁN SÁNCHEZ-CONSTITUCIÓN,Avda   Julián Sánchez 3 B,40.6333389282227,-3.51468658447266,C1,http://www.crtm.es,0,,Europe/Madrid,2
par_8_10301,10301,AV.JULIÁN SÁNCHEZ-CONSTITUCIÓN,Avda   Julián Sánchez SN,40.6334953308105,-3.51453399658203,C1,http://www.crtm.es,0,,Europe/Madrid,2
par_8_10305,10305,VALDEPIÉLAGOS-PZA.MAYOR,Plaza  Mayor 6,40.7605323791504,-3.46615552902222,C2,http://www.crtm.es,0,,Europe/Madrid,2
par_8_10307,10307,MALACUERA-SAN FRANCISCO,Calle  Malacuera 1,40.8259544372559,-3.53856301307678,C2,http://www.crtm.es,0,,Europe/Madrid,2
par_8_10308,10308,TORREMOCHA DE JARAMA-PZA.COMERCIO,Plaza del Comercio 1,40.836353302002,-3.49725198745728,C2,http://www.crtm.es,0,,Europe/Madrid,2
par_8_10309,10309,PATONES-AV.MADRID,Avda de Madrid 56,40.8547477722168,-3.48503875732422,C2,http://www.crtm.es,0,,Europe/Madrid,2
par_8_10310,10310,PATONES-AV.MADRID,Avda de Madrid 87,40.8555793762207,-3.48433303833008,C2,http://www.crtm.es,0,,Europe/Madrid,2
par_8_10313,10313,REDUEÑA-PZA.VILLA,Plaza de la Villa 1,40.8164672851563,-3.60380911827087,C2,http://www.crtm.es,0,,Europe/Madrid,2
par_8_11101,11101,CTRA.TORRELAGUNA-LAS CLARISAS,Calle   Torrelaguna 45,40.6374397277832,-3.51086282730103,C1,http://www.crtm.es,0,,Europe/Madrid,2
par_8_11102,11102,AV.PILAR-MADRID,Avda del Pilar 19,40.6332130432129,-3.51888346672058,C1,http://www.crtm.es,0,,Europe/Madrid,2
par_8_11200,11200,TALAMANCA DE JARAMA-ESCUELAS,Calle   Guadalajara 2,40.7440528869629,-3.51185536384583,C2,http://www.crtm.es,0,,Europe/Madrid,2
par_8_11455,11455,CTRA.M111-COTTOLENGO,Ctra de Fuente El Saz-Paracuellos 15.700,40.5918846130371,-3.56084752082825,B3,http://www.crtm.es,0,,Europe/Madrid,2
par_8_11456,11456,CTRA.M111-COTTOLENGO,Ctra de M-111 (Fuente el Saz-Paracuellos) 14100,40.5920333862305,-3.55999803543091,B3,http://www.crtm.es,0,,Europe/Madrid,2
par_8_11462,11462,CTRA.M111-URB.PRADO NORTE,Ctra de Fuente El Saz-Paracuellos 17.900,40.6073036193848,-3.54868316650391,B3,http://www.crtm.es,0,,Europe/Madrid,2
par_8_11463,11463,CTRA.M111-URB.PRADO NORTE,Ctra de Fuente El Saz-Paracuellos SN,40.6072235107422,-3.54835152626038,B3,http://www.crtm.es,0,,Europe/Madrid,2
par_8_11699,11699,AV.EUROPA-INSTITUTO,Avda de Europa 8100,40.599609375,-3.50897908210754,B3,http://www.crtm.es,0,,Europe/Madrid,2
par_8_11700,11700,AV.EUROPA-INSTITUTO,Avda de Europa 8100,40.5992317199707,-3.50929546356201,B3,http://www.crtm.es,0,,Europe/Madrid,2
par_8_11737,11737,CºSOLEDAD-AV.MADRID,Cmno de la Soledad 1,40.8273506164551,-3.5342218875885,C2,http://www.crtm.es,0,,Europe/Madrid,2
par_8_12080,12080,CTRA.M100-LA HACIENDA,Ctra  Algete 23.500,40.5824851989746,-3.58102178573608,B2,http://www.crtm.es,0,,Europe/Madrid,2
par_8_12082,12082,CTRA.M103-POL.IND.LA CUESTA,Calle  Torrelaguna 81,40.6463050842285,-3.51075291633606,C1,http://www.crtm.es,0,,Europe/Madrid,2
par_8_12085,12085,CTRA.TORRELAGUNA-LAS CLARISAS,Calle   Torrelaguna 12400,40.6376190185547,-3.51069855690002,C1,http://www.crtm.es,0,,Europe/Madrid,2
par_8_12086,12086,CTRA.M103-POL.IND.LA CUESTA,Calle   Torrelaguna 83,40.6458969116211,-3.51099824905396,C1,http://www.crtm.es,0,,Europe/Madrid,2
par_8_12340,12340,AV.YERBAS DULCES-CUATRO CALLES,Avda   Yerbas Dulces 25,40.6311645507813,-3.51170182228088,C1,http://www.crtm.es,0,,Europe/Madrid,2
par_8_12341,12341,AV.YERBAS DULCES-CUATRO CALLES,Avda   Yerbas Dulces 16,40.6309471130371,-3.51223230361938,C1,http://www.crtm.es,0,,Europe/Madrid,2
par_8_12342,12342,AV.PILAR-MADRID,Avda del Pilar 15,40.6330718994141,-3.51848030090332,C1,http://www.crtm.es,0,,Europe/Madrid,2
par_8_12445,12445,SAN FRANCISCO-ESCUELAS,Calle de San Francisco 22,40.8255004882813,-3.54068207740784,C2,http://www.crtm.es,0,,Europe/Madrid,2
par_8_13026,13026,CTRA.M103-URB.LA ESCARABAJOSA,Ctra de M-103 (Torrelaguna) SN,40.6750411987305,-3.5109486579895,C1,http://www.crtm.es,0,,Europe/Madrid,2
par_8_13027,13027,CTRA.M103-URB.LA ESCARABAJOSA,Ctra de M-103 (Torrelaguna) SN,40.6732482910156,-3.51061534881592,C1,http://www.crtm.es,0,,Europe/Madrid,2
par_8_15201,15201,VALDETORRES DE JARAMA-SOL,Calle del Sol 2,40.6958045959473,-3.51553392410278,C1,http://www.crtm.es,0,,Europe/Madrid,2
par_8_15202,15202,VALDETORRES DE JARAMA-MADRID,Calle  Madrid 57,40.6953468322754,-3.51486754417419,C1,http://www.crtm.es,0,,Europe/Madrid,2
par_8_15203,15203,ROSALÍA DE CASTRO-CºVALDETORRES,Calle  Rosalía de Castro 1,40.6871032714844,-3.53502917289734,C1,http://www.crtm.es,0,,Europe/Madrid,2
par_8_15204,15204,ROSALÍA DE CASTRO-AV.CALDERÓN LA BARCA,Calle  Rosalía de Castro 8,40.6857376098633,-3.5361545085907,C1,http://www.crtm.es,0,,Europe/Madrid,2
par_8_15205,15205,AV.LOPE DE VEGA-ROSALÍA DE CASTRO,Avda  Lope de Vega S/N,40.6810493469238,-3.53850722312927,C1,http://www.crtm.es,0,,Europe/Madrid,2
par_8_15206,15206,AV.LOPE DE VEGA-CARMEN RICO GODOY,Avda  Lope de Vega S/N,40.6808776855469,-3.53862428665161,C1,http://www.crtm.es,0,,Europe/Madrid,2
par_8_15207,15207,AV.LOPE DE VEGA-JORGE MANRIQUE,Avda  Lope de Vega S/N,40.6777954101563,-3.52931046485901,C1,http://www.crtm.es,0,,Europe/Madrid,2
par_8_15208,15208,AV.LOPE DE VEGA-MIGUEL DELIBES,Avda  Lope de Vega S/N,40.6778106689453,-3.52987861633301,C1,http://www.crtm.es,0,,Europe/Madrid,2
par_8_15209,15209,URB.EL MIRADOR,Urb el Mirador 10,40.6770362854004,-3.522216796875,C1,http://www.crtm.es,0,,Europe/Madrid,2
par_8_15210,15210,URB.EL MIRADOR,Urb el Mirador 10,40.6769180297852,-3.52222776412964,C1,http://www.crtm.es,0,,Europe/Madrid,2
par_8_17064,17064,PATONES-RESIDENCIA,Avda de Madrid 5,40.852970123291,-3.4875648021698,C2,http://www.crtm.es,0,,Europe/Madrid,2
par_8_17065,17065,PATONES-RESIDENCIA,Avda de Madrid 4,40.8526992797852,-3.48768138885498,C2,http://www.crtm.es,0,,Europe/Madrid,2
par_8_17522,17522,CAVA-CºSOLEDAD,Calle de la Cava 41,40.8274040222168,-3.53415107727051,C2,http://www.crtm.es,0,,Europe/Madrid,2
par_8_17523,17523,CAVA-CºSOLEDAD,Calle de la Cava 1200,40.8275680541992,-3.53371357917786,C2,http://www.crtm.es,0,,Europe/Madrid,2
par_8_17999,17999,ALGETE-CTRA.ALALPARDO,Calle   Algete 11800,40.632152557373,-3.51069235801697,C1,http://www.crtm.es,0,,Europe/Madrid,0
par_8_18000,18000,ALGETE-CTRA.ALALPARDO,Calle   Algete 15,40.6319618225098,-3.51084470748901,C1,http://www.crtm.es,0,,Europe/Madrid,0
par_8_18711,18711,CTRA.M111-CºMALATONES,Ctra   Antigua Fuente el Saz-Paracuellos 19.000,40.614875793457,-3.53948879241943,B3,http://www.crtm.es,0,,Europe/Madrid,0
par_8_18972,18972,UCEDA-GUADALAJARA,Uceda sn,40.7928695678711,-3.49746084213257,E1,http://www.crtm.es,0,,Europe/Madrid,0
par_8_18980,18980,UCEDA-MAYOR,Calle  Mayor 14,40.8414115905762,-3.46393418312073,E1,http://www.crtm.es,0,,Europe/Madrid,0
par_8_19161,19161,CTRA.M103-PELETERÍA,Ctra de Torrelaguna 15700,40.6669769287109,-3.51093435287476,C1,http://www.crtm.es,0,,Europe/Madrid,0
par_8_19162,19162,CTRA.M103-PELETERÍA,Ctra de Torrelaguna 15700,40.6672058105469,-3.510746717453,C1,http://www.crtm.es,0,,Europe/Madrid,0
par_8_19163,19163,CTRA.M103-POL.IND.VALTORÓN,Calle   Torrelaguna 19300,40.7015495300293,-3.50960040092468,C1,http://www.crtm.es,0,,Europe/Madrid,0
par_8_19164,19164,CTRA.M103-POL.IND.VALTORÓN,Calle   Torrelaguna 19300,40.7016677856445,-3.50936460494995,C1,http://www.crtm.es,0,,Europe/Madrid,0
par_8_19166,19166,CTRA.M103-EL TESORO,Ctra   M-103 25300,40.7552833557129,-3.50656318664551,C2,http://www.crtm.es,0,,Europe/Madrid,0
par_8_19167,19167,CTRA.M103-EL TESORO,Ctra   M-103 25400,40.755428314209,-3.50635099411011,C2,http://www.crtm.es,0,,Europe/Madrid,0
par_8_19284,19284,CANAL DE ISABEL II-AV.HISPANIDAD,Calle   Canal de Isabel II 400,40.8394889831543,-3.50121355056763,C2,http://www.crtm.es,0,,Europe/Madrid,0
par_8_19298,19298,CANAL DE ISABEL II-TORREARTE,Calle del Canal de Isabel II 600,40.8381271362305,-3.49972057342529,C2,http://www.crtm.es,0,,Europe/Madrid,0
par_8_19340,19340,CTRA.CM1002-UCEDA,Ctra   CM-1002 1,40.8448791503906,-3.4644091129303,E1,http://www.crtm.es,0,,Europe/Madrid,0
par_8_19341,19341,UCEDA-CºCALVARIO,Cmno del Calvario SN,40.8444557189941,-3.46384859085083,E1,http://www.crtm.es,0,,Europe/Madrid,0
par_8_20328,20328,SOLEDAD-SEVERO OCHOA,Calle de la Soledad 3,40.6941795349121,-3.51181674003601,C1,http://www.crtm.es,0,,Europe/Madrid,0
par_8_20612,20612,MALACUERA-JUZGADO,Calle   Malacuera 47,40.8232002258301,-3.53800702095032,C2,http://www.crtm.es,0,,Europe/Madrid,0
par_8_20897,20897,TALAMANCA DE JARAMA-AV.MADRID,Avda de Madrid 2,40.7445106506348,-3.5081160068512,C2,http://www.crtm.es,0,,Europe/Madrid,0
par_8_21089,21089,AV.MORERAS-AV.ALCALÁ,Avda de las Moreras 1,40.7385406494141,-3.51131558418274,C2,http://www.crtm.es,0,,Europe/Madrid,0
par_8_10314,10314,EL BERRUECO-PARQUE INFANTIL,Avda del Generalísimo 1,40.8875312805176,-3.56167459487915,C2,http://www.crtm.es,0,,Europe/Madrid,2
par_8_10315,10315,EL BERRUECO-PZA.LA PICOTA,Plaza de la Picota 3,40.8878593444824,-3.56113123893738,C2,http://www.crtm.es,0,,Europe/Madrid,2
par_8_10344,10344,VALDEMANCO-AV.DESVÍO,Avda del Desvío 5500,40.8712882995605,-3.66365480422974,C2,http://www.crtm.es,0,,Europe/Madrid,2
par_8_18183,18183,CTRA.M610-URB.LA HOYA,Ctra   M-610 (La Cabrera) 3400,40.8593139648438,-3.64959383010864,C2,http://www.crtm.es,0,,Europe/Madrid,0
par_8_18184,18184,CTRA.M610-URB.LA HOYA,Ctra   M-610 (La Cabrera) 8,40.8591995239258,-3.64967560768127,C2,http://www.crtm.es,0,,Europe/Madrid,0
par_8_18185,18185,CTRA.M610-COLONIA EL ROBLE,Ctra de Valdemanco 2600,40.8548316955566,-3.63979744911194,C2,http://www.crtm.es,0,,Europe/Madrid,0
par_8_18186,18186,CTRA.M610-COLONIA EL ROBLE,Ctra  M-610 (LA CABRERA) 1,40.8551902770996,-3.64160442352295,C2,http://www.crtm.es,0,,Europe/Madrid,0
par_8_19193,19193,VALDEMANCO-AV.DESVÍO,Avda del Desvío 17,40.8711547851563,-3.66326189041138,C2,http://www.crtm.es,0,,Europe/Madrid,0
par_8_09126,09126,NAVALAFUENTE-CUATRO CAMINOS,Calle   Eras de Abajo 21600,40.8220443725586,-3.67716836929321,C2,http://www.crtm.es,0,,Europe/Madrid,2
par_8_09866,09866,CTRA.M625-CAMPING,Ctra de M-625 (Guadalix) 19300,40.8079795837402,-3.69101548194885,C2,http://www.crtm.es,0,,Europe/Madrid,2
par_8_09867,09867,CTRA.M625-CAMPING,Ctra de M-625 (Guadalix) 19500,40.8086471557617,-3.69069051742554,C2,http://www.crtm.es,0,,Europe/Madrid,2
par_8_10251,10251,CAÑO-URB.LAS CIGÜEÑAS,Calle  Caño 45,40.7839164733887,-3.69427394866943,C2,http://www.crtm.es,0,,Europe/Madrid,2
par_8_12110,12110,URB.EL CHAPARRAL,Avda del Chaparral 2,40.8255004882813,-3.65553712844849,C2,http://www.crtm.es,0,,Europe/Madrid,2
par_8_12652,12652,CTRA.M625-URB.LAS PRADERAS,Ctra de M-625 (Guadalix) 21000,40.8174705505371,-3.6797661781311,C2,http://www.crtm.es,0,,Europe/Madrid,2
par_8_13120,13120,CTRA.M625-URB.LAS PRADERAS,Avda de las Praderas 33,40.8171043395996,-3.68062806129456,C2,http://www.crtm.es,0,,Europe/Madrid,2
par_8_13303,13303,CTRA.M625-CANCHO,Ctra de Navalafuente a Cabanillas 22400,40.8238372802734,-3.66893291473389,C2,http://www.crtm.es,0,,Europe/Madrid,2
par_8_13304,13304,CTRA.M625-CANCHO,Calle   Cancho 2,40.8242607116699,-3.66941165924072,C2,http://www.crtm.es,0,,Europe/Madrid,2
par_8_15713,15713,PRADO PANETES-COLEGIO,Calle  Prado Panetes 1,40.7819709777832,-3.69545078277588,C2,http://www.crtm.es,0,,Europe/Madrid,2
par_8_15714,15714,CTRA.M625-VIVEROS,Ctra de Navalafuente 38,40.7942314147949,-3.69241380691528,C2,http://www.crtm.es,0,,Europe/Madrid,2
par_8_17320,17320,CTRA.M625-VIVEROS,Ctra de Navalafuente 17700,40.7938652038574,-3.69246935844421,C2,http://www.crtm.es,0,,Europe/Madrid,2
par_8_17792,17792,NAVALAFUENTE-CUATRO CAMINOS,Calle   Eras de Abajo 21600,40.8220520019531,-3.67697882652283,C2,http://www.crtm.es,0,,Europe/Madrid,0
par_8_19194,19194,AV.LA CABRERA-CARLOS JIMÉNEZ DIAZ,Avda de la Cabrera 19,40.8609352111816,-3.61365747451782,C2,http://www.crtm.es,0,,Europe/Madrid,0
par_8_20217,20217,PARQUE DE LAS ERAS,Calle el Callejón 1,40.7814407348633,-3.69122624397278,C2,http://www.crtm.es,0,,Europe/Madrid,0
par_8_20218,20218,EGIDO-PARQUE GUILLERMO RUBIO,Calle   Egido 35,40.7843246459961,-3.68799686431885,C2,http://www.crtm.es,0,,Europe/Madrid,0
par_8_20219,20219,AV.CHOPERA-COMPLEJO DEPORTIVO,Avda de Chopera 32,40.784309387207,-3.68544864654541,C2,http://www.crtm.es,0,,Europe/Madrid,0
par_8_10049,10049,EL ESPARTAL-IGLESIA,Ctra del Vellón 15,40.7690200805664,-3.53610038757324,C2,http://www.crtm.es,0,,Europe/Madrid,2
par_8_17847,17847,EL ESPARTAL-IGLESIA,Ctra del Vellón 17,40.769100189209,-3.53661060333252,C2,http://www.crtm.es,0,,Europe/Madrid,0
par_8_17848,17848,EL VELLÓN-LA MINA,Ctra  M-129 3,40.768627166748,-3.5783269405365,C2,http://www.crtm.es,0,,Europe/Madrid,0
par_8_18363,18363,CTRA.M122-URB.EL CALVERO,Ctra   M-122 (El Espartal) 5700,40.7689361572266,-3.5487072467804,C2,http://www.crtm.es,0,,Europe/Madrid,0
par_8_18364,18364,CTRA.M122-URB.EL CALVERO,Ctra   M-122 (El Espartal) 5700,40.7691421508789,-3.54889845848084,C2,http://www.crtm.es,0,,Europe/Madrid,0
par_8_19228,19228,CTRA M-122-EL ESPARTAL,Ctra del Vellón 28,40.7690658569336,-3.53855347633362,C2,http://www.crtm.es,0,,Europe/Madrid,0
par_8_19229,19229,CTRA M-122-EL ESPARTAL,Ctra del Vellón 49,40.7689170837402,-3.53877758979797,C2,http://www.crtm.es,0,,Europe/Madrid,0
par_8_10318,10318,ROBLEDILLO DE LA JARA-IGLESIA,Calle de la Fuente 21,40.9519538879395,-3.52500653266907,C2,http://www.crtm.es,0,,Europe/Madrid,2
par_8_07306,07306,CTRA.M111-CºCAMPOSANTO,Ctra  M-111 (Paracuellos-Belvis) 1,40.5159873962402,-3.54669880867004,B1,http://www.crtm.es,0,,Europe/Madrid,2
par_8_07307,07307,CTRA.M111-CºCAMPOSANTO,Ctra  M-111 (Paracuellos-Belvis) 1,40.5158462524414,-3.5462372303009,B1,http://www.crtm.es,0,,Europe/Madrid,2
par_8_07336,07336,CTRA.M113-RESIDENCIAL JARAMA,Ctra   M-113 (De la M-111 al Límite por Ajalvir) 100,40.4997062683105,-3.54581117630005,B1,http://www.crtm.es,0,,Europe/Madrid,2
par_8_07337,07337,CTRA.M113-RESIDENCIAL NUEVO AMANECER,Ctra   M-113 (De la M-111 al Límite por Ajalvir) SN,40.5018577575684,-3.54157996177673,B1,http://www.crtm.es,0,,Europe/Madrid,2
par_8_07338,07338,CTRA.M113-NAVEGACIÓN AÉREA,Ctra   M-113 (De la M-111 al Límite por Ajalvir) 1200,40.5058784484863,-3.5377881526947,B1,http://www.crtm.es,0,,Europe/Madrid,2
par_8_07342,07342,CTRA.M113-NAVEGACIÓN AÉREA,Ctra   M-113 (De la M-111 al Límite por Ajalvir) 1300,40.5068397521973,-3.53803205490112,B1,http://www.crtm.es,0,,Europe/Madrid,2
par_8_07343,07343,CTRA.M113-RESIDENCIAL NUEVO AMANECER,Ctra   M-113 (De la M-111 al Límite por Ajalvir) 0.800,40.501823425293,-3.54182744026184,B1,http://www.crtm.es,0,,Europe/Madrid,2
par_8_07344,07344,CTRA.M113-RESIDENCIAL JARAMA,Ctra   M-113 (De la M-111 al Límite por Ajalvir) 100,40.4998092651367,-3.54631948471069,B1,http://www.crtm.es,0,,Europe/Madrid,2
par_8_07345,07345,CTRA.M111-POLVORINES,Ctra   M-111 (Paracuellos-Belvis) 4400,40.5075988769531,-3.547527551651,B1,http://www.crtm.es,0,,Europe/Madrid,2
par_8_07347,07347,CTRA.M111-POL.IND.EL PULIDO,Ctra   M-111 (Paracuellos-Belvis) 4700,40.5111885070801,-3.54795813560486,B1,http://www.crtm.es,0,,Europe/Madrid,2
par_8_07348,07348,CTRA.M111-POL.IND.GUILLERMO MESA,Ctra   M-111 (Paracuellos-Belvis) 5700,40.5192909240723,-3.54578113555908,B1,http://www.crtm.es,0,,Europe/Madrid,2
par_8_07349,07349,CTRA.M111-LA GRANJA,Ctra   M-111 (Paracuellos-Belvis) 6300,40.5238952636719,-3.54549980163574,B1,http://www.crtm.es,0,,Europe/Madrid,2
par_8_07350,07350,CTRA.M111-URB.LOMAS DEL JARAMA,Ctra   M-111 (Paracuellos-Belvis) 6900,40.5287055969238,-3.54517269134521,B1,http://www.crtm.es,0,,Europe/Madrid,2
par_8_07351,07351,CTRA.M111-LA VEGUILLA,Ctra   M-111 (Paracuellos-Belvis) 9200,40.5462074279785,-3.5498731136322,B2,http://www.crtm.es,0,,Europe/Madrid,2
par_8_07353,07353,CTRA.M111-LA VEGUILLA,Ctra   M-111 (Paracuellos-Belvis) 9400,40.5474662780762,-3.55058026313782,B2,http://www.crtm.es,0,,Europe/Madrid,2
par_8_07354,07354,CTRA.M111-URB.LOMAS DEL JARAMA,Ctra   M-111 (Paracuellos-Belvis) 6800,40.5277252197266,-3.54555439949036,B1,http://www.crtm.es,0,,Europe/Madrid,2
par_8_07355,07355,CTRA.M111-LA GRANJA,Ctra   M-111 (Paracuellos-Belvis) 6300,40.5235862731934,-3.54583954811096,B1,http://www.crtm.es,0,,Europe/Madrid,2
par_8_07356,07356,CTRA.M111-POL.IND.GUILLERMO MESA,Ctra   M-111 (Paracuellos-Belvis) 5700,40.5188827514648,-3.54615545272827,B1,http://www.crtm.es,0,,Europe/Madrid,2
par_8_07357,07357,CTRA.M111-POL.IND.EL PULIDO,Ctra   M-111 (Paracuellos-Belvis) 4700,40.5107650756836,-3.54830884933472,B1,http://www.crtm.es,0,,Europe/Madrid,2
par_8_07359,07359,CTRA.M111-JUAN RAMÓN JIMÉNEZ,Ctra   M-111 (Paracuellos-Belvis) 4200,40.5056686401367,-3.54800748825073,B1,http://www.crtm.es,0,,Europe/Madrid,2
par_8_11966,11966,PºRADAR-MURCIA,Paseo del Radar 2 A,40.5043716430664,-3.52847599983215,B1,http://www.crtm.es,0,,Europe/Madrid,2
par_8_11967,11967,PºRADAR-AV.ANDALUCÍA,Paseo del Radar 2 A,40.5042190551758,-3.52849841117859,B1,http://www.crtm.es,0,,Europe/Madrid,2
par_8_15766,15766,REAL-RONDA DE LAS CUESTAS,Calle   Ronda de las Cuestas 2,40.503589630127,-3.53219938278198,B1,http://www.crtm.es,0,,Europe/Madrid,2
par_8_15767,15767,REAL-ATARRE,Calle   Real 25,40.5044174194336,-3.53043556213379,B1,http://www.crtm.es,0,,Europe/Madrid,2
par_8_16198,16198,CTRA.M111-POL.IND.LAMA,Ctra   M-111 (Paracuellos-Belvis) 3700,40.500057220459,-3.54764318466187,B1,http://www.crtm.es,0,,Europe/Madrid,2
par_8_17277,17277,AV.CIRCUNVALACIÓN-AV.CHARCOS,Avda de Circunvalación 319,40.497241973877,-3.5051953792572,B1,http://www.crtm.es,0,,Europe/Madrid,2
par_8_17278,17278,AV.CIRCUNVALACIÓN-AV.CHARCOS,Avda de Circunvalación 321,40.4977607727051,-3.50534105300903,B1,http://www.crtm.es,0,,Europe/Madrid,2
par_8_17279,17279,AV.CIRCUNVALACIÓN-NTRA.SRA.DE BELVÍS,Avda de Circunvalación 351,40.5000190734863,-3.5042839050293,B1,http://www.crtm.es,0,,Europe/Madrid,2
par_8_17280,17280,AV.CIRCUNVALACIÓN-NTRA.SRA.DE BELVÍS,Avda de Circunvalación 351,40.5000305175781,-3.5040009021759,B1,http://www.crtm.es,0,,Europe/Madrid,2
par_8_17281,17281,AV.JUAN PABLO II-SANTIAGO APÓSTOL,Avda de Juan Pablo II 52,40.5015602111816,-3.50639629364014,B1,http://www.crtm.es,0,,Europe/Madrid,2
par_8_17282,17282,AV.JUAN PABLO II-LOS ANDES,Avda de Juan Pablo II 53,40.5019226074219,-3.50618648529053,B1,http://www.crtm.es,0,,Europe/Madrid,2
par_8_17283,17283,AV.JUAN PABLO II-AV.VALDEDIEGO,Avda de Juan Pablo II 35,40.5029602050781,-3.50920391082764,B1,http://www.crtm.es,0,,Europe/Madrid,2
par_8_17284,17284,AV.JUAN PABLO II-AV.VALDEDIEGO,Avda de Juan Pablo II 44,40.5024909973145,-3.50931835174561,B1,http://www.crtm.es,0,,Europe/Madrid,2
par_8_17285,17285,AV.JUAN PABLO II-PºLAS CAMELIAS,Avda de Juan Pablo II 28,40.5036468505859,-3.51305651664734,B1,http://www.crtm.es,0,,Europe/Madrid,2
par_8_17286,17286,AV.JUAN PABLO II-GASPAR DE MORALES,Avda de Juan Pablo II 28,40.503231048584,-3.51305341720581,B1,http://www.crtm.es,0,,Europe/Madrid,2
par_8_17287,17287,AV. CHARCOS-PºLAS CAMELIAS,Avda de los Charcos 1,40.5004997253418,-3.51587677001953,B1,http://www.crtm.es,0,,Europe/Madrid,2
par_8_17288,17288,AV.CHARCOS-PºLAS CAMELIAS,Avda de los Charcos 1,40.5002021789551,-3.51576828956604,B1,http://www.crtm.es,0,,Europe/Madrid,2
par_8_17290,17290,AV.CHARCOS-RÍO TOROTE,Avda de los Charcos 1,40.5012817382813,-3.51846742630005,B1,http://www.crtm.es,0,,Europe/Madrid,2
par_8_17291,17291,AV.CHARCOS-PZA.LOS DEPORTES,Avda de los Charcos 1,40.502384185791,-3.52128481864929,B1,http://www.crtm.es,0,,Europe/Madrid,2
par_8_17292,17292,AV.CHARCOS-PZA.LOS DEPORTES,Avda de los Charcos 1,40.5022163391113,-3.5211181640625,B1,http://www.crtm.es,0,,Europe/Madrid,2
par_8_17298,17298,PºRADAR-EXTREMADURA,Paseo del Radar 35,40.5026664733887,-3.52511072158813,B1,http://www.crtm.es,0,,Europe/Madrid,2
par_8_17299,17299,PºRADAR-EXTREMADURA,Paseo del Radar 36,40.502555847168,-3.52554655075073,B1,http://www.crtm.es,0,,Europe/Madrid,2
par_8_19373,19373,BELVIS DE JARAMA-MAYOR,Calle   Mayor 1,40.5632934570313,-3.55268263816834,B2,http://www.crtm.es,0,,Europe/Madrid,0
par_8_19374,19374,BELVIS DE JARAMA-MAYOR,Calle   Mayor 1,40.563232421875,-3.55244588851929,B2,http://www.crtm.es,0,,Europe/Madrid,0
par_8_07324,07324,AV.LOGROÑO-PºALAMEDA DE OSUNA,Avda de Logroño 6 A,40.4509735107422,-3.60770726203918,A,http://www.crtm.es,0,,Europe/Madrid,2
par_8_07325,07325,AV.LOGROÑO-JARDINES DE ARANJUEZ,Avda de Logroño 36,40.454517364502,-3.60323405265808,A,http://www.crtm.es,0,,Europe/Madrid,2
par_8_07326,07326,AV.LOGROÑO-PARQUE EL CAPRICHO,Avda de Logroño 40 B,40.4587478637695,-3.59704446792603,A,http://www.crtm.es,0,,Europe/Madrid,2
par_8_07327,07327,AV.LOGROÑO-ALAMEDA DE OSUNA,Avda de Logroño 189,40.4609107971191,-3.59207439422607,A,http://www.crtm.es,0,,Europe/Madrid,2
par_8_07333,07333,AV.LOGROÑO-PZA.PAJARONES,Avda de Logroño 162,40.4752578735352,-3.58230257034302,A,http://www.crtm.es,0,,Europe/Madrid,2
par_8_07335,07335,CTRA.M111-DEPURADORA VALDEBEBAS,Ctra de Antigua de Paracuellos de Jarama 3000,40.4950485229492,-3.55103659629822,B1,http://www.crtm.es,0,,Europe/Madrid,2
par_8_07339,07339,RONDA DE LA FUENTE-AJALVIR,Calle de la Ronda de la Fuente 3,40.5061378479004,-3.5298707485199,B1,http://www.crtm.es,0,,Europe/Madrid,2
par_8_07340,07340,CHORRILLO ALTA-ERAS DE CHAMBERÍ,Calle del Chorrillo Alta 62,40.5079154968262,-3.53309512138367,B1,http://www.crtm.es,0,,Europe/Madrid,2
par_8_07341,07341,PZA.CONSTITUCIÓN-CHORRILLO ALTA,Calle del Chorrillo Alta 13,40.5047607421875,-3.53163027763367,B1,http://www.crtm.es,0,,Europe/Madrid,2
par_8_07361,07361,CTRA.M111-DEPURADORA VALDEBEBAS,Ctra de Antigua de Paracuellos de Jarama 3000,40.4953842163086,-3.55106282234192,B1,http://www.crtm.es,0,,Europe/Madrid,2
par_8_07363,07363,AV.LOGROÑO-EST.BARAJAS,Avda de Logroño 345,40.4750556945801,-3.58252501487732,A,http://www.crtm.es,0,,Europe/Madrid,2
par_8_07384,07384,AV.LOGROÑO-ALAMEDA DE OSUNA,Avda de Logroño 179,40.4605140686035,-3.59352159500122,A,http://www.crtm.es,0,,Europe/Madrid,2
par_8_07385,07385,AV.LOGROÑO-PARQUE EL CAPRICHO,Avda de Logroño 40 A,40.4587173461914,-3.59791684150696,A,http://www.crtm.es,0,,Europe/Madrid,2
par_8_07386,07386,AV.LOGROÑO-JARDINES DE ARANJUEZ,Avda de Logroño 34,40.4537811279297,-3.60440683364868,A,http://www.crtm.es,0,,Europe/Madrid,2
par_8_07396,07396,AV.LOGROÑO-PºALAMEDA DE OSUNA,Avda de Logroño 29,40.451114654541,-3.60802698135376,A,http://www.crtm.es,0,,Europe/Madrid,2
par_8_10801,10801,PORTILLO ROMERO-URB.PULIDO,Calle   Portillo Romero 3,40.5173988342285,-3.53779768943787,B1,http://www.crtm.es,0,,Europe/Madrid,2
par_8_10802,10802,AV.MESA DEL MONTE-URB.PULIDO,Avda de la Mesa del Monte 21,40.5201225280762,-3.53744173049927,B1,http://www.crtm.es,0,,Europe/Madrid,2
par_8_10803,10803,AV.MESA DEL MONTE-URB.ALTOS DEL JARAMA,Avda de la Mesa del Monte 16,40.5224876403809,-3.53816890716553,B1,http://www.crtm.es,0,,Europe/Madrid,2
par_8_10804,10804,AV.MESA DEL MONTE-URB.PULIDO,Avda de la Mesa del Monte 17,40.519905090332,-3.53782939910889,B1,http://www.crtm.es,0,,Europe/Madrid,2
par_8_10805,10805,PORTILLO ROMERO-URB.PULIDO,Calle  Portillo Romero 1,40.517032623291,-3.53759407997131,B1,http://www.crtm.es,0,,Europe/Madrid,2
par_8_11482,11482,REAL DE BURGOS-ERAS DE CHAMBERÍ,Calle del Real de Burgos 76,40.5081062316895,-3.53295493125916,B1,http://www.crtm.es,0,,Europe/Madrid,2
par_8_1313,1313,AV.LOGROÑO-MARQUES DE BERNA,Avda de Logroño 243,40.4645080566406,-3.58558320999146,A,http://www.crtm.es,0,,Europe/Madrid,0
par_8_1314,1314,AV.LOGROÑO-MARQUÉS DE BERNA,Avda de Logroño 269,40.4651718139648,-3.58499908447266,A,http://www.crtm.es,0,,Europe/Madrid,0
par_8_1315,1315,AV.LOGROÑO-ARIADNA,Avda de Logroño 96,40.468692779541,-3.58152627944946,A,http://www.crtm.es,0,,Europe/Madrid,0
par_8_1316,1316,AV.LOGROÑO-ARIADNA,Avda de Logroño 303,40.4689979553223,-3.58163499832153,A,http://www.crtm.es,0,,Europe/Madrid,0
par_8_1321,1321,AV.LOGROÑO-ALGEMESI,Avda de Logroño 130,40.4722862243652,-3.58168697357178,A,http://www.crtm.es,0,,Europe/Madrid,0
par_8_1322,1322,AV.LOGROÑO-ALGEMESI,Avda de Logroño 323,40.4722595214844,-3.58193445205688,A,http://www.crtm.es,0,,Europe/Madrid,0
par_8_18095,18095,CANILLEJAS-AREA INTERMODAL,Calle de Josefa Valcárcel 152,40.4492340087891,-3.60962557792664,A,http://www.crtm.es,0,,Europe/Madrid,0
par_8_20026,20026,PORTILLO ROMERO-FLOR DE LIS,Calle   Portillo Romero 12,40.5141334533691,-3.53720498085022,B1,http://www.crtm.es,0,,Europe/Madrid,0
par_8_20027,20027,PORTILLO ROMERO-FLOR DE LIS,Calle   Portillo Romero 10,40.5140495300293,-3.53732228279114,B1,http://www.crtm.es,0,,Europe/Madrid,0
par_8_20076,20076,AV.MESA DEL MONTE-HIGUERAS VALTIBÁÑEZ,Avda de la Mesa del Monte 61,40.5242881774902,-3.53815960884094,B1,http://www.crtm.es,0,,Europe/Madrid,0
par_8_20077,20077,AV.MESA DEL MONTE-HIGUERAS VALTIBÁÑEZ,Avda de la Mesa del Monte 36,40.524299621582,-3.53804159164429,B1,http://www.crtm.es,0,,Europe/Madrid,0
par_8_20078,20078,AV.MESA DEL MONTE-URB.ALTOS DEL JARAMA,Avda de la Mesa del Monte 45,40.5226135253906,-3.53809905052185,B1,http://www.crtm.es,0,,Europe/Madrid,0
par_8_4921,4921,AV.LOGROÑO-BENIFAYO,Avda de Logroño 225,40.4628639221191,-3.58841156959534,A,http://www.crtm.es,0,,Europe/Madrid,0
par_8_4922,4922,AV.LOGROÑO-TINTIN Y MILU,Avda de Logroño 227 C,40.4629592895508,-3.58788156509399,A,http://www.crtm.es,0,,Europe/Madrid,0
par_8_07360,07360,CTRA.M111-POL.IND.EL CERVELLÓN,Ctra   M-111 (Paracuellos-Belvis) 3500,40.4989585876465,-3.54696178436279,B1,http://www.crtm.es,0,,Europe/Madrid,2
par_8_06903,06903,AV.FRONTERAS-MADRID,Avda  Fronteras 16,40.4608917236328,-3.48375153541565,B2,http://www.crtm.es,0,,Europe/Madrid,2
par_8_06904,06904,AV.FRONTERAS-MADRID,Avda   Fronteras 17 A,40.460693359375,-3.48396229743958,B2,http://www.crtm.es,0,,Europe/Madrid,2
par_8_09008,09008,CTRA.DAGANZO-CTRA.COBEÑA,Ctra   Daganzo 1,40.5314445495605,-3.48073983192444,B2,http://www.crtm.es,0,,Europe/Madrid,2
par_8_10084,10084,CTRA.DAGANZO-CTRA.COBEÑA,Ctra  Daganzo 4,40.5312805175781,-3.4807505607605,B2,http://www.crtm.es,0,,Europe/Madrid,2
par_8_10088,10088,CTRA.M108-AEROESPACIAL INTA,Ctra   M-108 (Torrejón-Ajalvir) 2900,40.4879035949707,-3.47815179824829,B2,http://www.crtm.es,0,,Europe/Madrid,2
par_8_10090,10090,CTRA.M108-POL.IND.RAMARGA,Ctra de Torrejón 36,40.5096092224121,-3.48010015487671,B2,http://www.crtm.es,0,,Europe/Madrid,2
par_8_10092,10092,CTRA.M108-POL.IND.LAS MARINERAS,Ctra de Torrejón 36,40.5144081115723,-3.48047661781311,B2,http://www.crtm.es,0,,Europe/Madrid,2
par_8_10254,10254,CTRA.M108-POL.IND.LOS MADROÑOS,Polig   Madroños 2,40.5143890380859,-3.48088955879211,B2,http://www.crtm.es,0,,Europe/Madrid,2
par_8_10255,10255,CTRA.M108-POL.IND.COMPISA,Polg  Conpisa 2,40.5096969604492,-3.48038387298584,B2,http://www.crtm.es,0,,Europe/Madrid,2
par_8_10256,10256,CTRA.M108-POL.IND.CONMAR,Polig   Seysa 28,40.5016555786133,-3.47971296310425,B2,http://www.crtm.es,0,,Europe/Madrid,2
par_8_10257,10257,CTRA.M108-AEROESPACIAL INTA,Lugar de I.N.T.A. 20,40.4894332885742,-3.47852849960327,B2,http://www.crtm.es,0,,Europe/Madrid,2
par_8_10892,10892,AV.CONSTITUCIÓN-AV.LAS FRONTERAS,Avda   Constitución 26,40.4553451538086,-3.48269748687744,B2,http://www.crtm.es,0,,Europe/Madrid,2
par_8_11181,11181,C.C.PARQUE CORREDOR,Ctra  Ajalvir SN,40.4741859436035,-3.47962355613709,B2,http://www.crtm.es,0,,Europe/Madrid,2
par_8_11182,11182,C.C.PARQUE CORREDOR,Ctra  Ajalvir SN,40.4740600585938,-3.47979950904846,B2,http://www.crtm.es,0,,Europe/Madrid,2
par_8_12099,12099,CTRA.M108-TESTIGOS DE JEHOVÁ,Ctra de Torrejón 36,40.5045928955078,-3.47955679893494,B2,http://www.crtm.es,0,,Europe/Madrid,2
par_8_12100,12100,CTRA.M108-TESTIGOS DE JEHOVÁ,Ctra de Torrejón 4800,40.5051765441895,-3.48003315925598,B2,http://www.crtm.es,0,,Europe/Madrid,2
par_8_12103,12103,CTRA.DAGANZO-URB.LA ERMITA,Urb   La Ermita 12,40.536750793457,-3.47650337219238,B2,http://www.crtm.es,0,,Europe/Madrid,2
par_8_12104,12104,CTRA.DAGANZO-ERMITA SAN ROQUE,Ctra   Daganzo 9000,40.5372200012207,-3.4763650894165,B2,http://www.crtm.es,0,,Europe/Madrid,2
par_8_15084,15084,TERMINAL PZA.ESPAÑA-EST.TORREJÓN,Plaza   España 7,40.4560432434082,-3.48001337051392,B2,http://www.crtm.es,0,,Europe/Madrid,2
par_8_15393,15393,CTRA.M108-BRIGADA PARACAIDISTA,Lugar de I.N.T.A. 20,40.4924049377441,-3.47951722145081,B2,http://www.crtm.es,0,,Europe/Madrid,2
par_8_15398,15398,CTRA.M108-POL.IND.CONMAR,Ctra de Torrejón 4600,40.5027847290039,-3.47934317588806,B2,http://www.crtm.es,0,,Europe/Madrid,2
par_8_15657,15657,AJALVIR-CTRA.DAGANZO,Ctra  Daganzo 27,40.533748626709,-3.47897338867188,B2,http://www.crtm.es,0,,Europe/Madrid,2
par_8_15773,15773,AJALVIR-CTRA.DAGANZO,Ctra   Daganzo 8600,40.5339012145996,-3.47863221168518,B2,http://www.crtm.es,0,,Europe/Madrid,2
par_8_18255,18255,AV.FRONTERAS-AV.CONSTITUCIÓN,Avda  Fronteras 2 A,40.4559288024902,-3.48323225975037,B2,http://www.crtm.es,0,,Europe/Madrid,0
par_8_20028,20028,AV.PRÍNCIPE ASTURIAS-AV.SOMBRA LA TORRE,Avda   Príncipes de Asturias 3400,40.5070266723633,-3.5185706615448,B1,http://www.crtm.es,0,,Europe/Madrid,0
par_8_20029,20029,AV.PRÍNCIPE ASTURIAS-AV.CONSISTORIAL,Avda   Príncipes de Asturias 34,40.5072212219238,-3.51750993728638,B1,http://www.crtm.es,0,,Europe/Madrid,0
par_8_20030,20030,AV.PRÍNCIPE ASTURIAS-AV.HOYOS,Avda   Príncipes de Asturias 94,40.5090446472168,-3.5152223110199,B1,http://www.crtm.es,0,,Europe/Madrid,0
par_8_20031,20031,AV.PRÍNCIPE ASTURIAS-AV.REYERTA,Avda   Príncipes de Asturias 87,40.5098190307617,-3.51506304740906,B1,http://www.crtm.es,0,,Europe/Madrid,0
par_8_20083,20083,PºCAMELIAS-COLEGIO,Paseo de las Camelias SN,40.498908996582,-3.5148024559021,B1,http://www.crtm.es,0,,Europe/Madrid,0
par_8_20084,20084,PºCAMELIAS-COLEGIO,Paseo de las Camelias 1,40.4989929199219,-3.51462602615356,B1,http://www.crtm.es,0,,Europe/Madrid,0
par_8_20085,20085,PºCAMELIAS-AV.CIRCUNVALACIÓN,Paseo de las Camelias SN,40.4964981079102,-3.51380467414856,B1,http://www.crtm.es,0,,Europe/Madrid,0
par_8_20086,20086,PºCAMELIAS-AV.CIRCUNVALACIÓN,Paseo de las Camelias SN,40.496654510498,-3.51365232467651,B1,http://www.crtm.es,0,,Europe/Madrid,0
par_8_20405,20405,REAL-SEGOVIA,Calle   Real 53,40.5057983398438,-3.52759027481079,B1,http://www.crtm.es,0,,Europe/Madrid,0
par_8_20406,20406,REAL-AV.ANDALUCÍA,Calle   Real 57,40.5056991577148,-3.52747130393982,B1,http://www.crtm.es,0,,Europe/Madrid,0
par_8_10890,10890,ESTACIONES-PARQUE BOMBEROS,Calle   Estaciones 13,40.4450149536133,-3.4863498210907,B2,http://www.crtm.es,0,,Europe/Madrid,2
par_8_16555,16555,ESTACIONES-PRIMAVERA,Calle  Estaciones 4,40.4459991455078,-3.48342061042786,B2,http://www.crtm.es,0,,Europe/Madrid,2
par_8_16556,16556,ESTACIONES-PRIMAVERA,Calle  Estaciones 3,40.4456405639648,-3.48324108123779,B2,http://www.crtm.es,0,,Europe/Madrid,2
par_8_17032,17032,AV.ASTRONOMÍA-CENTRO DE EMPRESAS,Avda de la Astronomía 53,40.4489898681641,-3.49242806434631,B2,http://www.crtm.es,0,,Europe/Madrid,2
par_8_17033,17033,AV.ASTRONOMÍA-PZA.CIENCIA,Avda de la Astronomía 53,40.4490814208984,-3.49614334106445,B2,http://www.crtm.es,0,,Europe/Madrid,2
par_8_17034,17034,AV.ASTRONOMÍA-VENUS,Avda de la Astronomía 45,40.4483757019043,-3.49922800064087,B2,http://www.crtm.es,0,,Europe/Madrid,2
par_8_17035,17035,AV.ASTRONOMÍA-AV.PUERTA DE MADRID,Avda de la Astronomía 15,40.4475621802696,-3.50380561293459,B2,http://www.crtm.es,0,,Europe/Madrid,2
par_8_17036,17036,AV.ASTRONOMÍA-AV.PUERTA DE MADRID,Avda de la Astronomía 19,40.4473397888007,-3.50315537961132,B2,http://www.crtm.es,0,,Europe/Madrid,2
par_8_17037,17037,AV.ASTRONOMÍA-VENUS,Avda de la Astronomía 45,40.4482051544694,-3.49888119855387,B2,http://www.crtm.es,0,,Europe/Madrid,2
par_8_17038,17038,AV.ASTRONOMÍA-PZA.CIENCIA,Avda de la Astronomía 53,40.4487648010254,-3.49607038497925,B2,http://www.crtm.es,0,,Europe/Madrid,2
par_8_17039,17039,AV.ASTRONOMÍA-CENTRO DE EMPRESAS,Avda de la Astronomía 53,40.4487991333008,-3.49255633354187,B2,http://www.crtm.es,0,,Europe/Madrid,2
par_8_17040,17040,PZA.GUERNICA-EST.JARAMA,Plaza   Guernica SN,40.4228809034935,-3.52533483655176,B1,http://www.crtm.es,0,,Europe/Madrid,2
par_8_18142,18142,ESTACIONES-VERANO,Calle  Estaciones 12,40.445613861084,-3.48559951782227,B2,http://www.crtm.es,0,,Europe/Madrid,0
par_8_18144,18144,MEJORADA-PARQUE IND.LAS MONJAS,Calle   Mejorada 2,40.4458274841309,-3.48827767372131,B2,http://www.crtm.es,0,,Europe/Madrid,0
par_8_18145,18145,AV.ASTRONOMÍA-MEJORADA,Avda de la Astronomía 53,40.4489517211914,-3.48892545700073,B2,http://www.crtm.es,0,,Europe/Madrid,0
par_8_18146,18146,ESTACIONES-INVIERNO,Calle  Estaciones 19,40.4445571899414,-3.48769068717957,B2,http://www.crtm.es,0,,Europe/Madrid,0
par_8_20672,20672,TIMOTEO MENDIETA-POL INDUSTRIAL,Calle  timoteo mendienta sn,40.4367184265648,-3.49686266295959,B2,http://www.crtm.es,0,,Europe/Madrid,0
par_8_20673,20673,TIMOTEO MENDIETA-POL INDUSTRIAL,Calle  paraje vaciabotas sn,40.4366093087629,-3.49709766682512,B2,http://www.crtm.es,0,,Europe/Madrid,0
par_8_06530,06530,CTRA.M121-CRUCE PRISIÓN MILITAR,Ctra de Meco 2800,40.5285148620605,-3.34156632423401,B3,http://www.crtm.es,0,,Europe/Madrid,2
par_8_06531,06531,CTRA.M121-CRUCE PRISIÓN MILITAR,Ctra de Meco 2800,40.5284233093262,-3.34181380271912,B3,http://www.crtm.es,0,,Europe/Madrid,2
par_8_06536,06536,CºOLIVO-AV.LUZ,Cmno   Olivo 2,40.5494117736816,-3.32158303260803,C1,http://www.crtm.es,0,,Europe/Madrid,2
par_8_06537,06537,CºOLIVO-AV.LUZ,Cmno   Olivo 2,40.5494651794434,-3.32206749916077,C1,http://www.crtm.es,0,,Europe/Madrid,2
par_8_07075,07075,CTRA.M121-CRUCE PRISIÓN ALCALÁ MECO,Ctra de Meco 2200,40.5233459472656,-3.34390115737915,B3,http://www.crtm.es,0,,Europe/Madrid,2
par_8_07076,07076,CTRA.M121-CRUCE PRISIÓN ALCALÁ MECO,Ctra de Meco 2.100,40.5231018066406,-3.34377002716064,B3,http://www.crtm.es,0,,Europe/Madrid,2
par_8_07205,07205,CTRA.A2-POL.IND.LAS MERCEDES,Avda de Aragón 328,40.4495964050293,-3.58112573623657,B1,http://www.crtm.es,0,,Europe/Madrid,2
par_8_07207,07207,CTRA.A2-COL.FIN DE SEMANA,Avda de Aragón 374,40.4494171142578,-3.56792831420898,B1,http://www.crtm.es,0,,Europe/Madrid,2
par_8_07208,07208,CTRA.A2-HOTEL,Avda de Aragón 400,40.4491844177246,-3.55829167366028,B1,http://www.crtm.es,0,,Europe/Madrid,2
par_8_07209,07209,CTRA.A2-PEGASO CITY,Avda de Aragón 14100,40.4481086730957,-3.54791712760925,B1,http://www.crtm.es,0,,Europe/Madrid,2
par_8_07217,07217,AV.MADRID-PUERTA DE MADRID,Avda de Madrid 28,40.4802742004395,-3.37552452087402,B3,http://www.crtm.es,0,,Europe/Madrid,2
par_8_07239,07239,CTRA.A2-PQUE.EMP.SAN FERNANDO,Ctra de Inta 200,40.4526824951172,-3.51332926750183,B1,http://www.crtm.es,0,,Europe/Madrid,2
par_8_07299,07299,CTRA.A2-PEGASO CITY,Avda de Aragón 14000,40.4487800598145,-3.54874801635742,B1,http://www.crtm.es,0,,Europe/Madrid,2
par_8_07300,07300,CTRA.A2-HOTEL,Avda de Aragón 13300,40.4496765136719,-3.55770611763,B1,http://www.crtm.es,0,,Europe/Madrid,2
par_8_07301,07301,CTRA.A2-COL.FIN DE SEMANA,Ctra de SN SN,40.449878692627,-3.56593918800354,B1,http://www.crtm.es,0,,Europe/Madrid,2
par_8_07302,07302,CTRA.A2-BARRIO DEL AEROPUERTO,Calle de Salinas de Rosio 37,40.4503173828125,-3.57906818389893,B1,http://www.crtm.es,0,,Europe/Madrid,2
par_8_07312,07312,CTRA.A2-INSTITUTO,Ctra de Servicio Avenida de América y de la Hispanidad 10.000,40.4502830505371,-3.59655666351318,A,http://www.crtm.es,0,,Europe/Madrid,2
par_8_07313,07313,AV.AMÉRICA-CANILLEJAS,Avda de Logroño 4,40.4500885009766,-3.60798239707947,A,http://www.crtm.es,0,,Europe/Madrid,2
par_8_11766,11766,CºOLIVO-PABLO PICASSO,Cmno   Olivo 1 D,40.5453605651855,-3.33330249786377,C1,http://www.crtm.es,0,,Europe/Madrid,2
par_8_11767,11767,CºOLIVO-CABEZA DE HIERRO,Cmno   Olivo 1 D,40.5452270507813,-3.33258152008057,C1,http://www.crtm.es,0,,Europe/Madrid,2
par_8_11774,11774,CºOLIVO-SOMOSIERRA,Cmno   Olivo 18,40.5472984313965,-3.32669854164124,C1,http://www.crtm.es,0,,Europe/Madrid,2
par_8_11781,11781,CºOLIVO-PINAR,Cmno   Olivo 20,40.5473861694336,-3.32699418067932,C1,http://www.crtm.es,0,,Europe/Madrid,2
par_8_11782,11782,CºOLIVO-COTOS,Cmno   Olivo 2,40.5487022399902,-3.32368206977844,C1,http://www.crtm.es,0,,Europe/Madrid,2
par_8_11783,11783,CºOLIVO-PºDEL SOL,Cmno   Olivo 2,40.5488548278809,-3.32391881942749,C1,http://www.crtm.es,0,,Europe/Madrid,2
par_8_11786,11786,CTRA.ESTACIÓN-EST.MECO,Trva de la Calera 1,40.53466796875,-3.29919600486755,C1,http://www.crtm.es,0,,Europe/Madrid,2
par_8_12242,12242,VÍA COMPLUTENSE-BRIHUEGA,Calle   Vía Complutense 47,40.4866256713867,-3.36111760139465,B3,http://www.crtm.es,0,,Europe/Madrid,2
par_8_12243,12243,VÍA COMPLUTENSE-BRIHUEGA,Calle   Vía Complutense 40,40.4864311218262,-3.36082172393799,B3,http://www.crtm.es,0,,Europe/Madrid,2
par_8_12477,12477,INTERCAMBIADOR DE AVENIDA AMÉRICA,Avda de América 13,40.4384384155273,-3.67649960517883,A,http://www.crtm.es,0,est_90_4,,2
par_8_1283,1283,AV.AMERICA-PARQUE AVENIDAS,Avda de América 54,40.4432220458984,-3.66522765159607,A,http://www.crtm.es,0,,Europe/Madrid,0
par_8_1284,1284,AV.AMERICA-ARTURO SORIA,Avda de América 5400,40.4478340148926,-3.65157032012939,A,http://www.crtm.es,0,,Europe/Madrid,0
par_8_1285,1285,AV.AMERICA-ARTURO SORIA,Calle de Calidón 3,40.4478378295898,-3.65236043930054,A,http://www.crtm.es,0,,Europe/Madrid,0
par_8_1287,1287,AV.AMERICA-PQUE.CONDE ORGAZ,Avda de América 6400,40.4491310119629,-3.64029717445374,A,http://www.crtm.es,0,,Europe/Madrid,0
par_8_19313,19313,EL ENCÍN-LABORATORIO,Ctra   Nacional II (Margen Derecho) 38200,40.5241470336914,-3.291912317276,C1,http://www.crtm.es,0,,Europe/Madrid,0
par_8_19314,19314,EL ENCÍN-CENTRO DE INVESTIGACIÓN,Ctra   Nacional II (Margen Derecho) 38200,40.5219230651855,-3.29097008705139,C1,http://www.crtm.es,0,,Europe/Madrid,0
par_8_20225,20225,GRECIA-CHIPRE,Calle   Grecia 1,40.5444221496582,-3.3366870880127,C1,http://www.crtm.es,0,,Europe/Madrid,0
par_8_20226,20226,GRECIA-PºMAASTRICHT,Calle   Hungría 5,40.544059753418,-3.33732295036316,C1,http://www.crtm.es,0,,Europe/Madrid,0
par_8_20227,20227,AV.UNIÓN EUROPEA-LITUANIA,Avda   Unión Europea 34,40.5413246154785,-3.33553791046143,C1,http://www.crtm.es,0,,Europe/Madrid,0
par_8_20228,20228,AV.UNIÓN EUROPEA-LITUANIA,Ctra de Alcalá 5000,40.5410499572754,-3.33505249023438,C1,http://www.crtm.es,0,,Europe/Madrid,0
par_8_4770,4770,AV.AMERICA-HOTEL,Avda de América 41,40.4404029846191,-3.67024636268616,A,http://www.crtm.es,0,,Europe/Madrid,0
par_8_5617,5617,CANILLEJAS,Calle de Josefa Valcárcel 152,40.4494018554688,-3.60967421531677,A,http://www.crtm.es,0,,Europe/Madrid,0
est_90_4,4,Intercambiador de Avenida de América,Avda de América 9 A,40.43803,-3.67669,A,http://www.crtm.es,1,,Europe/Madrid,0
par_8_06939,06939,AV.CONSTITUCIÓN-JUNCAL,Avda   Constitución 203,40.4603424072266,-3.45937967300415,B2,http://www.crtm.es,0,,Europe/Madrid,2
par_8_06940,06940,AV.CONSTITUCIÓN-JUNCAL,Avda   Constitución 148 M,40.4603271484375,-3.45842432975769,B2,http://www.crtm.es,0,,Europe/Madrid,2
par_8_06941,06941,AV.CONSTITUCIÓN-BUDAPEST,Avda   Constitución 169,40.4593048095703,-3.46424388885498,B2,http://www.crtm.es,0,,Europe/Madrid,2
par_8_06942,06942,AV.CONSTITUCIÓN-BUDAPEST,Avda   Constitución 128,40.4593086242676,-3.46335935592651,B2,http://www.crtm.es,0,,Europe/Madrid,2
par_8_06946,06946,AV.CONSTITUCIÓN-CTRA.LOECHES,Avda  Constitución 86,40.456901550293,-3.47441744804382,B2,http://www.crtm.es,0,,Europe/Madrid,2
par_8_07212,07212,AV.CASTILLA-PQUE.EMP.SAN FERNANDO,Avda de Castilla 2,40.4524002075195,-3.51186466217041,B1,http://www.crtm.es,0,,Europe/Madrid,2
par_8_07215,07215,CTRA.M300-IBELSA,Ctra   M-300 (Margen Izquierdo) 29100,40.4709892272949,-3.41146397590637,B3,http://www.crtm.es,0,,Europe/Madrid,2
par_8_07216,07216,AV.MADRID-LIADE,Avda de Madrid 36,40.4787254333496,-3.38391613960266,B3,http://www.crtm.es,0,,Europe/Madrid,2
par_8_07226,07226,AV.EJÉRCITO-LIADE,Avda del Ejército 2,40.4787483215332,-3.38263010978699,B3,http://www.crtm.es,0,,Europe/Madrid,2
par_8_07227,07227,CTRA.M300-IBELSA,Ctra   M-300 (Margen Derecho) 27600,40.4712677001953,-3.41219711303711,B3,http://www.crtm.es,0,,Europe/Madrid,2
par_8_07228,07228,AV.CASTILLA-CUATRO MARES,Avda de Castilla 22,40.4534645080566,-3.50161242485046,B2,http://www.crtm.es,0,,Europe/Madrid,2
par_8_07229,07229,AV.CASTILLA-PICOS DE EUROPA,Avda de Castilla 38,40.4543914794922,-3.49283313751221,B2,http://www.crtm.es,0,,Europe/Madrid,2
par_8_07231,07231,AV.CONSTITUCIÓN-ROMA,Avda  Constitución 143,40.4578628540039,-3.47118067741394,B2,http://www.crtm.es,0,,Europe/Madrid,2
par_8_10072,10072,AV.CONSTITUCIÓN-LA ZARZUELA,Avda   Constitución 219,40.4628715515137,-3.44867515563965,B2,http://www.crtm.es,0,,Europe/Madrid,2
par_8_10073,10073,AV.CONSTITUCIÓN-AV.DESCUBRIMIENTOS,Avda   Constitución 186,40.4611854553223,-3.45517468452454,B2,http://www.crtm.es,0,,Europe/Madrid,2
par_8_10074,10074,AV.CONSTITUCIÓN-AV.DESCUBRIMIENTOS,Avda   Constitución 186,40.4609794616699,-3.45522046089172,B2,http://www.crtm.es,0,,Europe/Madrid,2
par_8_10075,10075,AV.CONSTITUCIÓN-LA ZARZUELA,Avda   Constitución 210,40.4627075195313,-3.44855618476868,B2,http://www.crtm.es,0,,Europe/Madrid,2
par_8_11262,11262,AV.EJÉRCITO-PUERTA DE MADRID,Avda del Ejército 1,40.4803123474121,-3.37520623207092,B3,http://www.crtm.es,0,,Europe/Madrid,2
par_8_11428,11428,AV.MADRID-POL.IND.JUNCAL,Ctra  M-300 (Margen Izquierdo) 28.700,40.4756507873535,-3.39562511444092,B3,http://www.crtm.es,0,,Europe/Madrid,2
par_8_12250,12250,VÍA COMPLUTENSE-COLEGIO,Calle   Vía Complutense 21,40.4844207763672,-3.36676931381226,B3,http://www.crtm.es,0,,Europe/Madrid,2
par_8_12261,12261,VÍA COMPLUTENSE-PINTOR PICASSO,Calle   Vía Complutense 21,40.4846000671387,-3.36677026748657,B3,http://www.crtm.es,0,,Europe/Madrid,2
par_8_12782,12782,VÍA COMPLUTENSE-BARRIO LEDESMA,Calle  Vía Complutense 111,40.4918746948242,-3.35139894485474,B3,http://www.crtm.es,0,,Europe/Madrid,2
par_8_12783,12783,VÍA COMPLUTENSE-BARRIO LEDESMA,Calle  Vía Complutense 118,40.4917106628418,-3.35115027427673,B3,http://www.crtm.es,0,,Europe/Madrid,2
par_8_12784,12784,VÍA COMPLUTENSE-TUY,Calle  Vía Complutense 103,40.4895095825195,-3.35506796836853,B3,http://www.crtm.es,0,,Europe/Madrid,2
par_8_12785,12785,VÍA COMPLUTENSE-TUY,Calle   Vía Complutense 78,40.4893569946289,-3.35486674308777,B3,http://www.crtm.es,0,,Europe/Madrid,2
par_8_15082,15082,AV.CONSTITUCIÓN-EST.TORREJÓN DE ARDOZ,Avda   Constitución 13,40.4556159973145,-3.48049402236938,B2,http://www.crtm.es,0,,Europe/Madrid,2
par_8_15442,15442,TERMINAL PZA.ESPAÑA-EST.TORREJÓN,Plaza   España 7,40.455924987793,-3.47989463806152,B2,http://www.crtm.es,0,,Europe/Madrid,2
par_8_17802,17802,AV.CASTILLA-SIERRA DE GATA,Avda de Castilla 10,40.452880859375,-3.50672650337219,B1,http://www.crtm.es,0,,Europe/Madrid,0
par_8_18655,18655,AV.CONSTITUCIÓN-PºCONCORDIA,Avda   Constitución 258,40.4656677246094,-3.4405312538147,B2,http://www.crtm.es,0,,Europe/Madrid,0
par_8_18656,18656,AV.CONSTITUCIÓN-PºCONCORDIA,Avda   Constitución 258,40.4661407470703,-3.43921327590942,B2,http://www.crtm.es,0,,Europe/Madrid,0
par_8_19416,19416,VÍA COMPLUTENSE-BRIHUEGA,Calle   Vía Complutense 51,40.4868621826172,-3.36057615280151,B3,http://www.crtm.es,0,,Europe/Madrid,0
par_8_19419,19419,VÍA COMPLUTENSE-RIBERA,Calle   Vía Complutense 46,40.486930847168,-3.35964441299438,B3,http://www.crtm.es,0,,Europe/Madrid,0
par_8_20087,20087,AV.MADRID-ANTONIO SUÁREZ,Avda de Madrid 44,40.4767855772218,-3.39270376753438,B3,http://www.crtm.es,0,,Europe/Madrid,0
par_8_21207,21207,AV.CONSTITUCIÓN-M.GORBACHOV,Avda   Constitución 268,40.4665908813477,-3.43683338165283,B2,http://www.crtm.es,0,,Europe/Madrid,0
par_8_21208,21208,AV.CONSTITUCIÓN-J.CARTER,Avda   Constitución 268,40.4667091369629,-3.4370584487915,B2,http://www.crtm.es,0,,Europe/Madrid,0
par_8_07440,07440,S.GUADARRAMA-PQUE EMP.SAN FERNANDO,Calle de la Sierra de Guadarrama 6,40.4490759788346,-3.50990186429227,B1,http://www.crtm.es,0,,Europe/Madrid,2
par_8_10896,10896,AV.CONSTITUCIÓN-ROMA,Avda   Constitución 151,40.4577369689941,-3.47060203552246,B2,http://www.crtm.es,0,,Europe/Madrid,2
par_8_11479,11479,CTRA.M115-POL.IND.LAS FUENTECILLAS,Ctra de Inta 200,40.4529530430096,-3.51324506210018,B1,http://www.crtm.es,0,,Europe/Madrid,2
par_8_11927,11927,AV.DESCUBRIMIENTOS-ORELLANA,Avda  Descubrimientos 6,40.4638175964355,-3.45317554473877,B2,http://www.crtm.es,0,,Europe/Madrid,2
par_8_11928,11928,HNOS.PINZÓN-LA ZARZUELA,Calle  Hermanos Pinzón 5 V,40.463695526123,-3.4491879940033,B2,http://www.crtm.es,0,,Europe/Madrid,2
par_8_16535,16535,SIERRA DE GATA-AV.CASTILLA,Calle de la Sierra de Gata 2,40.4526252746582,-3.50747919082642,B1,http://www.crtm.es,0,,Europe/Madrid,2
par_8_16536,16536,AV.CASTILLA-CUATRO MARES,Avda de Castilla 19,40.4537887573242,-3.50102519989014,B2,http://www.crtm.es,0,,Europe/Madrid,2
par_8_16537,16537,AV.CASTILLA-PICOS DE EUROPA,Avda de Castilla 45,40.4546394348145,-3.49190330505371,B2,http://www.crtm.es,0,,Europe/Madrid,2
par_8_18653,18653,MATEO INURRIA-HOSPITAL DE TORREJÓN,Calle   Mateo Inurria SN,40.4644966125488,-3.43514490127563,B2,http://www.crtm.es,0,,Europe/Madrid,0
par_8_18658,18658,AV.EDUARDO CHILLIDA-PºDEMOCRACIA,Paseo de la Democracia 17,40.4600105285645,-3.43995189666748,B2,http://www.crtm.es,0,,Europe/Madrid,0
par_8_18661,18661,HNOS.PINZÓN-LA ZARZUELA,Calle   Hermanos Pinzón SN,40.463695526123,-3.44956541061401,B2,http://www.crtm.es,0,,Europe/Madrid,0
par_8_18662,18662,AV.DESCUBRIMIENTOS-ORELLANA,Avda   Descubrimientos 6,40.4637260437012,-3.45285654067993,B2,http://www.crtm.es,0,,Europe/Madrid,0
par_8_19051,19051,AV.EDUARDO CHILLIDA-PºCONCORDIA,Avda   Eduardo Chillida 12,40.4616546630859,-3.43673086166382,B2,http://www.crtm.es,0,,Europe/Madrid,0
par_8_19052,19052,AV.EDUARDO CHILLIDA-PºCONCORDIA,Avda   Eduardo Chillida 12,40.4613761901855,-3.43656373023987,B2,http://www.crtm.es,0,,Europe/Madrid,0
par_8_19053,19053,PºDEMOCRACIA-AV.EDUARDO CHILLIDA,Paseo de la Democracia 17,40.4607582092285,-3.43987417221069,B2,http://www.crtm.es,0,,Europe/Madrid,0
par_8_19866,19866,PºDEMOCRACIA-EST.SOTO DEL HENARES,Paseo de la Democracia 1,40.4630088806152,-3.44116258621216,B2,http://www.crtm.es,0,,Europe/Madrid,0
par_8_19868,19868,PºDEMOCRACIA-EST.SOTO DEL HENARES,Paseo de la Democracia 17,40.4619979858398,-3.4416868686676,B2,http://www.crtm.es,0,,Europe/Madrid,0
par_8_20902,20902,AV.CONSTITUCIÓN-MAHATMA GANDHI,Avda   Constitución 229,40.4647560119629,-3.44341516494751,B2,http://www.crtm.es,0,,Europe/Madrid,0
par_8_20903,20903,AV.CONSTITUCIÓN-Pº DEMOCRACIA,Avda   Constitución 236,40.4644203186035,-3.44396734237671,B2,http://www.crtm.es,0,,Europe/Madrid,0
par_8_06923,06923,HILADOS-PARQUE CATALUÑA,Calle   Hilados 8,40.4477882385254,-3.46224236488342,B2,http://www.crtm.es,0,,Europe/Madrid,2
par_8_06929,06929,BRÚJULA-CENTRO DE SALUD,Calle   Brújula 4,40.4497947692871,-3.46069955825806,B2,http://www.crtm.es,0,,Europe/Madrid,2
par_8_06930,06930,SILICIO-BRÚJULA,Calle  Silicio 50,40.4487724304199,-3.45989060401917,B2,http://www.crtm.es,0,,Europe/Madrid,2
par_8_06931,06931,CIRCUNVALACIÓN-HIERRO,Calle   Circunvalación 20,40.4521102905273,-3.45836853981018,B2,http://www.crtm.es,0,,Europe/Madrid,2
par_8_06932,06932,CIRCUNVALACIÓN-HIERRO,Calle  Circunvalación 16,40.4520454406738,-3.45882797241211,B2,http://www.crtm.es,0,,Europe/Madrid,2
par_8_06935,06935,CIRCUNVALACIÓN-ABEDUL,Calle   Circunvalación 57,40.4543495178223,-3.45545887947083,B2,http://www.crtm.es,0,,Europe/Madrid,2
par_8_06936,06936,CIRCUNVALACIÓN-CEDRO,Calle   Circunvalación 60,40.454402923584,-3.45523524284363,B2,http://www.crtm.es,0,,Europe/Madrid,2
par_8_06937,06937,CIRCUNVALACIÓN-SOLANA,Calle   Circunvalación 74,40.4567985534668,-3.45594716072083,B2,http://www.crtm.es,0,,Europe/Madrid,2
par_8_06938,06938,CIRCUNVALACIÓN-SOLANA,Calle   Circunvalación 97,40.4567794799805,-3.4561710357666,B2,http://www.crtm.es,0,,Europe/Madrid,2
par_8_07429,07429,BRÚJULA-CENTRO DE SALUD,Calle  Brújula 1,40.4501991271973,-3.46116209030151,B2,http://www.crtm.es,0,,Europe/Madrid,2
par_8_10835,10835,CANTO-AV.CONSTITUCIÓN,Calle  Canto 5,40.4550590515137,-3.48402810096741,B2,http://www.crtm.es,0,,Europe/Madrid,2
par_8_11436,11436,CIRCUNVALACIÓN-POZO DE LAS NIEVES,Calle   Circunvalación 5,40.4492454528809,-3.46734690666199,B2,http://www.crtm.es,0,,Europe/Madrid,2
par_8_11929,11929,POZO DE LAS NIEVES-CIRCUNVALACIÓN,Calle  Pozo de las Nieves 4,40.4486351013184,-3.46733093261719,B2,http://www.crtm.es,0,,Europe/Madrid,2
par_8_15943,15943,CTRA.M206-PLAZA DE TOROS,Calle   Río 52,40.4486923217773,-3.47089266777039,B2,http://www.crtm.es,0,,Europe/Madrid,2
par_8_15944,15944,CTRA.M206-PLAZA DE TOROS,Avda   Luna 9100,40.4482841491699,-3.47156190872192,B2,http://www.crtm.es,0,,Europe/Madrid,2
par_8_16559,16559,AV.UNIÓN EUROPEA-CENTRO DE SALUD,Avda de la Unión Europea 5,40.4580879211426,-3.45254731178284,B2,http://www.crtm.es,0,,Europe/Madrid,2
par_8_16560,16560,AV.UNIÓN EUROPEA-CENTRO DE SALUD,Avda de la Unión Europea 4,40.4579010009766,-3.45238089561462,B2,http://www.crtm.es,0,,Europe/Madrid,2
par_8_17554,17554,AV.UNIÓN EUROPEA-DINAMARCA,Avda de la Unión Europea 13,40.4587478637695,-3.44959139823914,B2,http://www.crtm.es,0,,Europe/Madrid,2
par_8_17555,17555,AV.UNIÓN EUROPEA-DINAMARCA,Avda de la Unión Europea 14,40.4587898254395,-3.44865989685059,B2,http://www.crtm.es,0,,Europe/Madrid,2
par_8_18089,18089,SOLANA-CIRCUNVALACIÓN,Calle  Solana 53,40.457347869873,-3.45586824417114,B2,http://www.crtm.es,0,,Europe/Madrid,0
par_8_19054,19054,AV.JOAN MIRÓ-AV.CARMEN MARTÍN GAITE,Avda   Joan Miró 3,40.4586334228516,-3.44677186012268,B2,http://www.crtm.es,0,,Europe/Madrid,0
par_8_19055,19055,AV. JOAN MIRÓ-JUAN GRIS,Avda   Joan Miró 3,40.4584274291992,-3.44699454307556,B2,http://www.crtm.es,0,,Europe/Madrid,0
par_8_19169,19169,AV.JOAN MIRÓ-MARIANO BENLLIURE,Avda   Joan Miró 7,40.4571647644043,-3.44508719444275,B2,http://www.crtm.es,0,,Europe/Madrid,0
par_8_19170,19170,AV.JOAN MIRÓ-DULCE CHACÓN,Avda   Joan Miró 7,40.4572105407715,-3.44481635093689,B2,http://www.crtm.es,0,,Europe/Madrid,0
par_8_20350,20350,SILICIO-HILADOS,Calle   Silicio 32,40.4470443725586,-3.46206045150757,B2,http://www.crtm.es,0,,Europe/Madrid,0
par_8_20953,20953,AV.JOAN MIRÓ-SALVADOR DALÍ,Avda   Joan Miró 9,40.4558982849121,-3.44328618049622,B2,http://www.crtm.es,0,,Europe/Madrid,0
par_8_20954,20954,AV.JOAN MIRÓ-MONTSERRAT ROIG,Avda   Joan Miró 9,40.4560279846191,-3.44314551353455,B2,http://www.crtm.es,0,,Europe/Madrid,0
par_8_06888,06888,AV.MADRID-BUDAPEST,Avda   Madrid 33,40.4640235900879,-3.46271944046021,B2,http://www.crtm.es,0,,Europe/Madrid,2
par_8_06889,06889,AV.MADRID-BUDAPEST,Avda  Madrid 60,40.4639015197754,-3.46343803405762,B2,http://www.crtm.es,0,,Europe/Madrid,2
par_8_06890,06890,AV.MADRID-MILÁN,Avda  Madrid 40,40.4640350341797,-3.46645855903625,B2,http://www.crtm.es,0,,Europe/Madrid,2
par_8_06891,06891,AV.MADRID-MILÁN,Avda   Madrid 21,40.4641456604004,-3.46573972702026,B2,http://www.crtm.es,0,,Europe/Madrid,2
par_8_06892,06892,AV.MADRID-TURÍN,Avda   Madrid 2,40.4642448425293,-3.47208642959595,B2,http://www.crtm.es,0,,Europe/Madrid,2
par_8_06894,06894,AV.MADRID-TURÍN,Avda   Madrid 2,40.4644241333008,-3.47204041481018,B2,http://www.crtm.es,0,,Europe/Madrid,2
par_8_06901,06901,MADRID-COLEGIO,Calle  Madrid 3,40.4625473022461,-3.48002433776855,B2,http://www.crtm.es,0,,Europe/Madrid,2
par_8_06902,06902,MADRID-COLEGIO,Calle  Madrid 6,40.4624214172363,-3.47995257377625,B2,http://www.crtm.es,0,,Europe/Madrid,2
par_8_07235,07235,AV.MADRID-PARQUE LAS VEREDILLAS,Avda   Madrid 20,40.464183807373,-3.46977400779724,B2,http://www.crtm.es,0,,Europe/Madrid,2
par_8_09558,09558,AV.MADRID-CENTRO DE SALUD,Avda   Madrid 39,40.4638786315918,-3.45980501174927,B2,http://www.crtm.es,0,,Europe/Madrid,2
par_8_09559,09559,AV.MADRID-CENTRO DE SALUD,Avda   Madrid 66,40.463737487793,-3.45983934402466,B2,http://www.crtm.es,0,,Europe/Madrid,2
par_8_16533,16533,CTRA.BASE-AV.CONSTITUCIÓN,Ctra  Base 3,40.4610252380371,-3.45759153366089,B2,http://www.crtm.es,0,,Europe/Madrid,2
par_8_16538,16538,SAN FERNANDO-CAMPO DE FÚTBOL,Calle  San Fernando 1,40.4614677429199,-3.48768329620361,B2,http://www.crtm.es,0,,Europe/Madrid,2
par_8_18090,18090,SOLANA-CIRCUNVALACIÓN,Calle  Solana 53,40.4571838378906,-3.45564317703247,B2,http://www.crtm.es,0,,Europe/Madrid,0
par_8_19171,19171,CTRA.BASE-AV.MADRID,Ctra   Base 6,40.4617652893066,-3.45693612098694,B2,http://www.crtm.es,0,,Europe/Madrid,0
par_8_06960,06960,AV.DAGANZO-GTA.CHORRILLO,Avda   Daganzo 2 A,40.489917755127,-3.37517714500427,B3,http://www.crtm.es,0,,Europe/Madrid,2
par_8_06961,06961,AV.DAGANZO-GTA.DEL CHORRILLO,Avda  Daganzo SN,40.4888801574707,-3.37492346763611,B3,http://www.crtm.es,0,,Europe/Madrid,2
par_8_07060,07060,VILLAMALEA-RESIDENCIA DE MAYORES,Lugar  Residencia de Ancianos C.A.M. SN,40.5077285766602,-3.35739493370056,B3,http://www.crtm.es,0,,Europe/Madrid,2
par_8_11744,11744,AV.GUSTAVO A.BÉCQUER-PÍO BAROJA,Avda  Gustavo Adolfo Bécquer 1,40.5096282958984,-3.36425089836121,B3,http://www.crtm.es,0,,Europe/Madrid,2
par_8_11750,11750,VILLAMALEA-RESIDENCIA DE MAYORES,Calle   Villamalea 1,40.5074925601881,-3.35798196452137,B3,http://www.crtm.es,0,,Europe/Madrid,2
par_8_11789,11789,UNIV.ALCALÁ-HOSPITAL,Ctra de Meco 600,40.5087051391602,-3.34779238700867,B3,http://www.crtm.es,0,,Europe/Madrid,2
par_8_11790,11790,UNIV.ALCALÁ-HOSPITAL,Ctra de Meco 600,40.5085334777832,-3.34785032272339,B3,http://www.crtm.es,0,,Europe/Madrid,2
par_8_12258,12258,AV.BENITO PÉREZ GALDÓS-PÍO BAROJA,Avda   Benito Pérez Galdós 3,40.5054652240161,-3.36953757613395,B3,http://www.crtm.es,0,,Europe/Madrid,2
par_8_12259,12259,AV.BENITO PÉREZ GALDÓS-PZA.ALFONSO XII,Avda   Benito Pérez Galdós 3,40.5054397583008,-3.36957478523254,B3,http://www.crtm.es,0,,Europe/Madrid,2
par_8_12260,12260,AV.BENITO P.GALDÓS-LEOPOLDO ALAS CLARÍN,Avda   Benito Pérez Galdós 15,40.5094680786133,-3.36924266815186,B3,http://www.crtm.es,0,,Europe/Madrid,2
par_8_12357,12357,AV.BENITO P.GALDÓS-LEOPOLDO ALAS CLARÍN,Avda  Benito Pérez Galdós 15,40.5100985692352,-3.36866596173534,B3,http://www.crtm.es,0,,Europe/Madrid,2
par_8_12358,12358,VILLALBILLA-MERCADO,Calle  Villalbilla SN,40.491482340111,-3.37268225598101,B3,http://www.crtm.es,0,,Europe/Madrid,2
par_8_12360,12360,VILLALBILLA-MERCADO,Calle  Villalbilla SN,40.4915279544308,-3.37250550840613,B3,http://www.crtm.es,0,,Europe/Madrid,2
par_8_12433,12433,ALEJO CARPENTIER-MIGUEL DELIBES,Calle   Alejo Carpentier 23,40.4950236860822,-3.37241863518073,B3,http://www.crtm.es,0,,Europe/Madrid,2
par_8_12434,12434,ALEJO CARPENTIER-MIGUEL DELIBES,Calle   Alejo Carpentier 20,40.4948979060115,-3.37231173445361,B3,http://www.crtm.es,0,,Europe/Madrid,2
par_8_12681,12681,AV.JUAN CARLOS I-EST.LA GARENA,Avda   Juan Carlos I 16,40.4825057983398,-3.39548826217651,B3,http://www.crtm.es,0,,Europe/Madrid,2
par_8_12682,12682,AV.JUAN CARLOS I-EST.LA GARENA,Avda   Juan Carlos I 16,40.4823263513097,-3.39526090881321,B3,http://www.crtm.es,0,,Europe/Madrid,2
par_8_12683,12683,AV.JUAN CARLOS I-ALEJANDRO MALASPINA,Avda   Juan Carlos I 10,40.4838752746582,-3.39241695404053,B3,http://www.crtm.es,0,,Europe/Madrid,2
par_8_12684,12684,AV.JUAN CARLOS I-AGUSTÍN DE BETHENCOURT,Avda  Juan Carlos I 7,40.4833899016251,-3.39247088739168,B3,http://www.crtm.es,0,,Europe/Madrid,2
par_8_12685,12685,AV.JUAN CARLOS I-PZA.JESÚS GURIDI,Avda  Juan Carlos I 1,40.4857025146484,-3.38790845870972,B3,http://www.crtm.es,0,,Europe/Madrid,2
par_8_12686,12686,AV.JUAN CARLOS I-PZA.JESÚS GURIDI,Avda  Juan Carlos I 1,40.4855238332189,-3.38748056652483,B3,http://www.crtm.es,0,,Europe/Madrid,2
par_8_12687,12687,AV.EUROPA-FEDERICO CHUECA,Avda de Europa 4,40.4872093200684,-3.38447165489197,B3,http://www.crtm.es,0,,Europe/Madrid,2
par_8_12688,12688,AV.EUROPA-FEDERICO CHUECA,Avda de Europa 4,40.4870475446508,-3.38442153547764,B3,http://www.crtm.es,0,,Europe/Madrid,2
par_8_12694,12694,AV.JUAN CARLOS I-C.C.ALCALÁ DE HENARES,Avda   Juan Carlos I 24,40.4807777404785,-3.39980816841125,B3,http://www.crtm.es,0,,Europe/Madrid,2
par_8_12788,12788,AV.AJALVIR-AMADEO VIVES,Avda  Ajalvir 10,40.4894371032715,-3.37841939926147,B3,http://www.crtm.es,0,,Europe/Madrid,2
par_8_12789,12789,AV.AJALVIR-AMADEO VIVES,Avda  Ajalvir 10,40.4893476952886,-3.37808646927334,B3,http://www.crtm.es,0,,Europe/Madrid,2
par_8_13191,13191,JOSÉ MARÍA PEREDA-PZA.CARLOS ARNICHES,Calle   José María Pereda 26,40.4999656677246,-3.36547327041626,B3,http://www.crtm.es,0,,Europe/Madrid,2
par_8_13192,13192,JOSÉ MARÍA PEREDA-PZA.CARLOS ARNICHES,Calle  José María Pereda 31,40.4993438720703,-3.36544609069824,B3,http://www.crtm.es,0,,Europe/Madrid,2
par_8_15531,15531,UNIV.ALCALÁ-POLITÉCNICO,Ctra de Meco 1100,40.512939453125,-3.34694075584412,B3,http://www.crtm.es,0,,Europe/Madrid,2
par_8_15839,15839,HOSPITAL-ENTRADA PRINCIPAL,Ctra de Meco 900,40.5123710632324,-3.34814167022705,B3,http://www.crtm.es,0,,Europe/Madrid,2
par_8_19153,19153,HOSPITAL-URGENCIAS/EXTRACCIONES,Ctra de Meco 700,40.5101585388184,-3.34949946403503,B3,http://www.crtm.es,0,,Europe/Madrid,0
par_8_19154,19154,HOSPITAL-URGENCIAS/EXTRACCIONES,Ctra de Meco 700,40.5100593566895,-3.34916853904724,B3,http://www.crtm.es,0,,Europe/Madrid,0
par_8_20410,20410,AV.GUSTAVO ADOLFO BÉCQUER-PÍO BAROJA,Avda   Gustavo Adolfo Bécquer 1,40.5090522766113,-3.36309099197388,B3,http://www.crtm.es,0,,Europe/Madrid,0
par_8_20534,20534,VILLAMALEA-JUAN RAMÓN JIMÉNEZ,Calle   Villamalea 1,40.5074424743652,-3.35407662391663,B3,http://www.crtm.es,0,,Europe/Madrid,0
par_8_20535,20535,VILLAMALEA-JUAN RAMÓN JIMÉNEZ,Calle   Villamalea 1,40.5072273847703,-3.35340108751323,B3,http://www.crtm.es,0,,Europe/Madrid,0
par_8_06967,06967,RONDA FISCAL-PºLAS MORERAS,Calle   Ronda Fiscal 2,40.4749791307881,-3.36384934193945,B3,http://www.crtm.es,0,,Europe/Madrid,2
par_8_06968,06968,RONDA FISCAL-PºLAS MORERAS,Calle   Ronda Fiscal 2,40.4748148169348,-3.36453268506117,B3,http://www.crtm.es,0,,Europe/Madrid,2
par_8_07013,07013,AV.LOPE DE FIGUEROA-PZA.JUVENTUD,Avda  Lope de Figueroa 1,40.4828014801788,-3.35431121842382,B3,http://www.crtm.es,0,,Europe/Madrid,2
par_8_07014,07014,AV.LOPE DE FIGUEROA-PZA.JUVENTUD,Avda   Lope de Figueroa 2,40.4826583862305,-3.35404086112976,B3,http://www.crtm.es,0,,Europe/Madrid,2
par_8_07039,07039,AV.LOPE DE FIGUEROA-PZA.RGUEZ.DE HITA,Avda de Lope de Figueroa 16,40.4872198190134,-3.35005132683818,B3,http://www.crtm.es,0,,Europe/Madrid,2
par_8_09456,09456,AV.LOPE DE FIGUEROA-ÁVILA,Avda  Lope de Figueroa 54,40.4897026320092,-3.345273557025,B3,http://www.crtm.es,0,,Europe/Madrid,2
par_8_12352,12352,RONDA FISCAL-SAN VIDAL,Calle  Ronda Fiscal 15,40.4720001220703,-3.37198662757874,B3,http://www.crtm.es,0,,Europe/Madrid,2
par_8_12353,12353,RONDA FISCAL-RÍO ARLANZA,Calle   Ronda Fiscal 13,40.4719657897949,-3.37137293815613,B3,http://www.crtm.es,0,,Europe/Madrid,2
par_8_17584,17584,AV.LOPE DE FIGUEROA-FERNANDO FLANDES,Avda  Lope de Figueroa 53,40.4890373142007,-3.34783065270595,B3,http://www.crtm.es,0,,Europe/Madrid,2
par_8_20807,20807,AV.LOPE DE FIGUEROA-PZA.RGUEZ DE HITA,Avia de Lope de Figueroa 0,40.4873082972837,-3.35058275327867,B3,http://www.crtm.es,0,,Europe/Madrid,0
par_8_07022,07022,PºESTACIÓN-ZULOAGA,Paseo de la Estación 10,40.4878517978603,-3.36419023732577,B3,http://www.crtm.es,0,,Europe/Madrid,2
par_8_07026,07026,AV.GUADALAJARA-BRIHUEGA,Avda   Guadalajara 3,40.4860618458666,-3.36041666817334,B3,http://www.crtm.es,0,,Europe/Madrid,2
par_8_08998,08998,CTRA.M300-EL GURUGÚ,Ctra  M-300 (Alcalá-Loeches) 22.850,40.4511604309082,-3.34598588943481,C1,http://www.crtm.es,0,,Europe/Madrid,2
par_8_08999,08999,CTRA.M300-EL GURUGÚ,Ctra   M-300 (Alcalá-Loeches) 23.800,40.4520988464355,-3.34568405151367,C1,http://www.crtm.es,0,,Europe/Madrid,2
par_8_09672,09672,MALLORCA-CºSAN JUAN DEL VISO,Calle  Mallorca 1,40.4464950561523,-3.37106776237488,C1,http://www.crtm.es,0,,Europe/Madrid,2
par_8_09673,09673,AV.MADRID-LANZAROTE,Avda   Madrid sn,40.4526100158691,-3.37493419647217,C1,http://www.crtm.es,0,,Europe/Madrid,2
par_8_09675,09675,AV.SORIA-ZULEMA,Calle   Barcelona 2,40.4511528015137,-3.37176561355591,C1,http://www.crtm.es,0,,Europe/Madrid,2
par_8_10076,10076,CTRA.M300-CEMENTERIO JARDÍN,Ctra   Pastrana (Margen Derecho) 2,40.4630367846748,-3.36273513959868,B3,http://www.crtm.es,0,,Europe/Madrid,2
par_8_11499,11499,ESCOCIA-ALEMANIA,Calle  Escocia 60,40.4469566345215,-3.36490297317505,C1,http://www.crtm.es,0,,Europe/Madrid,2
par_8_11500,11500,AV.ESPAÑA-CENTRO COMERCIAL,Avda  España 1,40.4490432739258,-3.36641192436218,C1,http://www.crtm.es,0,,Europe/Madrid,2
par_8_11502,11502,AV.DINAMARCA-PEÑAS ALBAS,Avda   Dinamarca 6,40.4509544372559,-3.36916995048523,C1,http://www.crtm.es,0,,Europe/Madrid,2
par_8_12047,12047,CTRA.M300-URB.MARIBLANCA,Ctra   M-300 (Alcalá de Henares) 17400,40.4297027587891,-3.37405252456665,C1,http://www.crtm.es,0,,Europe/Madrid,2
par_8_12048,12048,CTRA.M300-URB.MARIBLANCA,Ctra  M-300 (Alcalá de Henares) SN,40.429313659668,-3.37443923950195,C1,http://www.crtm.es,0,,Europe/Madrid,2
par_8_12245,12245,MARCOS MARTÍNEZ-PºESTACIÓN,Calle   Marcos Martínez 2,40.4887418781351,-3.36476142529562,B3,http://www.crtm.es,0,,Europe/Madrid,2
par_8_12415,12415,PºPASTRANA-RÍO TER,Paseo de Pastrana 52,40.4675763705677,-3.36588545011802,B3,http://www.crtm.es,0,,Europe/Madrid,2
par_8_12416,12416,PºPASTRANA-BOLARQUE,Paseo de Pastrana 34,40.4709548950195,-3.36602354049683,B3,http://www.crtm.es,0,,Europe/Madrid,2
par_8_13007,13007,ESCOCIA-PEÑAS ALBAS,Calle   Escocia 63,40.4468421936035,-3.36465454101563,C1,http://www.crtm.es,0,,Europe/Madrid,2
par_8_13008,13008,AV.ESPAÑA-CENTRO COMERCIAL,Avda  España 1,40.4489898681641,-3.36631727218628,C1,http://www.crtm.es,0,,Europe/Madrid,2
par_8_13009,13009,AV.DINAMARCA-SUIZA,Avda   Dinamarca 3,40.4510612487793,-3.36919403076172,C1,http://www.crtm.es,0,,Europe/Madrid,2
par_8_13010,13010,ROMA-LONDRES,Calle   Roma 6,40.4098701477051,-3.37523913383484,C1,http://www.crtm.es,0,,Europe/Madrid,2
par_8_13011,13011,LONDRES-ROMA,Calle  Londres 5,40.4102210998535,-3.37550020217896,C1,http://www.crtm.es,0,,Europe/Madrid,2
par_8_13012,13012,ATENAS-MADRID,Calle  Atenas 1,40.4078102111816,-3.3720691204071,C1,http://www.crtm.es,0,,Europe/Madrid,2
par_8_17497,17497,CTRA.M300-PZA.RUBÉN DARÍO,Ctra   M-300 (Alcalá-Loeches) 19600,40.4462928771973,-3.36377906799316,C1,http://www.crtm.es,0,,Europe/Madrid,2
par_8_17498,17498,CTRA.M300-PZA.RUBÉN DARÍO,Ctra   M-300 (Alcalá-Loeches) 19600,40.4462051391602,-3.36338949203491,C1,http://www.crtm.es,0,,Europe/Madrid,2
par_8_17770,17770,AV.SORIA-ZULEMA,Avda   Soria 1,40.4514503479004,-3.37164926528931,C1,http://www.crtm.es,0,,Europe/Madrid,0
par_8_17772,17772,CºSAN JUAN DEL VISO-MALLORCA,Cmno de San Juan del Viso sn,40.4463424682617,-3.37130260467529,C1,http://www.crtm.es,0,,Europe/Madrid,0
par_8_18521,18521,BAÑOS DE SACEDÓN-EL VISO,Calle de Los Baños de Sacedón 2,40.4430351257324,-3.36909127235413,C1,http://www.crtm.es,0,,Europe/Madrid,0
par_8_18526,18526,BAÑOS DE SACEDÓN-EL VISO,Calle de  Los Baños de Sacedón 16,40.4432792663574,-3.3690927028656,C1,http://www.crtm.es,0,,Europe/Madrid,0
par_8_18593,18593,CTRA.M300-CEMENTERIO JARDÍN,Ctra   Pastrana (Margen Izquierdo) 23000,40.4630584716797,-3.3614513874054,B3,http://www.crtm.es,0,,Europe/Madrid,0
par_8_19174,19174,PºALAMEDA-AV. LOPE FIGUEROA,Paseo de la Alameda 21,40.4827276363,-3.35488895458637,B3,http://www.crtm.es,0,,Europe/Madrid,0
par_8_19944,19944,CTRA.M300-URB.LOS HUEROS,Calle   Joaquín Sorolla 12,40.4487648010254,-3.35498332977295,C1,http://www.crtm.es,0,,Europe/Madrid,0
par_8_20689,20689,Cº LA ISABELA-POLIDEPORTIVO EL VISO,Calle   Cº de la Isabela sn,40.443675994873,-3.36624121665955,C1,http://www.crtm.es,0,,Europe/Madrid,0
par_8_20690,20690,Cº LA ISABELA-POLIDEPORTIVO EL VISO,Calle   Cº de la Isabela sn,40.4439277648926,-3.36603021621704,C1,http://www.crtm.es,0,,Europe/Madrid,0
par_8_20691,20691,MARIANO J. DE LARRA-SUPERMERCADO,Calle   Mariano José de Larra 23,40.445240020752,-3.36086082458496,C1,http://www.crtm.es,0,,Europe/Madrid,0
par_8_20692,20692,MARIANO J. DE LARRA-SUPERMERCADO,Calle   Mariano José de Larra 29,40.445240020752,-3.36156821250916,C1,http://www.crtm.es,0,,Europe/Madrid,0
par_8_20694,20694,AV.M.DE CERVANTES-PARQUE DEL LAGO,Avda de Miguel de Cervantes 62,40.4433898925781,-3.35905838012695,C1,http://www.crtm.es,0,,Europe/Madrid,0
par_8_20696,20696,AV.M.DE CERVANTES-PARQUE DEL LAGO,Avda de Miguel de Cervantes 64,40.4430923461914,-3.35877394676209,C1,http://www.crtm.es,0,,Europe/Madrid,0
par_8_20697,20697,AAV.M.DE CERVANTES-RAMÓN G.DE LA SERNA,Avda de Miguel de Cervantes 74,40.4403038024902,-3.36053943634033,C1,http://www.crtm.es,0,,Europe/Madrid,0
par_8_20698,20698,AV.M.DE CERVANTES-RAMÓN G.DE LA SERNA,Avda de Miguel de Cervantes 74,40.4402160644531,-3.36027956008911,C1,http://www.crtm.es,0,,Europe/Madrid,0
par_8_20699,20699,AV.M.DE CERVANTES-GABRIEL G. MÁRQUEZ,Avda de Miguel de Cervantes 74,40.4379463195801,-3.3630383014679,C1,http://www.crtm.es,0,,Europe/Madrid,0
par_8_20700,20700,AV.M.DE CERVANTES-GABRIEL G. MÁRQUEZ,Avda de Miguel de Cervantes 74,40.4379272460938,-3.36272001266479,C1,http://www.crtm.es,0,,Europe/Madrid,0
par_8_20701,20701,GABRIEL G. MÁRQUEZ-AV.ANTIGUOS BAÑOS DE LA ISABELA,Calle   Gabriel García Márquez 21,40.4394378662109,-3.36635971069336,C1,http://www.crtm.es,0,,Europe/Madrid,0
par_8_20702,20702,GABRIEL G. MÁRQUEZ-AV.ANTIGUOS BAÑOS DE LA ISABELA,Calle   Gabriel García Márquez 21,40.4392318725586,-3.36642932891846,C1,http://www.crtm.es,0,,Europe/Madrid,0
par_8_20703,20703,AV.MADRID-CENTRO DE SALUD,Avda   Madrid 1,40.4504852294922,-3.37482810020447,C1,http://www.crtm.es,0,,Europe/Madrid,0
par_8_20704,20704,AV.ANTIGUOS BAÑOS ISABELA-CºJOSÉ DE CECA,Avda de los Antiguos Baños de la Isabela 42,40.438117980957,-3.36880493164063,C1,http://www.crtm.es,0,,Europe/Madrid,0
par_8_20705,20705,AV.ANTIGUOS BAÑOS ISABELA-GABRIEL MIRÓ,Avda de los Antiguos Baños de la Isabela 42,40.4380187988281,-3.36855673789978,C1,http://www.crtm.es,0,,Europe/Madrid,0
par_8_20766,20766,AV.MADRID-CENTRO DE SALUD,Avda   Madrid 1,40.450138092041,-3.37559270858765,C1,http://www.crtm.es,0,,Europe/Madrid,0
par_8_07042,07042,PEDRO SARMIENTO GAMBOA-LOPE DE RUEDA,Calle de Pedro Sarmiento de Gamboa 7,40.489990234375,-3.3604748249054,B3,http://www.crtm.es,0,,Europe/Madrid,2
par_8_07043,07043,PEDRO SARMIENTO GAMBOA-LOPE DE RUEDA,Calle de Pedro Sarmiento de Gamboa 12,40.4902076721191,-3.35995697975159,B3,http://www.crtm.es,0,,Europe/Madrid,2
par_8_07045,07045,FERRAZ-GOYA,Calle   Ferraz 4,40.4885924102298,-3.36359246722891,B3,http://www.crtm.es,0,,Europe/Madrid,2
par_8_07064,07064,AV.MECO-CLUB HÍPICO,Avda de Meco 16,40.5009736843778,-3.35094892736817,B3,http://www.crtm.es,0,,Europe/Madrid,2
par_8_07308,07308,VALVERDE DE ALCALÁ-CTRA.DE TORRES,Ctra   M-225 (Torres de la Alameda) 10800,40.417911529541,-3.29985690116882,C1,http://www.crtm.es,0,,Europe/Madrid,2
par_8_07395,07395,LOS HUEROS-MAYOR,Calle   Mayor 14,40.4418601989746,-3.35306024551392,C1,http://www.crtm.es,0,,Europe/Madrid,2
par_8_08994,08994,VILLALBILLA-PZA.QUIOSCO,Calle   Mondéjar 28,40.4334945678711,-3.30042147636414,C1,http://www.crtm.es,0,,Europe/Madrid,2
par_8_09003,09003,RDA.STA.SUSANA-MAYOR,Ronda   Santa Susana 1,40.4033317565918,-3.36066031455994,C1,http://www.crtm.es,0,,Europe/Madrid,2
par_8_09004,09004,ALAMEDA-BAÑOS,Calle de la Alameda 5700,40.4083290100098,-3.36357450485229,C1,http://www.crtm.es,0,,Europe/Madrid,2
par_8_09444,09444,VILLALBILLA-PZA.QUIOSCO,Calle   Alcalá 12,40.4330291748047,-3.29953503608704,C1,http://www.crtm.es,0,,Europe/Madrid,2
par_8_09530,09530,VALVERDE DE ALCALÁ-CTRA.DE TORRES,Ctra   M-225 (Torres de la Alameda) 10800,40.4180183410645,-3.2998104095459,C1,http://www.crtm.es,0,,Europe/Madrid,2
par_8_09666,09666,PºLOS POZOS-MADRID,Paseo de los Pozos 5,40.4067115783691,-3.36515688896179,C1,http://www.crtm.es,0,,Europe/Madrid,2
par_8_09667,09667,MADRID-REAL,Calle  Madrid 2,40.4078598022461,-3.36477422714233,C1,http://www.crtm.es,0,,Europe/Madrid,2
par_8_09668,09668,MADRID-REAL,Calle  Madrid 1,40.407787322998,-3.36460876464844,C1,http://www.crtm.es,0,,Europe/Madrid,2
par_8_09671,09671,LOS HUEROS-MAYOR,Calle   Mayor 21,40.4417419433594,-3.35327196121216,C1,http://www.crtm.es,0,,Europe/Madrid,2
par_8_10836,10836,PºLOS POZOS-CONCEPCIÓN,Paseo de los Pozos 9 B,40.4064254760742,-3.36521410942078,C1,http://www.crtm.es,0,,Europe/Madrid,2
par_8_11496,11496,MAYOR-URB.LA ALCAZABA,Calle   Arrayanes 1,40.4457855224609,-3.35085201263428,C1,http://www.crtm.es,0,,Europe/Madrid,2
par_8_11497,11497,MAYOR-URB.LA ALCAZABA,Calle   Mayor 53,40.4457206726074,-3.35125279426575,C1,http://www.crtm.es,0,,Europe/Madrid,2
par_8_11791,11791,PRISIÓN ALCALÁ MECO,Lugar   Prisión Alcalá-Meco SN,40.5224266052246,-3.3353374004364,B3,http://www.crtm.es,0,,Europe/Madrid,2
par_8_12678,12678,RDA.STA.SUSANA-MAYOR,Ronda   Santa Susana 3,40.4034652709961,-3.36084961891174,C1,http://www.crtm.es,0,,Europe/Madrid,2
par_8_15707,15707,MAYOR-RUBENS,Calle   Mayor 19600,40.4005012512207,-3.35798215866089,C1,http://www.crtm.es,0,,Europe/Madrid,2
par_8_15708,15708,MAYOR-SAUCES,Calle   Mayor 19700,40.4008522033691,-3.35834932327271,C1,http://www.crtm.es,0,,Europe/Madrid,2
par_8_16313,16313,PºLOS POZOS-ANTONIO MACHADO,Paseo de los Pozos 17900,40.4041328430176,-3.36336350440979,C1,http://www.crtm.es,0,,Europe/Madrid,2
par_8_16314,16314,PºLOS POZOS-VIENTO,Paseo de los Pozos 27,40.4043769836426,-3.36325860023499,C1,http://www.crtm.es,0,,Europe/Madrid,2
par_8_17217,17217,LOS HUEROS-J.EUSEBIO LÓPEZ SOLDADO,Calle  Juan Eusebio López Soldado 9,40.4430732727051,-3.35337328910828,C1,http://www.crtm.es,0,,Europe/Madrid,2
par_8_18524,18524,AV.ANT.BAÑOS ISABELA-PZA.G.GªMÁRQUEZ,Avda de los Antiguos Baños de la Isabela 42,40.4401321411133,-3.36628079414368,C1,http://www.crtm.es,0,,Europe/Madrid,0
par_8_18525,18525,BAÑOS DE SACEDÓN-MIGUEL UNAMUNO,Calle   Dámaso Alonso 38,40.442066192627,-3.36534810066223,C1,http://www.crtm.es,0,,Europe/Madrid,0
par_8_07048,07048,AV.MECO-PABELLÓN POLIDEPORTIVO,Avda de Meco 7,40.4949607849121,-3.35543894767761,B3,http://www.crtm.es,0,,Europe/Madrid,2
par_8_07049,07049,AV.MECO-PABELLÓN POLIDEPORTIVO,Avda de Meco 6,40.495475769043,-3.35475730895996,B3,http://www.crtm.es,0,,Europe/Madrid,2
par_8_07063,07063,AV.MECO-CENTRO DEPORTIVO MILITAR,Rtda   Brigada Paracaidista 1,40.5018501281738,-3.35012912750244,B3,http://www.crtm.es,0,,Europe/Madrid,2
par_8_07066,07066,SEVERO OCHOA-BARBERÁN Y COLLAR,Calle   Severo Ochoa SN,40.5023365463435,-3.35011809569364,B3,http://www.crtm.es,0,,Europe/Madrid,2
par_8_07074,07074,CTRA.M121-MINISTERIO EDUCACIÓN,Ctra de Meco SN,40.5213890075684,-3.34520149230957,B3,http://www.crtm.es,0,,Europe/Madrid,2
par_8_10060,10060,AV.CERVANTES-CºVALDEAVERO,Avda   Cervantes 15 B,40.5579109191895,-3.32944321632385,C1,http://www.crtm.es,0,,Europe/Madrid,2
par_8_11788,11788,CTRA.M121-BIBLIOTECA NACIONAL,Ctra de Meco 1.800,40.5189743041992,-3.34766817092896,B3,http://www.crtm.es,0,,Europe/Madrid,2
par_8_12313,12313,AV.CERVANTES-CºVALDEAVERO,Avda   Cervantes 18,40.5578842163086,-3.32900595664978,C1,http://www.crtm.es,0,,Europe/Madrid,2
par_8_16430,16430,AV.CERVANTES-CºCARREVILLAR,Avda   Cervantes 7 C,40.5570411682129,-3.331387758255,C1,http://www.crtm.es,0,,Europe/Madrid,2
par_8_16431,16431,AV.CERVANTES-VALLE INCLÁN,Avda   Cervantes 7 A,40.5569686889648,-3.33167099952698,C1,http://www.crtm.es,0,,Europe/Madrid,2
par_8_16432,16432,AV.CERVANTES-QUEVEDO,Avda   Cervantes 50,40.5571441650391,-3.32597875595093,C1,http://www.crtm.es,0,,Europe/Madrid,2
par_8_16433,16433,AV.CERVANTES-CºBUJES,Avda   Cervantes 47,40.557300567627,-3.32599115371704,C1,http://www.crtm.es,0,,Europe/Madrid,2
par_8_16434,16434,AV.INDUSTRIA-VALDELACUEVA,Avda de la Industria 15,40.5538558959961,-3.32069492340088,C1,http://www.crtm.es,0,,Europe/Madrid,2
par_8_16436,16436,AV.INDUSTRIA-RÍO MANZANARES,Avda de la Industria 15,40.5538635253906,-3.3205885887146,C1,http://www.crtm.es,0,,Europe/Madrid,2
par_8_19151,19151,HOSPITAL-RESIDENCIAS UNIVERSITARIAS,Ctra de Meco 600,40.5078675580794,-3.34727876177585,B3,http://www.crtm.es,0,,Europe/Madrid,0
par_8_19152,19152,HOSPITAL-RESIDENCIAS UNIVERSITARIAS,Ctra de Meco 600,40.5079154968262,-3.34692668914795,B3,http://www.crtm.es,0,,Europe/Madrid,0
par_8_20667,20667,AV.GUADALAJARA-DIVINO VALLÉS,Avda   Guadalajara 10,40.4859275817871,-3.36012268066406,B3,http://www.crtm.es,0,,Europe/Madrid,0
par_8_20675,20675,AV.UNIÓN EUROPEA-FRANCIA,Avda   Unión Europea 2,40.554515838623,-3.33520221710205,C1,http://www.crtm.es,0,,Europe/Madrid,0
par_8_20676,20676,AV.UNIÓN EUROPEA-FRANCIA,Avda   Unión Europea 1,40.5544891357422,-3.33488321304321,C1,http://www.crtm.es,0,,Europe/Madrid,0
par_8_20677,20677,AV.UNIÓN EUROPEA-CTRA.CAMARMA,Avda   Unión Europea 34,40.5524253845215,-3.33812093734741,C1,http://www.crtm.es,0,,Europe/Madrid,0
par_8_20678,20678,AV.UNIÓN EUROPEA-CTRA.CAMARMA,Avda   Unión Europea 34,40.5520286560059,-3.33805990219116,C1,http://www.crtm.es,0,,Europe/Madrid,0
par_8_20786,20786,CTRA.CAMARMA-POLIDEPORTIVO VILLA DE MECO,Ctra de Camarma 2,40.5518531799316,-3.33029937744141,C1,http://www.crtm.es,0,,Europe/Madrid,0
par_8_07403,07403,DAGANZO DE ARRIBA-GTA.ALCALÁ,Ctra   Ajalvir 10600,40.5430908203125,-3.45925974845886,B3,http://www.crtm.es,0,,Europe/Madrid,2
par_8_07404,07404,DAGANZO DE ARRIBA-GTA.ALCALÁ,Ctra   Ajalvir 10600,40.5429992675781,-3.45912909507751,B3,http://www.crtm.es,0,,Europe/Madrid,2
par_8_09393,09393,TERMINAL AV.FRONTERAS,Avda   Fronteras 2 B,40.456470489502,-3.4830002784729,B2,http://www.crtm.es,0,,Europe/Madrid,2
par_8_09532,09532,CTRA.AJALVIR-POL.IND.GITESA,Ctra   Ajalvir 10100,40.541202545166,-3.46453714370728,B3,http://www.crtm.es,0,,Europe/Madrid,2
par_8_09533,09533,CTRA.AJALVIR-POL.IND.GITESA,Ctra   Ajalvir 10000,40.5411109924316,-3.46535134315491,B3,http://www.crtm.es,0,,Europe/Madrid,2
par_8_09650,09650,CTRA.M113-JARDÍN DE SERRACINES,Ctra   M-113 (Ajalvir-Ribatejada) 22000,40.6327476501465,-3.39827728271484,C1,http://www.crtm.es,0,,Europe/Madrid,2
par_8_09651,09651,CTRA.M113-URB.LOS OLMOS,Ctra   M-113 (Ajalvir-Ribatejada) 3,40.6267280578613,-3.40094923973084,C1,http://www.crtm.es,0,,Europe/Madrid,2
par_8_09652,09652,CTRA.M113-URB.SERRACINES I,Ctra   M-113 (Ajalvir-Ribatejada) 20700,40.6222190856934,-3.4029438495636,C1,http://www.crtm.es,0,,Europe/Madrid,2
par_8_09653,09653,CTRA.M113-FRESNO DE TOROTE,Ctra   M-113 (Ajalvir-Ribatejada) 17200,40.5922203063965,-3.41248989105225,C1,http://www.crtm.es,0,,Europe/Madrid,2
par_8_09654,09654,CTRA.M113-URB.SERRACINES I,Ctra   M-113 (Ajalvir-Ribatejada) 60,40.6228218078613,-3.40246295928955,C1,http://www.crtm.es,0,,Europe/Madrid,2
par_8_09793,09793,RIBATEJADA-CONCEPCIÓN,Calle de la Concepción 1,40.666316986084,-3.39191079139709,C1,http://www.crtm.es,0,,Europe/Madrid,2
par_8_09794,09794,CTRA.M113-URB.PARAJE DEL ARZOBISPO,Ctra de Ribatejada-Casar de Talamanca 22800,40.639518737793,-3.39642524719238,C1,http://www.crtm.es,0,,Europe/Madrid,2
par_8_09802,09802,VALDEAVERO-FRAGUA,Calle de la Fragua 41,40.6318130493164,-3.33547019958496,C1,http://www.crtm.es,0,,Europe/Madrid,2
par_8_10059,10059,ANTONIO MOYA-CTRA.VALDEAVERO,Calle de Antonio Moya 12,40.5495376586914,-3.38077712059021,C1,http://www.crtm.es,0,,Europe/Madrid,2
par_8_10064,10064,ANTONIO MOYA-CTRA.VALDEAVERO,Calle de Antonio Moya 15,40.5494728088379,-3.38091850280762,C1,http://www.crtm.es,0,,Europe/Madrid,2
par_8_10066,10066,LUIS ASTRANA MARÍN-PARQUE O´DONNELL,Calle  Luis Astrana Marín 10,40.4849853515625,-3.36984014511108,B3,http://www.crtm.es,0,,Europe/Madrid,2
par_8_10067,10067,AV.COMPLUTENSE-ENRIQUE MOYA,Avda de la Complutense 26,40.5576858520508,-3.37671279907227,C1,http://www.crtm.es,0,,Europe/Madrid,2
par_8_10068,10068,CTRA.M119-URB.LA CARDOSA,Avda la Cardosa 2,40.6211051940918,-3.34524154663086,C1,http://www.crtm.es,0,,Europe/Madrid,2
par_8_10098,10098,ANTIGUA.M114-POL.IND.LOS OLIVOS,Ctra de Torrejón 800,40.5273132324219,-3.4813597202301,B2,http://www.crtm.es,0,,Europe/Madrid,2
par_8_10198,10198,CAMARMA DE ESTERUELAS-AYUNTAMIENTO,Plaza del Paseo 19,40.5488166809082,-3.37756061553955,C1,http://www.crtm.es,0,,Europe/Madrid,2
par_8_10253,10253,CTRA.M114-POL.IND.JUAN Y ANTONIO,Ctra de Torrejón 300,40.5228309631348,-3.48124504089355,B2,http://www.crtm.es,0,,Europe/Madrid,2
par_8_10405,10405,CºALCALÁ-PARQUE,Cmno de Alcalá 46,40.5467910766602,-3.37694692611694,C1,http://www.crtm.es,0,,Europe/Madrid,2
par_8_10415,10415,CTRA.M113-URB.PARAJE DEL ARZOBISPO,Ctra de Ribatejada-Casar de Talamanca 22800,40.6397552490234,-3.39600110054016,C1,http://www.crtm.es,0,,Europe/Madrid,2
par_8_10416,10416,CTRA.M113-JARDIN DE SERRACINES,Ctra  M-113 (Ajalvir-Ribatejada) 2,40.6317176818848,-3.39840126037598,C1,http://www.crtm.es,0,,Europe/Madrid,2
par_8_10417,10417,CTRA.M113-URB.SERRACINES II,Ctra   M-113 (Ajalvir-Ribatejada) 32,40.6261444091797,-3.4009575843811,C1,http://www.crtm.es,0,,Europe/Madrid,2
par_8_10419,10419,CTRA.M113-FRESNO DE TOROTE,Ctra   M-113 (Ajalvir-Ribatejada) 17300,40.5926170349121,-3.41214966773987,C1,http://www.crtm.es,0,,Europe/Madrid,2
par_8_10822,10822,GRAN VÍA-POL.IND.ALCAMAR,Calle  Gran Vía 11,40.5428276062012,-3.38027858734131,C1,http://www.crtm.es,0,,Europe/Madrid,2
par_8_10823,10823,CºALCALÁ-PARQUE,Cmno de Alcalá 44,40.5469741821289,-3.37700700759888,C1,http://www.crtm.es,0,,Europe/Madrid,2
par_8_10825,10825,CTRA.M119-URB.EL PRACTICANTE,Calle del Ruiseñor 1,40.5950660705566,-3.36129856109619,C1,http://www.crtm.es,0,,Europe/Madrid,2
par_8_10830,10830,CTRA.M114-POL.IND.EL CABRIL,Ctra de Torrejón 400,40.5243263244629,-3.48097252845764,B2,http://www.crtm.es,0,,Europe/Madrid,2
par_8_11029,11029,CAMARMA DE ESTERUELAS-AYUNTAMIENTO,Plaza del Paseo 1,40.548755645752,-3.37771368026733,C1,http://www.crtm.es,0,,Europe/Madrid,2
par_8_11414,11414,GRAN VÍA-POL.IND.ALCAMAR,Calle  Gran Vía 11,40.5428009033203,-3.3800892829895,C1,http://www.crtm.es,0,,Europe/Madrid,2
par_8_11415,11415,CTRA.M119-POL.IND.ALCAMAR,Ctra de Alcalá SN,40.5358238220215,-3.38128972053528,C1,http://www.crtm.es,0,,Europe/Madrid,2
par_8_11416,11416,CTRA.M119-POL.IND.ALCAMAR,Ctra de Alcalá 4000,40.5355262756348,-3.38152432441711,C1,http://www.crtm.es,0,,Europe/Madrid,2
par_8_11429,11429,AV.DOCTOR MARAÑON-SANTORCAZ,Avda   Doctor Marañón 7,40.4935111999512,-3.37793493270874,B3,http://www.crtm.es,0,,Europe/Madrid,2
par_8_11430,11430,AV.DOCTOR MARAÑÓN-NUEVO BAZTÁN,Avda   Doctor Marañón 8,40.4925651550293,-3.37757563591003,B3,http://www.crtm.es,0,,Europe/Madrid,2
par_8_12314,12314,ANTIGUA M114-POL.IND.LOS TRES,Ctra de Torrejón 17,40.5268821716309,-3.48114418983459,B2,http://www.crtm.es,0,,Europe/Madrid,2
par_8_12419,12419,CTRA.M113-URB.EL PARAISO,Ctra de Ajalvir 13,40.6705856323242,-3.38943934440613,C1,http://www.crtm.es,0,,Europe/Madrid,2
par_8_12420,12420,CTRA.M113-URB.EL PARAISO,Calle los Cerrillos 1,40.670768737793,-3.38919186592102,C1,http://www.crtm.es,0,,Europe/Madrid,2
par_8_12628,12628,NIÑO-PZA.MESÓN DE LA FUENTE,Calle del Niño 1,40.544994354248,-3.45562362670898,B3,http://www.crtm.es,0,,Europe/Madrid,2
par_8_12655,12655,LUIS ASTRANA MARÍN-ANDRÉS LLORENTE,Calle   Luis Astrana Marín 12,40.4855079650879,-3.37020874023438,B3,http://www.crtm.es,0,,Europe/Madrid,2
par_8_12753,12753,URB.NUEVO CAMARMA-AV.COMPLUTENSE,Avda de la Complutense 52,40.5604629516602,-3.37540531158447,C1,http://www.crtm.es,0,,Europe/Madrid,2
par_8_12754,12754,URB.NUEVO CAMARMA-AV.COMPLUTENSE,Avda de la Complutense 54,40.5605926513672,-3.37521696090698,C1,http://www.crtm.es,0,,Europe/Madrid,2
par_8_12793,12793,AV.COMPLUTENSE-ENRIQUE MOYA,Avda de la Complutense 30,40.558406829834,-3.37645697593689,C1,http://www.crtm.es,0,,Europe/Madrid,2
par_8_12794,12794,CTRA.VALDEAVERO-URB.EL COTO,Ctra de Valdeavero 5900,40.5533332824707,-3.37926316261292,C1,http://www.crtm.es,0,,Europe/Madrid,2
par_8_12795,12795,CTRA.VALDEAVERO-URB.EL COTO,Ctra de Valdeavero 9,40.553279876709,-3.37896752357483,C1,http://www.crtm.es,0,,Europe/Madrid,2
par_8_15549,15549,CTRA.FRESNO-CºDEL CEMENTERIO,Ctra a Fresno 10900,40.5445213317871,-3.45505356788635,B3,http://www.crtm.es,0,,Europe/Madrid,2
par_8_15550,15550,AV.CONDE DE CORUÑA-VALDIDUEÑAS,Avda del Conde de Coruña 89,40.5467758178711,-3.45921397209167,B3,http://www.crtm.es,0,,Europe/Madrid,2
par_8_15551,15551,CTRA.COBEÑA-HNOS.ÁLVAREZ QUINTERO,Ctra   Cobeña 4400,40.5441780090332,-3.46177077293396,B3,http://www.crtm.es,0,,Europe/Madrid,2
par_8_15787,15787,AV.CASTILLOS-CASTILLO PEÑAFIEL,Avda  Castillas SN,40.6819343566895,-3.37362456321716,E1,http://www.crtm.es,0,,Europe/Madrid,2
par_8_15788,15788,AV.CASTILLOS-CASTILLO PEÑAFIEL,Avda  Castilla SN,40.6817932128906,-3.37350535392761,E1,http://www.crtm.es,0,,Europe/Madrid,2
par_8_15790,15790,AV.GUADALAJARA-JADRAQUE,Avda de Guadalajara SN,40.688835144043,-3.37165117263794,E1,http://www.crtm.es,0,,Europe/Madrid,2
par_8_15794,15794,AV.GUADALAJARA-RÍO TAJUÑA,Avda de Guadalajara sn,40.6905822753906,-3.36851263046265,E1,http://www.crtm.es,0,,Europe/Madrid,2
par_8_15795,15795,AV.GUADALAJARA-RÍO TAJUÑA,Avda  Guadalajara SN,40.6906890869141,-3.36856079101563,E1,http://www.crtm.es,0,,Europe/Madrid,2
par_8_15796,15796,GTA.RIO JUCAR-CLUB SOCIAL,Gta  Río Júcar sn,40.6905326843262,-3.36399149894714,E1,http://www.crtm.es,0,,Europe/Madrid,2
par_8_15841,15841,AV.GUADALAJARA-JADRAQUE,Avda  Guadalajara SN,40.688850402832,-3.37153291702271,E1,http://www.crtm.es,0,,Europe/Madrid,2
par_8_15842,15842,CTRA.ALCALÁ-TORREJÓN DEL REY,Ctra  Alcalá 0,40.6461524963379,-3.33842778205872,E1,http://www.crtm.es,0,,Europe/Madrid,2
par_8_17273,17273,AV.CIRCUNVALACIÓN-AV.LAS LOMAS,Avda   Circunvalación 7,40.5529708862305,-3.4594452381134,B3,http://www.crtm.es,0,,Europe/Madrid,2
par_8_17274,17274,VALDIDUEÑAS-PARQUE LOMAS ALTAS,Calle   Valdidueñas 40,40.5498809814453,-3.4599084854126,B3,http://www.crtm.es,0,,Europe/Madrid,2
par_8_18827,18827,CTRA.ALCALÁ-TORREJÓN DEL REY,Ctra  Alcalá SN,40.6462707519531,-3.33829832077026,E1,http://www.crtm.es,0,,Europe/Madrid,0
par_8_18856,18856,CTRA.N320-URB.PARQUE DE LAS CASTILLAS,N320 SN,40.6836280822754,-3.37904214859009,E1,http://www.crtm.es,0,,Europe/Madrid,0
par_8_18857,18857,CTRA.N320-URB.PARQUE DE LAS CASTILLAS,Ctra  N-320 SN,40.6837921142578,-3.37879467010498,E1,http://www.crtm.es,0,,Europe/Madrid,0
par_8_19258,19258,CTRA.ALCALÁ-URB.DE LAS ERAS,Ctra DE ALCALÁ A TORREJÓN SN,40.6414184570313,-3.3377890586853,E1,http://www.crtm.es,0,,Europe/Madrid,0
par_8_19259,19259,CTRA.ALCALÁ-URB.DE LAS ERAS,Ctra de Alacalá SN,40.641487121582,-3.33812046051025,E1,http://www.crtm.es,0,,Europe/Madrid,0
par_8_19353,19353,PRINCIPAL-PALOMA,Calle   Principal 11,40.6345367431641,-3.40375113487244,C1,http://www.crtm.es,0,,Europe/Madrid,0
par_8_19354,19354,PRINCIPAL-PALOMA,Calle   Principal 11,40.6343765258789,-3.40356111526489,C1,http://www.crtm.es,0,,Europe/Madrid,0
par_8_19355,19355,PRINCIPAL Nº38,Calle   Principal 36,40.6363792419434,-3.40838599205017,C1,http://www.crtm.es,0,,Europe/Madrid,0
par_8_19356,19356,PRINCIPAL Nº25,Calle   Principal 23,40.6362609863281,-3.40831446647644,C1,http://www.crtm.es,0,,Europe/Madrid,0
par_8_19357,19357,PRINCIPAL-ZORZALES,Calle   Principal 58,40.6392440795898,-3.41546368598938,C1,http://www.crtm.es,0,,Europe/Madrid,0
par_8_19358,19358,PRINCIPAL-ZORZALES,Calle   Principal 60,40.6392097473145,-3.41557002067566,C1,http://www.crtm.es,0,,Europe/Madrid,0
par_8_19359,19359,ZORZALES-GOLONDRINAS,Calle del Zorzales 15,40.6422920227051,-3.41470217704773,C1,http://www.crtm.es,0,,Europe/Madrid,0
par_8_19360,19360,ZORZALES-GOLONDRINAS,Calle del Zorzales 18,40.6419219970703,-3.41509008407593,C1,http://www.crtm.es,0,,Europe/Madrid,0
par_8_19361,19361,LEÓN-CÓRDOBA,Calle   León 18,40.6446876525879,-3.41199660301209,C1,http://www.crtm.es,0,,Europe/Madrid,0
par_8_19362,19362,LEÓN-CÓRDOBA,Calle   León 20,40.6446266174316,-3.4121618270874,C1,http://www.crtm.es,0,,Europe/Madrid,0
par_8_19363,19363,LEÓN-AV.PRINCIPAL,Calle   León 5,40.6472473144531,-3.41003727912903,C1,http://www.crtm.es,0,,Europe/Madrid,0
par_8_19364,19364,LEÓN-AV.PRINCIPAL,Calle   León 2,40.6474800109863,-3.40995573997498,C1,http://www.crtm.es,0,,Europe/Madrid,0
par_8_19365,19365,AV.PRINCIPAL-SALAMANCA,Avda   Principal 7,40.646240234375,-3.40651822090149,C1,http://www.crtm.es,0,,Europe/Madrid,0
par_8_19366,19366,AV.PRINCIPAL-CUENCA,Avda   Principal 7,40.646312713623,-3.4064359664917,C1,http://www.crtm.es,0,,Europe/Madrid,0
par_8_19367,19367,AV.PRINCIPAL-MADRID,Avda   Principal 1,40.6448631286621,-3.40349411964417,C1,http://www.crtm.es,0,,Europe/Madrid,0
par_8_19368,19368,AV.PRINCIPAL-MADRID,Avda   Principal 1,40.6450462341309,-3.4030339717865,C1,http://www.crtm.es,0,,Europe/Madrid,0
par_8_19388,19388,PRINCIPAL-SISONES,Calle   Principal 39,40.6378173828125,-3.41195440292358,C1,http://www.crtm.es,0,,Europe/Madrid,0
par_8_19389,19389,PRINCIPAL-SISONES,Calle   Principal 39,40.6377334594727,-3.41195392608643,C1,http://www.crtm.es,0,,Europe/Madrid,0
par_8_20261,20261,CºFRESNO DE TOROTE-ORIENTE,Cmno del Fresno de Torote 6,40.5482597351074,-3.45518517494202,B3,http://www.crtm.es,0,,Europe/Madrid,0
par_8_20262,20262,AV.CIRCUNVALACIÓN-ORIENTE,Avda   Circunvalación SN A,40.5530052185059,-3.45591402053833,B3,http://www.crtm.es,0,,Europe/Madrid,0
par_8_20365,20365,JOSÉ LUIS GARCI-CARMEN AMAYA,Calle   José Luis Garci 6 A,40.552188873291,-3.44995594024658,B3,http://www.crtm.es,0,,Europe/Madrid,0
par_8_20812,20812,HENARES-POL.IND.LA RAYA,Calle   Henares 1,40.5297737121582,-3.3850691318512,C1,http://www.crtm.es,0,,Europe/Madrid,0
par_8_20813,20813,HENARES-POL.IND.LA RAYA,Calle   Henares 1,40.5296669006348,-3.38487958908081,C1,http://www.crtm.es,0,,Europe/Madrid,0
par_8_09531,09531,CTRA.M118-POL.IND.LOS FRAILES,Calle de los Frailes 133 B,40.5392379760742,-3.44433116912842,B3,http://www.crtm.es,0,,Europe/Madrid,2
par_8_10080,10080,CTRA.M118-EL GLOBO,Ctra   Daganzo (Margen Izquierdo) 47,40.5380020141602,-3.43818259239197,B3,http://www.crtm.es,0,,Europe/Madrid,2
par_8_10086,10086,CTRA.M118-EL GLOBO,Ctra   Daganzo (Margen Izquierdo) 47,40.5378189086914,-3.43812227249146,B3,http://www.crtm.es,0,,Europe/Madrid,2
par_8_16727,16727,CTRA.M118-SALVADOR DALÍ,Ctra   Alcalá (M-118) 3800,40.5419464111328,-3.45432758331299,B3,http://www.crtm.es,0,,Europe/Madrid,2
par_8_16728,16728,CTRA.M118-SALVADOR DALÍ,Ctra   Alcalá (M-118) 3800,40.5417594909668,-3.45431447029114,B3,http://www.crtm.es,0,,Europe/Madrid,2
par_8_18334,18334,CTRA.M100-POL.IND.CAMPORROSO,Ctra   Daganzo (Margen Derecho) 100,40.5135917663574,-3.40498423576355,B3,http://www.crtm.es,0,,Europe/Madrid,0
par_8_18335,18335,CTRA.M100-POL.IND.CAMPORROSO,Bulev de Buenos Aires 2,40.512956591211,-3.40565095303001,B3,http://www.crtm.es,0,,Europe/Madrid,0
par_8_09541,09541,VALDEOLMOS-PZA.NACIONAL,Plaza   Nacional 1,40.6384162902832,-3.45364451408386,C1,http://www.crtm.es,0,,Europe/Madrid,2
par_8_09542,09542,AV.PAZ-URB.MIRAVAL,Avda de la Paz 22,40.6159553527832,-3.47202944755554,C1,http://www.crtm.es,0,,Europe/Madrid,2
par_8_10023,10023,ALALPARDO-CARLOS MARTÍN ÁLVAREZ,Calle del Pilar 19,40.6294288635254,-3.47519874572754,C1,http://www.crtm.es,0,,Europe/Madrid,2
par_8_10024,10024,CTRA.M123-URB.EL RETORNO,Ctra de Algete-Casar de Talamanca 5700,40.6322250366211,-3.46799349784851,C1,http://www.crtm.es,0,,Europe/Madrid,2
par_8_10083,10083,COBEÑA-CTRA.ALCALÁ,Ctra   M-118 (Alcalá-Torrelaguna) 9200,40.567081451416,-3.5018572807312,B3,http://www.crtm.es,0,,Europe/Madrid,2
par_8_10551,10551,CTRA.M123-URB.EL RETORNO,Ctra de Algete-Casar de Talamanca 5700,40.6322059631348,-3.46762681007385,C1,http://www.crtm.es,0,,Europe/Madrid,2
par_8_11701,11701,VALDEOLMOS-PZA.NACIONAL,Calle   Subida a la Iglesia 6,40.638355255127,-3.45344305038452,C1,http://www.crtm.es,0,,Europe/Madrid,2
par_8_11948,11948,CTRA.M103-POLIDEPORTIVO,Ctra   M-103 5900,40.5804901123047,-3.50807809829712,B3,http://www.crtm.es,0,,Europe/Madrid,2
par_8_11949,11949,CTRA.M103-POLIDEPORTIVO,Ctra  M-103 SN,40.5812644958496,-3.5076584815979,B3,http://www.crtm.es,0,,Europe/Madrid,2
par_8_13030,13030,SANTA TERESA DE JESÚS-JOSÉ MªPEMAN,Calle de Santa Teresa de Jesús SN,40.6002388000488,-3.50732922554016,B3,http://www.crtm.es,0,,Europe/Madrid,2
par_8_13031,13031,SANTA TERESA DE JESÚS-CASA DE NIÑOS,Calle de Santa Teresa de Jesús SN,40.6002311706543,-3.50717544555664,B3,http://www.crtm.es,0,,Europe/Madrid,2
par_8_13032,13032,SANTA TERESA DE JESÚS-J.RAMÓN JIMENEZ,Calle de Santa Teresa de Jesús SN,40.5971641540527,-3.50625419616699,B3,http://www.crtm.es,0,,Europe/Madrid,2
par_8_13033,13033,SANTA TERESA DE JESÚS-J.RAMÓN JIMÉNEZ,Calle de Santa Teresa de Jesús SN,40.5973052978516,-3.50660967826843,B3,http://www.crtm.es,0,,Europe/Madrid,2
par_8_15447,15447,CTRA.M114-POL. IND.CAMPONUEVO,Ctra de M-114 (Ajalvir) 4900,40.563663482666,-3.49859499931335,B3,http://www.crtm.es,0,,Europe/Madrid,2
par_8_15655,15655,COBEÑA-CTRA.ALCALÁ,Ctra   M-118 (Alcalá-Torrelaguna) 9200,40.5670738220215,-3.50197529792786,B3,http://www.crtm.es,0,,Europe/Madrid,2
par_8_15656,15656,CTRA.M114-POL.IND.CAMPONUEVO,Ctra de M-114 (Ajalvir) 4700,40.562427520752,-3.49759364128113,B3,http://www.crtm.es,0,,Europe/Madrid,2
par_8_16133,16133,SAN SEBASTIÁN-CONSULTORIO MÉDICO,Calle   San Sebastián 3,40.6282730102539,-3.4760890007019,C1,http://www.crtm.es,0,,Europe/Madrid,2
par_8_16134,16134,ALALPARDO-SAN SEBASTIÁN,Calle de Carlos Martín Álvarez 8,40.6297378540039,-3.47410130500793,C1,http://www.crtm.es,0,,Europe/Madrid,2
par_8_16301,16301,CTRA.M112-RONDA NORTE,Calle  Fuente el Saz 1,40.6292839050293,-3.47974991798401,C1,http://www.crtm.es,0,,Europe/Madrid,2
par_8_16302,16302,CTRA.M112-CONDE VILLAMOR,Calle   Fuente el Saz 300,40.6291427612305,-3.47915768623352,C1,http://www.crtm.es,0,,Europe/Madrid,2
par_8_18356,18356,CTRA.ALCALÁ-VEREDA DE LOS SASTRES,Ctra   M-118 (Alcalá-Torrelaguna) 16,40.5713272094727,-3.50373196601868,B3,http://www.crtm.es,0,,Europe/Madrid,0
par_8_18357,18357,CTRA.ALCALÁ-VEREDA DE LOS SASTRES,Ctra   M-118 (Alcalá-Torrelaguna) 9700,40.5709762573242,-3.50369381904602,B3,http://www.crtm.es,0,,Europe/Madrid,0
par_8_11409,11409,GTA.VICENTE ALEIXANDRE-DÁMASO ALONSO,Gta  Vicente Aleixandre 2,40.4969326558489,-3.3754856346426,B3,http://www.crtm.es,0,,Europe/Madrid,2
par_8_15524,15524,URB.NUEVO CAMARMA-IMAGEN,Calle   Imagen 2,40.5602645874023,-3.37337255477905,C1,http://www.crtm.es,0,,Europe/Madrid,2
par_8_17074,17074,DÁMASO ALONSO-GTA.VICENTE ALEIXANDRE,Calle  Dámaso Alonso 20,40.4974367226865,-3.37561825621334,B3,http://www.crtm.es,0,,Europe/Madrid,2
par_8_17075,17075,OCTAVIO PAZ-ERNESTO SÁBATO,Calle  Octavio Paz 10,40.4997158259298,-3.37288123470669,B3,http://www.crtm.es,0,,Europe/Madrid,2
par_8_17076,17076,OCTAVIO PAZ-ERNESTO SÁBATO,Calle  Octavio Paz 10,40.499968565137,-3.372729214953,B3,http://www.crtm.es,0,,Europe/Madrid,2
par_8_17077,17077,OCTAVIO PAZ-CARLOS FUENTES,Calle   Octavio Paz 50,40.5011959192718,-3.3692545097802,B3,http://www.crtm.es,0,,Europe/Madrid,2
par_8_17078,17078,OCTAVIO PAZ-CARLOS FUENTES,Calle   Octavio Paz 19,40.5013942243705,-3.36922019199223,B3,http://www.crtm.es,0,,Europe/Madrid,2
par_8_20536,20536,BENITO PÉREZ GALDÓS-ROSALÍA DE CASTRO,Avda   Benito Pérez Galdós 7,40.5073639480105,-3.37020895278681,B3,http://www.crtm.es,0,,Europe/Madrid,0
par_8_20537,20537,BENITO PÉREZ GALDÓS-J.MTNEZ.RUIZ AZORÍN,Avda   Benito Pérez Galdós 2,40.5073198115366,-3.36992544377172,B3,http://www.crtm.es,0,,Europe/Madrid,0
par_8_17306,17306,AV.LOGROÑO-EST.BARAJAS,Avda de Logroño 365,40.4760208129883,-3.58241534233093,A,http://www.crtm.es,0,,Europe/Madrid,2
par_8_06912,06912,AV.CONSTITUCIÓN-CANTALARRANA,Avda  Constitución 59,40.4566688537598,-3.47660946846008,B2,http://www.crtm.es,0,,Europe/Madrid,2
par_8_07430,07430,AV.CONSTITUCIÓN-EST.TORREJÓN DE ARDOZ,Calle   Ronda Poniente 1,40.4557876586914,-3.48074269294739,B2,http://www.crtm.es,0,,Europe/Madrid,2
par_8_16157,16157,AEROPUERTO-TERMINAL INTERNACIONAL,Avda de la Hispanidad SN,40.4647661997658,-3.57037687789623,A,http://www.crtm.es,0,est_90_34,,2
par_8_1985,1985,TERMINAL DE CARGA AEROPUERTO DE BARAJAS,Calle de Ariadna 9000,40.4609679162759,-3.5769379270088,A,http://www.crtm.es,0,,Europe/Madrid,0
par_8_3542,3542,AEROPUERTO T2,Avda de la Hispanidad SN,40.4687347412109,-3.569176197052,A,http://www.crtm.es,0,est_90_34,,0
par_8_3868,3868,TERMINAL DE CARGA AEROPUERTO DE BARAJAS,Calle de Ariadna 9000,40.4609762182862,-3.57707953313768,A,http://www.crtm.es,0,,Europe/Madrid,0
par_8_4375,4375,CENTRO DE CARGA AEREA 1,Avda   Central 1,40.4561753913983,-3.58049402421911,B1,http://www.crtm.es,0,,Europe/Madrid,0
par_8_4376,4376,CENTRO DE CARGA AEREA 1,Avda  Central 1,40.4555449725764,-3.58045321757268,B1,http://www.crtm.es,0,,Europe/Madrid,0
par_8_4377,4377,CENTRO DE CARGA AEREA 2,Avda  Central 8,40.4540790993592,-3.57814089286626,B1,http://www.crtm.es,0,,Europe/Madrid,0
par_8_4378,4378,CENTRO DE CARGA AEREA 2,Avda  Central 8,40.4537819948758,-3.57810296635921,B1,http://www.crtm.es,0,,Europe/Madrid,0
par_8_4379,4379,CENTRO DE CARGA AEREA 3,Avda  Central 16,40.4520386879415,-3.5754110084436,B1,http://www.crtm.es,0,,Europe/Madrid,0
par_8_4380,4380,CENTRO DE CARGA AEREA 4,Avda  Central 16,40.4521171806968,-3.5759305718852,B1,http://www.crtm.es,0,,Europe/Madrid,0
par_8_4853,4853,AEROPUERTO T2,Avda de la Hispanidad SN,40.4685707092285,-3.56974101066589,A,http://www.crtm.es,0,est_90_34,,0
est_90_34,34,Aeropuerto T1 - T2 - T3,Avda de la Hispanidad SN,40.46864,-3.56965,A,http://www.crtm.es,1,,Europe/Madrid,0
par_8_12096,12096,EL ATAZAR-CTRA.DE PATONES,Ctra de Patones S/N,40.9332542419434,-3.47239184379578,C2,http://www.crtm.es,0,,Europe/Madrid,2
par_8_12712,12712,AV.HISPANIDAD-ENTRADA URB.EL RETIRO,Avda de la Hispanidad 1,40.8410110473633,-3.50111818313599,C2,http://www.crtm.es,0,,Europe/Madrid,2
par_8_19278,19278,AV.HISPANIDAD-CºPATONES,Avda de la Hispanidad 54,40.8422050476074,-3.49164938926697,C2,http://www.crtm.es,0,,Europe/Madrid,0
par_8_19280,19280,SAN FRANCISCO-ESCUELAS,Calle de San Francisco 19,40.8254013061523,-3.54064559936523,C2,http://www.crtm.es,0,,Europe/Madrid,0
par_8_19281,19281,CTRA.M912-PATONES DE ARRIBA,Ctra   M-912 2100,40.8638114929199,-3.49106168746948,C2,http://www.crtm.es,0,,Europe/Madrid,0
par_8_19282,19282,CTRA.M134-POBLADO DEL ATAZAR,Ctra   M-134 (de M-102 a M-133) 6000,40.9097175598145,-3.46686911582947,C2,http://www.crtm.es,0,,Europe/Madrid,0
par_8_19283,19283,CTRA.M134-EL PONTÓN DE LA OLIVA,Ctra   M-134 (de M-102 a M-133) 100,40.8779678344727,-3.44528269767761,C2,http://www.crtm.es,0,,Europe/Madrid,0
par_8_19295,19295,CTRA.M912-PATONES DE ABAJO,Ctra   M-912 1,40.8550796508789,-3.48511242866516,C2,http://www.crtm.es,0,,Europe/Madrid,0
par_8_19296,19296,CTRA.M134-POBLADO DEL ATAZAR,Ctra   M-134 (de M-102 a M-133) 6000,40.909610748291,-3.46669030189514,C2,http://www.crtm.es,0,,Europe/Madrid,0
par_8_19297,19297,CTRA.M134-EL PONTÓN DE LA OLIVA,Ctra   M-134 SN,40.8801651000977,-3.44365954399109,C2,http://www.crtm.es,0,,Europe/Madrid,0
par_8_20946,20946,AV.HISPANIDAD-ARGENTINA,Avda de la Hispanidad 1,40.8405723571777,-3.50118613243103,C2,http://www.crtm.es,0,,Europe/Madrid,0
par_8_20947,20947,AV.HISPANIDAD-ECUADOR,Avda de la Hispanidad 26,40.8420257568359,-3.49622678756714,C2,http://www.crtm.es,0,,Europe/Madrid,0
par_8_20948,20948,AV.ARGENTINA-ECUADOR,Avda de Argentina 27,40.8412857055664,-3.49603152275085,C2,http://www.crtm.es,0,,Europe/Madrid,0
par_8_09657,09657,PZA.ZORITA-CENTRO COMERCIAL,Plaza  Zorita SN,40.5031455249058,-3.33243104788471,B3,http://www.crtm.es,0,,Europe/Madrid,2
par_8_20526,20526,DOÑA INÉS ULLOA-EST.ALCALÁ UNIVERSIDAD,Calle   Doña Inés de Ulloa 1,40.5054206848145,-3.33415508270264,B3,http://www.crtm.es,0,,Europe/Madrid,0
par_8_1279,1279,AVDA.AMERICA-FCO.SILVELA,Avda de América 2,40.4375344315466,-3.67685049680538,A,http://www.crtm.es,0,est_90_4,,0
par_8_1280,1280,AV.AMERICA-FCO.SILVELA,Avda de América 9 A,40.4378042688326,-3.67692394599527,A,http://www.crtm.es,0,,Europe/Madrid,0
par_8_16442,16442,AV.JUAN PABLO II-AV.PRÍNCIPE ASTURIAS,Avda de Juan Pablo II 1,40.5051345825195,-3.51879215240479,B1,http://www.crtm.es,0,,Europe/Madrid,2
par_8_16443,16443,AV.JUAN PABLO II-MAR CASPIO,Avda de Juan Pablo II 4,40.5044403076172,-3.51872777938843,B1,http://www.crtm.es,0,,Europe/Madrid,2
par_8_16444,16444,AV.JUAN PABLO II-PICOS DE EUROPA,Avda de Juan Pablo II 25,40.5037269592285,-3.51564192771912,B1,http://www.crtm.es,0,,Europe/Madrid,2
par_8_16445,16445,AV.JUAN PABLO II-PºLAS CAMELIAS,Paseo de las Camelias S/N,40.5032615661621,-3.51483583450317,B1,http://www.crtm.es,0,,Europe/Madrid,2
par_8_20231,20231,AV.CHARCOS-AV.VALDEDIEGO,Avda de los Charcos 91,40.4993209838867,-3.50955390930176,B1,http://www.crtm.es,0,,Europe/Madrid,0
par_8_20232,20232,AV.CHARCOS-AV.VALDEDIEGO,Avda de los Charcos 97,40.4991416931152,-3.50945830345154,B1,http://www.crtm.es,0,,Europe/Madrid,0
par_8_12762,12762,CTRA.M627-CºCANTO BLANCO,Ctra de Guadalix SN,40.7597541809082,-3.60803437232971,C1,http://www.crtm.es,0,,Europe/Madrid,2
par_8_12763,12763,CTRA.M627-CºCANTO BLANCO,Ctra de Guadalix 1000,40.7595481872559,-3.60780739784241,C1,http://www.crtm.es,0,,Europe/Madrid,2
par_8_12764,12764,CTRA.M627-GRANJA ESCUELA,Praje   Linarejos 1,40.7668914794922,-3.61465167999268,C1,http://www.crtm.es,0,,Europe/Madrid,2
par_8_12765,12765,CTRA.M627-URB.ATALAYA REAL,Ctra de Guadalix SN,40.7637634277344,-3.61362767219543,C1,http://www.crtm.es,0,,Europe/Madrid,2
par_8_12766,12766,OLMO-OLIVO,Calle del Olmo 12,40.7613410949707,-3.61489677429199,C1,http://www.crtm.es,0,,Europe/Madrid,2
par_8_12767,12767,AV.OLIMPIADAS-POLIDEPORTIVO,Avda de las Olimpiadas 6,40.7379951477051,-3.62924933433533,C1,http://www.crtm.es,0,,Europe/Madrid,2
par_8_12768,12768,AV.OLIMPIADAS-POLIDEPORTIVO,Avda de las Olimpiadas 1,40.7378692626953,-3.6291651725769,C1,http://www.crtm.es,0,,Europe/Madrid,2
par_8_12769,12769,AV.ESPAÑA-SEVILLA,Avda de España 37,40.7389106750488,-3.63624572753906,C1,http://www.crtm.es,0,,Europe/Madrid,2
par_8_12770,12770,SAN SEBASTIÁN-AV.SANTANDER,Calle   San Sebastián 6,40.7342948913574,-3.63173699378967,C1,http://www.crtm.es,0,,Europe/Madrid,2
par_8_12771,12771,BURGOS-TOLEDO,Calle  Burgos 31,40.733570098877,-3.62417459487915,C1,http://www.crtm.es,0,,Europe/Madrid,2
par_8_12772,12772,MALLORCA-CTRA.CUESTAS,Calle   Mallorca 5,40.7377662658691,-3.62118172645569,C1,http://www.crtm.es,0,,Europe/Madrid,2
par_8_09009,09009,URB.LOS BERROCALES-PZA.PARACUELLOS,Avda del Puente de los Viveros 51,40.4792327880859,-3.5147819519043,B2,http://www.crtm.es,0,,Europe/Madrid,2
par_8_09010,09010,URB.LOS BERROCALES-PZA.PARACUELLOS,Plaza de Paracuellos 47,40.478215678146,-3.51490030556945,B2,http://www.crtm.es,0,,Europe/Madrid,2
par_8_09011,09011,AV.PTE.LOS VIVEROS-PºPAGO DE LA PERDIZ,Avda del Puente de los Viveros 34,40.4743337737781,-3.51266462103048,B2,http://www.crtm.es,0,,Europe/Madrid,2
par_8_11013,11013,AV.PTE.LOS VIVEROS-PºPAGO DE LA PERDIZ,Avda del Puente de los Viveros 34,40.4742096931918,-3.51220359712321,B2,http://www.crtm.es,0,,Europe/Madrid,2
par_8_11014,11014,URB.LOS BERROCALES-PZA.TORREJÓN,Plaza de Torrejón SN,40.469134064009,-3.51098542854335,B2,http://www.crtm.es,0,,Europe/Madrid,2
par_8_11483,11483,URB.LOS BERROCALES-PZA.TORREJÓN,Plaza de Torrejón 1,40.4691046903279,-3.51151602745474,B2,http://www.crtm.es,0,,Europe/Madrid,2
par_8_16440,16440,PºRADAR-AV.CIRCUNVALACIÓN,Paseo del Radar 44,40.4973678588867,-3.5229218006134,B1,http://www.crtm.es,0,,Europe/Madrid,2
par_8_16441,16441,PºRADAR-AV.CIRCUNVALACIÓN,Paseo del Radar 48,40.4973983764648,-3.52262687683105,B1,http://www.crtm.es,0,,Europe/Madrid,2
par_8_17293,17293,AV.CIRCUNVALACIÓN-URB.LOS CHARCOS,Avda de Circunvalación 95,40.496940612793,-3.51837491989136,B1,http://www.crtm.es,0,,Europe/Madrid,2
par_8_17294,17294,AV.CIRCUNVALACIÓN-URB.LOS CHARCOS,Avda de Circunvalación 95,40.4966316223145,-3.51852607727051,B1,http://www.crtm.es,0,,Europe/Madrid,2
par_8_17747,17747,AV.PUENTE DE LOS VIVEROS Nº11,Avda del Puente de los Viveros 15,40.471851348877,-3.51154041290283,B2,http://www.crtm.es,0,,Europe/Madrid,2
par_8_17748,17748,AV.PUENTE DE LOS VIVEROS Nº20,Avda del Puente de los Viveros 20,40.4719619750977,-3.51108121871948,B2,http://www.crtm.es,0,,Europe/Madrid,2
par_8_17749,17749,AV.PUENTE DE LOS VIVEROS Nº52,Avda del Puente de los Viveros 52,40.4770317077637,-3.51355004310608,B2,http://www.crtm.es,0,,Europe/Madrid,2
par_8_18254,18254,AV.PUENTE DE LOS VIVEROS Nº37,Avda del Puente de los Viveros 37,40.4765178851466,-3.51380198042493,B2,http://www.crtm.es,0,,Europe/Madrid,0
par_8_20068,20068,VALTI-ITALIA,Calle de Valti 6,40.5289421081543,-3.54477310180664,B1,http://www.crtm.es,0,,Europe/Madrid,0
par_8_20069,20069,VALTI-ITALIA,Calle de Valti 6,40.5290336608887,-3.54472661018372,B1,http://www.crtm.es,0,,Europe/Madrid,0
par_8_20070,20070,VALTI-CAMINO VIEJO DE COBEÑA,Calle de Valti 32,40.5295600891113,-3.54219245910645,B1,http://www.crtm.es,0,,Europe/Madrid,0
par_8_20071,20071,CAMINO VIEJO DE COBEÑA-VALTI,Calle   Camino Viejo de Cobeña 98,40.5296249389648,-3.54174447059631,B1,http://www.crtm.es,0,,Europe/Madrid,0
par_8_20072,20072,AV.MESA DEL MONTE-CAMINO VIEJO DE COBEÑA,Avda de la Mesa del Monte 97,40.5278663635254,-3.54226160049438,B1,http://www.crtm.es,0,,Europe/Madrid,0
par_8_20073,20073,AV.MESA DEL MONTE-CAMINO VIEJO DE COBEÑA,Avda de la Mesa del Monte 97,40.5279541015625,-3.54228591918945,B1,http://www.crtm.es,0,,Europe/Madrid,0
par_8_20074,20074,AV.MESA DEL MONTE-OLIVOS,Avda de la Mesa del Monte 65,40.5260810852051,-3.53809142112732,B1,http://www.crtm.es,0,,Europe/Madrid,0
par_8_20075,20075,AV.MESA DEL MONTE-OLIVOS,Avda de la Mesa del Monte 65,40.5258140563965,-3.53806567192078,B1,http://www.crtm.es,0,,Europe/Madrid,0
par_8_20079,20079,EXTREMADURA-INSTITUTO,Calle   Extremadura 20,40.503345489502,-3.52601313591003,B1,http://www.crtm.es,0,,Europe/Madrid,0
par_8_20080,20080,EXTREMADURA-INSTITUTO,Calle   Extremadura 15,40.5032653808594,-3.52628397941589,B1,http://www.crtm.es,0,,Europe/Madrid,0
par_8_06906,06906,ALCORCÓN-LAS FRONTERAS,Calle   Alcorcón 19,40.460865020752,-3.48950719833374,B2,http://www.crtm.es,0,,Europe/Madrid,2
par_8_06907,06907,ALCORCÓN-TORREJÓN,Calle   Alcorcón 1,40.4576988220215,-3.48836374282837,B2,http://www.crtm.es,0,,Europe/Madrid,2
par_8_06908,06908,TORREJÓN-PUERTO DE NAVACERRADA,Calle  Torrejón 1,40.4580612182617,-3.48432087898254,B2,http://www.crtm.es,0,,Europe/Madrid,2
par_8_06909,06909,TORREJÓN-PUERTO DE NAVACERRADA,Calle   Torrejón 1,40.4579811096191,-3.48416686058044,B2,http://www.crtm.es,0,,Europe/Madrid,2
par_8_06913,06913,AV.CONSTITUCIÓN-CANTALARRANA,Avda   Constitución 72,40.4566421508789,-3.47606658935547,B2,http://www.crtm.es,0,,Europe/Madrid,2
par_8_06914,06914,CTRA.LOECHES-SOLANA,Ctra   Loeches 13,40.4529991149902,-3.47271513938904,B2,http://www.crtm.es,0,,Europe/Madrid,2
par_8_06915,06915,RÍO-CANILLAS,Calle   Río 18 A,40.4512329101563,-3.47297406196594,B2,http://www.crtm.es,0,,Europe/Madrid,2
par_8_06916,06916,CEMENTO-CARBONO,Calle   Cemento 6,40.4522743225098,-3.46962022781372,B2,http://www.crtm.es,0,,Europe/Madrid,2
par_8_06918,06918,FORJA-OXÍGENO,Calle   Forja 1,40.4512748718262,-3.46706604957581,B2,http://www.crtm.es,0,,Europe/Madrid,2
par_8_06919,06919,OXÍGENO-MÁRMOL,Calle   Oxígeno 6,40.4503707885742,-3.4673900604248,B2,http://www.crtm.es,0,,Europe/Madrid,2
par_8_06920,06920,HILADOS-CENTRO CULTURAL,Calle  Hilados 1,40.4492950439453,-3.46445798873901,B2,http://www.crtm.es,0,,Europe/Madrid,2
par_8_06921,06921,HILADOS-CENTRO CULTURAL,Calle  Hilados 1,40.4491691589355,-3.4644570350647,B2,http://www.crtm.es,0,,Europe/Madrid,2
par_8_06922,06922,HILADOS-PARQUE CATALUÑA,Calle   Hilados 8,40.4477005004883,-3.46234798431396,B2,http://www.crtm.es,0,,Europe/Madrid,2
par_8_06927,06927,CTRA.LOECHES-SAN BENITO,Ctra  Loeches 114,40.4408264160156,-3.46210050582886,B2,http://www.crtm.es,0,,Europe/Madrid,2
par_8_06943,06943,AV.FRESNOS-JÚPITER,Avda de los Fresnos 16,40.4436149597168,-3.47241377830505,B2,http://www.crtm.es,0,,Europe/Madrid,2
par_8_06944,06944,AV.FRESNOS-POSEIDÓN,Avda de los Fresnos 6,40.4464225769043,-3.47053480148315,B2,http://www.crtm.es,0,,Europe/Madrid,2
par_8_07232,07232,ALCORCÓN-LAS FRONTERAS,Calle   Alcorcón 19,40.4608497619629,-3.48962497711182,B2,http://www.crtm.es,0,,Europe/Madrid,2
par_8_07233,07233,ALCORCÓN-TORREJÓN,Calle   Alcorcón 1,40.4578247070313,-3.48860049247742,B2,http://www.crtm.es,0,,Europe/Madrid,2
par_8_10893,10893,CEMENTO-DELEGACIÓN DE HACIENDA,Calle   Cemento 3,40.4520530700684,-3.47086882591248,B2,http://www.crtm.es,0,,Europe/Madrid,2
par_8_12941,12941,HILADOS-COMISARÍA,Calle  Hilados 20,40.4459190368652,-3.45962357521057,B2,http://www.crtm.es,0,,Europe/Madrid,2
par_8_12942,12942,ÁLAMO-COLEGIO,Calle  Álamo 4,40.4441452026367,-3.45928120613098,B2,http://www.crtm.es,0,,Europe/Madrid,2
par_8_12944,12944,POZO DE LAS NIEVES-PARQUE CATALUÑA,Calle  Pozo de las Nieves 34,40.4449882507324,-3.46212887763977,B2,http://www.crtm.es,0,,Europe/Madrid,2
par_8_12945,12945,ÁLAMO-COLEGIO,Calle  Álamo 4,40.4443626403809,-3.45871686935425,B2,http://www.crtm.es,0,,Europe/Madrid,2
par_8_12946,12946,HILADOS-COMISARÍA,Calle  Hilados 19,40.446044921875,-3.45962429046631,B2,http://www.crtm.es,0,,Europe/Madrid,2
par_8_15081,15081,GARABAY-JOSÉ CADALSO,Calle  Garabay 8,40.4427452087402,-3.46163010597229,B2,http://www.crtm.es,0,,Europe/Madrid,2
par_8_20434,20434,AV.FRESNOS-PISOS TUTELADOS,Avda de los Fresnos 8,40.445068359375,-3.47149229049683,B2,http://www.crtm.es,0,,Europe/Madrid,0
par_8_21189,21189,JOAQUÍN BLUME-VALLE DEL CABRIEL,Calle de Joaquín Blume SN,40.4394340515137,-3.47194814682007,B2,http://www.crtm.es,0,,Europe/Madrid,0
par_8_16977,16977,CTRA.LOECHES-HACIENDA,Ctra  Loeches 21,40.4514656066895,-3.47133660316467,B2,http://www.crtm.es,0,,Europe/Madrid,2
par_8_16978,16978,CTRA.LOECHES-PZA.PROGRESO,Ctra   Loeches 39,40.4496078491211,-3.46973156929016,B2,http://www.crtm.es,0,,Europe/Madrid,2
par_8_16980,16980,CTRA.LOECHES-PZA.PROGRESO,Ctra   Loeches 62,40.4495239257813,-3.46988415718079,B2,http://www.crtm.es,0,,Europe/Madrid,2
par_8_16981,16981,AV.FRESNOS-POSEIDÓN,Avda de los Fresnos 6,40.4463768005371,-3.47085285186768,B2,http://www.crtm.es,0,,Europe/Madrid,2
par_8_16982,16982,AV.FRESNOS-JÚPITER,Avda de los Fresnos 16,40.4438209533691,-3.4724977016449,B2,http://www.crtm.es,0,,Europe/Madrid,2
par_8_17337,17337,CTRA.LOECHES-HACIENDA,Ctra   Loeches 46,40.4514007568359,-3.47146582603455,B2,http://www.crtm.es,0,,Europe/Madrid,2
par_8_20433,20433,AV.FRESNOS-PISOS TUTELADOS,Avda de los Fresnos 8,40.4450950622559,-3.47165751457214,B2,http://www.crtm.es,0,,Europe/Madrid,0
par_8_20486,20486,OTOÑO-PRIMAVERA,Calle   Otoño 17,40.449405670166,-3.48580360412598,B2,http://www.crtm.es,0,,Europe/Madrid,0
par_8_20837,20837,RONDA SUR-FTE LOGÍSTICA,Cmno del Sur 1,40.4395713806152,-3.4869589805603,B2,http://www.crtm.es,0,,Europe/Madrid,0
par_8_20838,20838,RONDA SUR-LOGÍSTICA,Cmno del Ronda sur 1,40.4403610229492,-3.48725962638855,B2,http://www.crtm.es,0,,Europe/Madrid,0
par_8_11504,11504,AV.FRONTERAS-CENTRO DE SALUD,Avda   Fronteras 7,40.4586944580078,-3.48362946510315,B2,http://www.crtm.es,0,,Europe/Madrid,2
par_8_11505,11505,AV.FRONTERAS-CENTRO DE SALUD,Avda   Fronteras 7,40.4589462280273,-3.48344278335571,B2,http://www.crtm.es,0,,Europe/Madrid,2
par_8_15083,15083,TERMINAL PZA.ESPAÑA-EST.TORREJÓN,Plaza   España 7,40.4559707641602,-3.47983598709106,B2,http://www.crtm.es,0,,Europe/Madrid,2
par_8_17326,17326,BASE AÉREA TORREJÓN,Comp.  Base Aérea SN,40.4723968505859,-3.44768881797791,B2,http://www.crtm.es,0,,Europe/Madrid,2
par_8_19381,19381,BASE AÉREA-AENA,Ctra   Base 21,40.4710426330566,-3.45028686523438,B2,http://www.crtm.es,0,,Europe/Madrid,0
par_8_20485,20485,AV.PREMIOS NOBEL-MARIO VARGAS LLOSA,Avda   Premios Nobel sn,40.4703330993652,-3.43880414962769,B2,http://www.crtm.es,0,,Europe/Madrid,0
par_8_20489,20489,AV.PREMIOS NOBEL-JOSÉ ECHEGARAY,Avda   Premios Nobel sn,40.471435546875,-3.43259453773499,B2,http://www.crtm.es,0,,Europe/Madrid,0
par_8_20494,20494,AV.PREMIOS NOBEL-MARIO VARGAS LLOSA,Avda de los Premios Nobel sn,40.4705276489258,-3.43927717208862,B2,http://www.crtm.es,0,,Europe/Madrid,0
par_8_20573,20573,AV.PREMIOS NOBEL-PUENTE,Avda   Premios Nobel 1,40.4700775146484,-3.44171619415283,B2,http://www.crtm.es,0,,Europe/Madrid,0
par_8_20909,20909,AV.PREMIOS NOBEL-PUENTE,Avda   Premios Nobel S/N,40.470272064209,-3.44215393066406,B2,http://www.crtm.es,0,,Europe/Madrid,0
par_8_20910,20910,AV.PREMIOS NOBEL-C.C.OASIZ,Avda  Premios Nobel S/N,40.4700126647949,-3.44470024108887,B2,http://www.crtm.es,0,,Europe/Madrid,0
par_8_20911,20911,AV.PREMIOS NOBEL-C.C.OASIZ,Avda  Premios Nobel S/N,40.4697494506836,-3.44499349594116,B2,http://www.crtm.es,0,,Europe/Madrid,0
par_8_06893,06893,AV.MADRID-PARQUE LAS VEREDILLAS,Avda   Madrid 20,40.4643096923828,-3.46992826461792,B2,http://www.crtm.es,0,,Europe/Madrid,2
par_8_06895,06895,TURÍN-VEREDILLA,Calle  Turín 1,40.4620552062988,-3.47210645675659,B2,http://www.crtm.es,0,,Europe/Madrid,2
par_8_06897,06897,VEREDILLA-AV.VIRGEN DE LORETO,Calle   Veredilla 3,40.4611167907715,-3.47462391853333,B2,http://www.crtm.es,0,,Europe/Madrid,2
par_8_06899,06899,MADRID-GIRASOL,Calle   Madrid 11,40.4630088806152,-3.47685480117798,B2,http://www.crtm.es,0,,Europe/Madrid,2
par_8_09560,09560,JUNCAL-INSTITUTO,Calle  Juncal 14,40.4628753662109,-3.4587836265564,B2,http://www.crtm.es,0,,Europe/Madrid,2
par_8_09562,09562,JUNCAL-AV.CONSTITUCIÓN,Calle   Juncal 3,40.4612464904785,-3.45881986618042,B2,http://www.crtm.es,0,,Europe/Madrid,2
par_8_10899,10899,PºCIPRESES-CEMENTERIO,Paseo de los Cipreses 1,40.4465446472168,-3.45130252838135,B2,http://www.crtm.es,0,,Europe/Madrid,2
par_8_18660,18660,AV.CARMEN MARTÍN GAITE-PºIGUALDAD,Paseo de la Igualdad 3,40.4591636657715,-3.44311904907227,B2,http://www.crtm.es,0,,Europe/Madrid,0
par_8_21105,21105,MATEO INURRIA-HOSPITAL DE TORREJÓN,Calle   Mateo Inurria 1,40.4645347595215,-3.43534564971924,B2,http://www.crtm.es,0,,Europe/Madrid,0
par_8_06896,06896,TURÍN-VEREDILLA,Calle  Turín 2,40.4621658325195,-3.47198915481567,B2,http://www.crtm.es,0,,Europe/Madrid,2
par_8_06898,06898,VEREDILLA-AV.VIRGEN DE LORETO,Calle   Veredilla 1,40.4609718322754,-3.47477626800537,B2,http://www.crtm.es,0,,Europe/Madrid,2
par_8_06900,06900,MADRID-CIUDAD REAL,Calle   Madrid 36,40.4629020690918,-3.47678327560425,B2,http://www.crtm.es,0,,Europe/Madrid,2
par_8_06928,06928,MAGDALENA-BºEL CASTILLO,Calle  Magdalena 93,40.4348526000977,-3.47110247612,B2,http://www.crtm.es,0,,Europe/Madrid,2
par_8_10952,10952,CTRA.CASTILLO-SAN FRANCISCO,Calle   San Francisco 52,40.4377708435059,-3.46502709388733,B2,http://www.crtm.es,0,,Europe/Madrid,2
par_8_10953,10953,CASTILLO-COLEGIO,Calle   Castillo 1,40.4386291503906,-3.47289752960205,B2,http://www.crtm.es,0,,Europe/Madrid,2
par_8_16534,16534,AV.MADRID-INSTITUTO,Avda   Madrid 68,40.463508605957,-3.45812749862671,B2,http://www.crtm.es,0,,Europe/Madrid,2
par_8_17500,17500,SOLANA-MADERA,Calle   Solana 6,40.4542808532715,-3.46979951858521,B2,http://www.crtm.es,0,,Europe/Madrid,2
par_8_17501,17501,SOLANA-CTRA.LOECHES,Calle   Solana 1,40.45361328125,-3.47286105155945,B2,http://www.crtm.es,0,,Europe/Madrid,2
par_8_18657,18657,AV.EDUARDO CHILLIDA-PºDEMOCRACIA,Paseo de la Democracia 17,40.4603271484375,-3.44042563438416,B2,http://www.crtm.es,0,,Europe/Madrid,0
par_8_18659,18659,AV.CARMEN MARTÍN GAITE-PºIGUALDAD,Avda   Carmen Martín Gaite 13,40.4592666625977,-3.44355607032776,B2,http://www.crtm.es,0,,Europe/Madrid,0
par_8_19867,19867,AV.JORGE OTEIZA-EST.SOTO DEL HENARES,Avda   Jorge Oteiza 1,40.4627227783203,-3.44055914878845,B2,http://www.crtm.es,0,,Europe/Madrid,0
par_8_20488,20488,ÁLAMO-PARQUE EUROPA,Calle   Álamo 39,40.4468955993652,-3.45585656166077,B2,http://www.crtm.es,0,,Europe/Madrid,0
par_8_20487,20487,ÁLAMO-PARQUE EUROPA,Calle   Álamo 41,40.4472198486328,-3.45630693435669,B2,http://www.crtm.es,0,,Europe/Madrid,0
