stop_id,stop_code,stop_name,stop_desc,stop_lat,stop_lon,zone_id,stop_url,location_type,parent_station,stop_timezone,wheelchair_boarding
par_8_07022,07022,PºESTACIÓN-ZULOAGA,Paseo de la Estación 10,40.4878517978603,-3.36419023732577,B3,http://www.crtm.es,0,,Europe/Madrid,2
par_8_07023,07023,SEBASTIÁN DE LA PLAZA-ERAS DE SAN ISIDRO,Calle   Sebastián de la Plaza 2,40.486315531598,-3.36283683757769,B3,http://www.crtm.es,0,,Europe/Madrid,2
par_8_07042,07042,PEDRO SARMIENTO GAMBOA-LOPE DE RUEDA,Calle de Pedro Sarmiento de Gamboa 7,40.489990234375,-3.3604748249054,B3,http://www.crtm.es,0,,Europe/Madrid,2
par_8_07043,07043,PEDRO SARMIENTO GAMBOA-LOPE DE RUEDA,Calle de Pedro Sarmiento de Gamboa 12,40.4902076721191,-3.35995697975159,B3,http://www.crtm.es,0,,Europe/Madrid,2
par_8_07044,07044,FERRAZ-VELÁZQUEZ,Calle  Ferraz 12,40.4891835337369,-3.36182571948047,B3,http://www.crtm.es,0,,Europe/Madrid,2
par_8_07046,07046,AV.MECO-AVIACIÓN ESPAÑOLA,Avda de Meco 3,40.4936952579138,-3.35658698513299,B3,http://www.crtm.es,0,,Europe/Madrid,2
par_8_07047,07047,AV.MECO-AVIACIÓN ESPAÑOLA,Avda de Meco 3,40.4938312990335,-3.35629269526078,B3,http://www.crtm.es,0,,Europe/Madrid,2
par_8_07048,07048,AV.MECO-PABELLÓN POLIDEPORTIVO,Avda de Meco 7,40.4949607849121,-3.35543894767761,B3,http://www.crtm.es,0,,Europe/Madrid,2
par_8_07049,07049,AV.MECO-PABELLÓN POLIDEPORTIVO,Avda de Meco 6,40.495475769043,-3.35475730895996,B3,http://www.crtm.es,0,,Europe/Madrid,2
par_8_07061,07061,AV.MECO-RESIDENCIA HOGAR,Avda de Meco 12,40.499013685478,-3.35261449954871,B3,http://www.crtm.es,0,,Europe/Madrid,2
par_8_07062,07062,AV.MECO-RESIDENCIA HOGAR,Avda de Meco 12,40.4986065260865,-3.35319062848327,B3,http://www.crtm.es,0,,Europe/Madrid,2
par_8_07063,07063,AV.MECO-CENTRO DEPORTIVO MILITAR,Rtda   Brigada Paracaidista 1,40.5018501281738,-3.35012912750244,B3,http://www.crtm.es,0,,Europe/Madrid,2
par_8_07064,07064,AV.MECO-CLUB HÍPICO,Avda de Meco 16,40.5009736843778,-3.35094892736817,B3,http://www.crtm.es,0,,Europe/Madrid,2
par_8_07066,07066,SEVERO OCHOA-BARBERÁN Y COLLAR,Calle   Severo Ochoa SN,40.5023365463435,-3.35011809569364,B3,http://www.crtm.es,0,,Europe/Madrid,2
par_8_09453,09453,VÍA COMPLUTENSE-SAN BERNARDO,Calle  Vía Complutense 12,40.4840410530149,-3.36985660620449,B3,http://www.crtm.es,0,,Europe/Madrid,2
par_8_09454,09454,VÍA COMPLUTENSE-PZA.ATILANO CASADO,Plaza   Atilano Casado 1,40.4847227819176,-3.36511722882852,B3,http://www.crtm.es,0,,Europe/Madrid,2
par_8_09462,09462,PºESTACIÓN-ERAS DE SAN ISIDRO,Paseo de la Estación 1,40.486530036528,-3.36338075235237,B3,http://www.crtm.es,0,,Europe/Madrid,2
par_8_09463,09463,VÍA COMPLUTENSE-PZA.ATILANO CASADO,Calle  Vía Complutense 35,40.4849947579217,-3.3645759553875,B3,http://www.crtm.es,0,,Europe/Madrid,2
par_8_09464,09464,VÍA COMPLUTENSE-SAN BERNARDO,Calle  Vía Complutense 12,40.4840949544933,-3.36990409684527,B3,http://www.crtm.es,0,,Europe/Madrid,2
par_8_09465,09465,DEMETRIO DUCAS-ESCUELA INFANTIL,Calle   Demetrio Ducas SN,40.4796135523199,-3.37393797881472,B3,http://www.crtm.es,0,,Europe/Madrid,2
par_8_10199,10199,VÍA COMPLUTENSE-CAMINO DEL CEMENTERIO,Calle   Vía Complutense 7,40.482741153697,-3.37347159752424,B3,http://www.crtm.es,0,,Europe/Madrid,2
par_8_11357,11357,UNIV.ALCALÁ-CIUDAD RESIDENCIAL,Urb   Campus Universitario 700 T,40.5056952453372,-3.34766884148425,B3,http://www.crtm.es,0,,Europe/Madrid,2
par_8_11364,11364,UNIV.ALCALÁ-CIUDAD RESIDENCIAL,Urb   Campus Universitario SN,40.5055870339209,-3.34770369011275,B3,http://www.crtm.es,0,,Europe/Madrid,2
par_8_11789,11789,UNIV.ALCALÁ-HOSPITAL,Ctra de Meco 600,40.5087051391602,-3.34779238700867,B3,http://www.crtm.es,0,,Europe/Madrid,2
par_8_11790,11790,UNIV.ALCALÁ-HOSPITAL,Ctra de Meco 600,40.5085334777832,-3.34785032272339,B3,http://www.crtm.es,0,,Europe/Madrid,2
par_8_12030,12030,UNIV.ALCALÁ-POLITÉCNICO,Ctra de Meco 1100,40.5126064713724,-3.34719697593246,B3,http://www.crtm.es,0,,Europe/Madrid,2
par_8_12245,12245,MARCOS MARTÍNEZ-PºESTACIÓN,Calle   Marcos Martínez 2,40.4887418781351,-3.36476142529562,B3,http://www.crtm.es,0,,Europe/Madrid,2
par_8_12250,12250,VÍA COMPLUTENSE-COLEGIO,Calle   Vía Complutense 21,40.4844207763672,-3.36676931381226,B3,http://www.crtm.es,0,,Europe/Madrid,2
par_8_15839,15839,HOSPITAL-ENTRADA PRINCIPAL,Ctra de Meco 900,40.5123710632324,-3.34814167022705,B3,http://www.crtm.es,0,,Europe/Madrid,2
par_8_18577,18577,AV.MECO-GTA.PRESIDENTE LÁZARO CÁRDENAS,Avda de Meco 10,40.4973335844749,-3.35406902919124,B3,http://www.crtm.es,0,,Europe/Madrid,0
par_8_18578,18578,AV.MECO-GTA.PRESIDENTE LÁZARO CÁRDENAS,Avda de Meco 10,40.4974503004143,-3.35419945419053,B3,http://www.crtm.es,0,,Europe/Madrid,0
par_8_19153,19153,HOSPITAL-URGENCIAS/EXTRACCIONES,Ctra de Meco 700,40.5101585388184,-3.34949946403503,B3,http://www.crtm.es,0,,Europe/Madrid,0
par_8_19154,19154,HOSPITAL-URGENCIAS/EXTRACCIONES,Ctra de Meco 700,40.5100593566895,-3.34916853904724,B3,http://www.crtm.es,0,,Europe/Madrid,0
par_8_20234,20234,ESCUELA POLITÉCNICA,Ctra de Meco 900,40.5122421426566,-3.34851710344143,B3,http://www.crtm.es,0,,Europe/Madrid,0
par_8_20400,20400,VÍA COMPLUTENSE-SAN FÉLIX DE ALCALÁ,Calle   San Félix de Alcalá 22,40.4846283625431,-3.36648537664524,B3,http://www.crtm.es,0,,Europe/Madrid,0
par_8_20659,20659,DEMETRIO DUCAS-AV.MADRID,Calle   Demetrio Ducas 1,40.4803069210325,-3.37403621040091,B3,http://www.crtm.es,0,,Europe/Madrid,0
par_8_20788,20788,AV.REYES CATÓLICOS-PUERTA DE SANTA ANA,Avda   Reyes Católicos 1,40.478357012025,-3.3724798911772,B3,http://www.crtm.es,0,,Europe/Madrid,0
par_8_07040,07040,AV.CABALLERÍA ESPAÑOLA-ARIAS MONTANO,Avda   Caballería Española 10,40.4887736288452,-3.36038397713005,B3,http://www.crtm.es,0,,Europe/Madrid,2
par_8_07041,07041,AV.CABALLERÍA ESPAÑOLA-ARIAS MONTANO,Avda   Caballería Española 12,40.4888643049319,-3.36019566968169,B3,http://www.crtm.es,0,,Europe/Madrid,2
par_8_07067,07067,BARBERÁN Y COLLAR-CENTRO COMERCIAL,Calle   Barberán y Collar 1,40.5019638488407,-3.34823966713304,B3,http://www.crtm.es,0,,Europe/Madrid,2
par_8_07410,07410,BARBERÁN Y COLLAR-COLEGIO,Calle   Barberán y Collar 24,40.499898324259,-3.34606931745928,B3,http://www.crtm.es,0,,Europe/Madrid,2
par_8_09340,09340,AV.GUADALAJARA-CUATRO CAÑOS,Calle de Antonio Machado 9,40.4855557352454,-3.36093311477228,B3,http://www.crtm.es,0,,Europe/Madrid,2
par_8_11744,11744,AV.GUSTAVO A.BÉCQUER-PÍO BAROJA,Avda  Gustavo Adolfo Bécquer 1,40.5096282958984,-3.36425089836121,B3,http://www.crtm.es,0,,Europe/Madrid,2
par_8_11750,11750,VILLAMALEA-RESIDENCIA DE MAYORES,Calle   Villamalea 1,40.5074925601881,-3.35798196452137,B3,http://www.crtm.es,0,,Europe/Madrid,2
par_8_11753,11753,VIRGEN DE LORETO Nº1,Calle  Virgen de Loreto 1,40.5029475077591,-3.34767825812403,B3,http://www.crtm.es,0,,Europe/Madrid,2
par_8_12244,12244,ISABEL DE GUZMÁN-FERRAZ,Calle   Ferraz 7,40.4889894261825,-3.3633940175028,B3,http://www.crtm.es,0,,Europe/Madrid,2
par_8_12259,12259,AV.BENITO PÉREZ GALDÓS-PZA.ALFONSO XII,Avda   Benito Pérez Galdós 3,40.5054397583008,-3.36957478523254,B3,http://www.crtm.es,0,,Europe/Madrid,2
par_8_12357,12357,AV.BENITO P.GALDÓS-LEOPOLDO ALAS CLARÍN,Avda  Benito Pérez Galdós 15,40.5100985692352,-3.36866596173534,B3,http://www.crtm.es,0,,Europe/Madrid,2
par_8_12565,12565,PZA.CONDE BARCELONA-AV.GUSTAVO A.BÉCQUER,Plaza   Conde de Barcelona 2,40.5107933316221,-3.36832746876519,B3,http://www.crtm.es,0,,Europe/Madrid,2
par_8_12896,12896,AV.JESUITAS-RESIDENCIA DE MAYORES,Avda   Jesuitas 61,40.508526770755,-3.35856580962011,B3,http://www.crtm.es,0,,Europe/Madrid,2
par_8_12897,12897,JOSÉ ORTEGA Y GASSET-CIUDAD 10,Calle   José Ortega y Gasset 37,40.5101474333359,-3.35595411756236,B3,http://www.crtm.es,0,,Europe/Madrid,2
par_8_12898,12898,JOSÉ ORTEGA Y GASSET-J.RAMÓN JIMÉNEZ,Calle  José Ortega y Gasset 3,40.5100190439217,-3.35375803611446,B3,http://www.crtm.es,0,,Europe/Madrid,2
par_8_12899,12899,J.RAMÓN JIMÉNEZ-JOSÉ ORTEGA Y GASSET,Calle  Juan Ramón Jiménez 1,40.5095068463592,-3.35333043120039,B3,http://www.crtm.es,0,,Europe/Madrid,2
par_8_12900,12900,J.RAMÓN JIMÉNEZ-OCHO DE MARZO,Calle  Juan Ramón Jiménez 1,40.5079654870247,-3.35360561089421,B3,http://www.crtm.es,0,,Europe/Madrid,2
par_8_19151,19151,HOSPITAL-RESIDENCIAS UNIVERSITARIAS,Ctra de Meco 600,40.5078675580794,-3.34727876177585,B3,http://www.crtm.es,0,,Europe/Madrid,0
par_8_19152,19152,HOSPITAL-RESIDENCIAS UNIVERSITARIAS,Ctra de Meco 600,40.5079154968262,-3.34692668914795,B3,http://www.crtm.es,0,,Europe/Madrid,0
par_8_20410,20410,AV.GUSTAVO ADOLFO BÉCQUER-PÍO BAROJA,Avda   Gustavo Adolfo Bécquer 1,40.5090522766113,-3.36309099197388,B3,http://www.crtm.es,0,,Europe/Madrid,0
par_8_20535,20535,VILLAMALEA-JUAN RAMÓN JIMÉNEZ,Calle   Villamalea 1,40.5072273847703,-3.35340108751323,B3,http://www.crtm.es,0,,Europe/Madrid,0
par_8_20537,20537,BENITO PÉREZ GALDÓS-J.MTNEZ.RUIZ AZORÍN,Avda   Benito Pérez Galdós 2,40.5073198115366,-3.36992544377172,B3,http://www.crtm.es,0,,Europe/Madrid,0
par_8_20561,20561,JOSÉ ORTEGA Y GASSET-CIUDAD 10,Calle   José Ortega y Gasset 37,40.5102554653274,-3.35597829534906,B3,http://www.crtm.es,0,,Europe/Madrid,0
par_8_20562,20562,AV.JESUITAS-RESIDENCIA DE MAYORES,Avda   Jesuitas 61,40.5085621096152,-3.35879025452237,B3,http://www.crtm.es,0,,Europe/Madrid,0
par_8_07027,07027,MQUÉS.ALONSO MARTÍNEZ-AV.PLAZA DE TOROS,Calle   Marqués Alonso Martínez 2,40.4860147259658,-3.35818639897309,B3,http://www.crtm.es,0,,Europe/Madrid,2
par_8_07028,07028,MQUÉS.ALONSO MARTÍNEZ-AV.PLAZA DE TOROS,Calle   Marqués Alonso Martínez 5,40.4863294839543,-3.35836505860392,B3,http://www.crtm.es,0,,Europe/Madrid,2
par_8_07030,07030,AV.JUAN DE AUSTRIA-MARQUÉS ALONSO MTNEZ.,Avda  Juan de Austria 2,40.4857557731871,-3.35744168614057,B3,http://www.crtm.es,0,,Europe/Madrid,2
par_8_07031,07031,AV.JUAN DE AUSTRIA-MARQUÉS ALONSO MTNEZ.,Avda   Juan de Austria 3,40.4860630194587,-3.3571365410329,B3,http://www.crtm.es,0,,Europe/Madrid,2
par_8_07032,07032,AV.JUAN DE AUSTRIA-DIEGO DE URBINA,Avda  Juan de Austria 9,40.4864382331781,-3.3552388736227,B3,http://www.crtm.es,0,,Europe/Madrid,2
par_8_07033,07033,AV.JUAN DE AUSTRIA-GALERÍA COMERCIAL,Avda   Juan de Austria 16,40.4864467703779,-3.35539230705172,B3,http://www.crtm.es,0,,Europe/Madrid,2
par_8_07034,07034,AV.JUAN DE AUSTRIA-CORUÑA,Avda   Juan de Austria 22,40.4869583133041,-3.35309416158767,B3,http://www.crtm.es,0,,Europe/Madrid,2
par_8_07035,07035,AV.JUAN DE AUSTRIA-PONTEVEDRA,Avda   Juan de Austria 22,40.4868677569357,-3.35324707638702,B3,http://www.crtm.es,0,,Europe/Madrid,2
par_8_07039,07039,AV.LOPE DE FIGUEROA-PZA.RGUEZ.DE HITA,Avda de Lope de Figueroa 16,40.4872198190134,-3.35005132683818,B3,http://www.crtm.es,0,,Europe/Madrid,2
par_8_09447,09447,SAN VIDAL-RONDA FISCAL,Calle  San Vidal 30,40.472268645345,-3.37196258561995,B3,http://www.crtm.es,0,,Europe/Madrid,2
par_8_09448,09448,SAN VIDAL-PARQUE,Calle   San Vidal 6,40.4740733177664,-3.37386005436889,B3,http://www.crtm.es,0,,Europe/Madrid,2
par_8_09449,09449,SAN VIDAL-IGLESIA,Calle  San Vidal 2,40.4755728868559,-3.37537841368484,B3,http://www.crtm.es,0,,Europe/Madrid,2
par_8_09450,09450,NUÑEZ DE GUZMÁN-SAN FRUCTUOSO,Calle   Licenciado Madrid 13,40.4769183628267,-3.37717911755182,B3,http://www.crtm.es,0,,Europe/Madrid,2
par_8_09451,09451,NÚÑEZ DE GUZMÁN-VICENTE ESPINEL,Calle   Núñez de Guzmán 9,40.4779454046704,-3.3744006278514,B3,http://www.crtm.es,0,,Europe/Madrid,2
par_8_09456,09456,AV.LOPE DE FIGUEROA-ÁVILA,Avda  Lope de Figueroa 54,40.4897026320092,-3.345273557025,B3,http://www.crtm.es,0,,Europe/Madrid,2
par_8_09457,09457,ÁVILA-CºESGARAVITA,Calle   Ávila 69,40.4921216800865,-3.34672556858386,B3,http://www.crtm.es,0,,Europe/Madrid,2
par_8_09458,09458,ÁVILA-CºESGARAVITA,Calle   Ávila 69,40.4920132208607,-3.34684301118538,B3,http://www.crtm.es,0,,Europe/Madrid,2
par_8_09459,09459,ÁVILA-AV.LOPE DE FIGUEROA,Calle   Ávila 23,40.4901263613039,-3.34516953093053,B3,http://www.crtm.es,0,,Europe/Madrid,2
par_8_09460,09460,AV.JUAN DE AUSTRIA-PZA.RGUEZ.DE HITA,Avda de Juan de Austria 19,40.4876333284706,-3.35034845824709,B3,http://www.crtm.es,0,,Europe/Madrid,2
par_8_09466,09466,NÚÑEZ DE GUZMÁN-DEMETRIO DUCAS,Calle   Núñez de Guzmán 12,40.4780626331588,-3.37436588617162,B3,http://www.crtm.es,0,,Europe/Madrid,2
par_8_09467,09467,NÚÑEZ DE GUZMÁN-SAN FRUCTUOSO,Calle  Núñez de Guzmán 68,40.4769518157327,-3.37796973336761,B3,http://www.crtm.es,0,,Europe/Madrid,2
par_8_09468,09468,SAN FRUCTUOSO-IGLESIA,Calle   San Fructuoso 2,40.4757866809145,-3.37612283037851,B3,http://www.crtm.es,0,,Europe/Madrid,2
par_8_09469,09469,SAN VIDAL-COLEGIO,Calle  San Vidal 6,40.4740814867689,-3.37411963236293,B3,http://www.crtm.es,0,,Europe/Madrid,2
par_8_09470,09470,SAN VIDAL-RONDA FISCAL,Calle  San Vidal 30,40.47221390921,-3.37217462263875,B3,http://www.crtm.es,0,,Europe/Madrid,2
par_8_12056,12056,RÍO ARLANZA-RÍO ZÁNCARA,Calle  Río Arlanza 7,40.4698882475441,-3.36979074564931,B3,http://www.crtm.es,0,,Europe/Madrid,2
par_8_12057,12057,RÍO ARLANZA-INSTITUTO,Calle  Río Arlanza 27,40.4675903859775,-3.36714767741278,B3,http://www.crtm.es,0,,Europe/Madrid,2
par_8_12059,12059,RÍO ARLANZA-RÍO TURIA,Calle  Río Arlanza 26,40.4703737774875,-3.37008831623831,B3,http://www.crtm.es,0,,Europe/Madrid,2
par_8_17584,17584,AV.LOPE DE FIGUEROA-FERNANDO FLANDES,Avda  Lope de Figueroa 53,40.4890373142007,-3.34783065270595,B3,http://www.crtm.es,0,,Europe/Madrid,2
par_8_20555,20555,AV.MIGUEL DE UNAMUNO-AV.MECO,Avda   Miguel de Unamuno 25,40.4971582162254,-3.35543702157529,B3,http://www.crtm.es,0,,Europe/Madrid,0
par_8_20556,20556,AV.MIGUEL DE UNAMUNO-AV.MECO,Avda   Miguel de Unamuno 25,40.4970051038264,-3.35542441258057,B3,http://www.crtm.es,0,,Europe/Madrid,0
par_8_20557,20557,ÁVILA-AVIACIÓN ESPAÑOLA,Calle   Ávila 36,40.4961532510764,-3.3511716257819,B3,http://www.crtm.es,0,,Europe/Madrid,0
par_8_20558,20558,ÁVILA-AVIACIÓN ESPAÑOLA,Calle   Ávila 36,40.4960537244184,-3.35131271637247,B3,http://www.crtm.es,0,,Europe/Madrid,0
par_8_20795,20795,AV.MIGUEL DE UNAMUNO-CC ALCALÁ MAGNA,Avda   Miguel de Unamuno 25,40.496108221661,-3.35995118720224,B3,http://www.crtm.es,0,,Europe/Madrid,0
par_8_20906,20906,NÚÑEZ DE GUZMÁN-HERNÁN CORTÉS,Calle   Hernán Cortés 27,40.475669719946,-3.38157249203265,B3,http://www.crtm.es,0,,Europe/Madrid,0
par_8_06969,06969,GRAN CANAL-MURANO,Calle  Gran Canal 14,40.4773615614127,-3.36255267892748,B3,http://www.crtm.es,0,,Europe/Madrid,2
par_8_06976,06976,PZA.PUERTA DEL VADO-PºLAS MORERAS,Plaza   Puerta del Vado 3,40.4770779356271,-3.366786443771,B3,http://www.crtm.es,0,,Europe/Madrid,2
par_8_06977,06977,RONDA PESCADERÍA-RÍO TORMES,Ronda de la Pescadería 9,40.4782901535993,-3.36520035433068,B3,http://www.crtm.es,0,,Europe/Madrid,2
par_8_06983,06983,PºCURAS-JUZGADOS,Calle   El Toboso 2,40.4774052920396,-3.36866403149405,B3,http://www.crtm.es,0,,Europe/Madrid,2
par_8_06984,06984,PºCURAS-IGLESIA,Paseo de los Curas 23,40.4776107236611,-3.36921964048425,B3,http://www.crtm.es,0,,Europe/Madrid,2
par_8_06985,06985,AV.REYES CATÓLICOS-MATEO ALEMÁN,Avda   Reyes Católicos 4,40.4780488117252,-3.37306806957723,B3,http://www.crtm.es,0,,Europe/Madrid,2
par_8_06986,06986,AV.REYES CATÓLICOS-GRAN CAPITÁN,Avda de los Reyes Católicos 19,40.4771904637641,-3.37384195230664,B3,http://www.crtm.es,0,,Europe/Madrid,2
par_8_06989,06989,AV.REYES CATÓLICOS-SAN FRUCTUOSO,Avda   Reyes Católicos 24,40.475904945944,-3.3757695725704,B3,http://www.crtm.es,0,,Europe/Madrid,2
par_8_06990,06990,AV.REYES CATÓLICOS-CRISTÓBAL COLÓN,Avda   Reyes Católicos 27,40.475552798633,-3.37601535046757,B3,http://www.crtm.es,0,,Europe/Madrid,2
par_8_06991,06991,AV.REYES CATÓLICOS-DONCEL,Avda   Reyes Católicos 34,40.4746297147763,-3.37729607786162,B3,http://www.crtm.es,0,,Europe/Madrid,2
par_8_06992,06992,AV.REYES CATÓLICOS-ALEGRÍA,Avda  Reyes Católicos 42,40.4740234679288,-3.378106672556,B3,http://www.crtm.es,0,,Europe/Madrid,2
par_8_06993,06993,AV.REYES CATÓLICOS-HERNÁN CORTÉS,Avda   Reyes Católicos 58,40.4728718074749,-3.380400574432,B3,http://www.crtm.es,0,,Europe/Madrid,2
par_8_06994,06994,AV.REYES CATÓLICOS-VIVEROS DE ALCALÁ,Avda   Reyes Católicos 54,40.472927218146,-3.37998800133655,B3,http://www.crtm.es,0,,Europe/Madrid,2
par_8_06995,06995,AV.NUESTRA SRA.BELÉN-COLEGIO,Avda   Nuestra Señora de Belén 9,40.4741980173756,-3.38255510532369,B3,http://www.crtm.es,0,,Europe/Madrid,2
par_8_06996,06996,AV.NUESTRA SRA.BELÉN-COLEGIO,Avda   Nuestra Señora de Belén 14,40.4741535591439,-3.38237789873802,B3,http://www.crtm.es,0,,Europe/Madrid,2
par_8_07000,07000,ALFONSO DE ALCALÁ-INSTITUTO,Calle   Alfonso de Alcalá 11,40.4772769002681,-3.38320964561307,B3,http://www.crtm.es,0,,Europe/Madrid,2
par_8_07001,07001,CºJUNCAL-AV.NUESTRA SRA.DE BELÉN,Cmno del Juncal 4,40.4753677098235,-3.38299823910504,B3,http://www.crtm.es,0,,Europe/Madrid,2
par_8_07002,07002,ÁVILA-ZARAGOZA,Calle   Ávila 20,40.4874126663451,-3.34281937021161,B3,http://www.crtm.es,0,,Europe/Madrid,2
par_8_07003,07003,CUENCA-SORIA,Calle  Cuenca 11,40.4850916167834,-3.34172206422693,B3,http://www.crtm.es,0,,Europe/Madrid,2
par_8_07004,07004,AV.VIRGEN DEL VAL-PISCINAS,Avda   Virgen del Val 6,40.4837641577823,-3.34580946070004,B3,http://www.crtm.es,0,,Europe/Madrid,2
par_8_07005,07005,AV.VIRGEN DEL VAL-PISCINAS,Avda   Virgen del Val 6,40.4837024721938,-3.34534899754359,B3,http://www.crtm.es,0,,Europe/Madrid,2
par_8_07007,07007,VALLADOLID-C.C.EL VAL,Calle   Valladolid 2,40.4851983704402,-3.3482119964797,B3,http://www.crtm.es,0,,Europe/Madrid,2
par_8_07008,07008,AV.CASTILLA-SALAMANACA,Avda de Castilla 27,40.4846518551329,-3.35019136986105,B3,http://www.crtm.es,0,,Europe/Madrid,2
par_8_07015,07015,MARQUÉS ALONSO MARTÍNEZ-DORIA,Calle  Marqués Alonso Martínez 27,40.4835332324609,-3.35658039703197,B3,http://www.crtm.es,0,,Europe/Madrid,2
par_8_07018,07018,AV.GUADALAJARA-DIVINO VALLÉS,Avda  Guadalajara 6,40.485810078835,-3.36026193446091,B3,http://www.crtm.es,0,,Europe/Madrid,2
par_8_07026,07026,AV.GUADALAJARA-BRIHUEGA,Avda   Guadalajara 3,40.4860618458666,-3.36041666817334,B3,http://www.crtm.es,0,,Europe/Madrid,2
par_8_07029,07029,MARQUÉS ALONSO MTNEZ.-AV.JUAN DE AUSTRIA,Calle   Marqués Alonso Martínez 9,40.4852869525658,-3.3575571881093,B3,http://www.crtm.es,0,,Europe/Madrid,2
par_8_07038,07038,AV.CASTILLA-SALAMANCA,Avda de Castilla 2,40.4844639214298,-3.34977743643167,B3,http://www.crtm.es,0,,Europe/Madrid,2
par_8_07045,07045,FERRAZ-GOYA,Calle   Ferraz 4,40.4885924102298,-3.36359246722891,B3,http://www.crtm.es,0,,Europe/Madrid,2
par_8_07413,07413,PZA.PUERTA DEL VADO-PºDE LOS CURAS,Paseo de los Curas SN,40.4774902779302,-3.36743755239833,B3,http://www.crtm.es,0,,Europe/Madrid,2
par_8_09472,09472,CUENCA-SORIA,Calle  Cuenca 11,40.4849472669927,-3.34179212523763,B3,http://www.crtm.es,0,,Europe/Madrid,2
par_8_09473,09473,ÁVILA-LEÓN,Calle  Ávila 18,40.4871081164565,-3.34222785920843,B3,http://www.crtm.es,0,,Europe/Madrid,2
par_8_09474,09474,AV.CASTILLA-C.C.EL VAL,Avda de Castilla 29,40.4854319228761,-3.34843738319615,B3,http://www.crtm.es,0,,Europe/Madrid,2
par_8_10359,10359,AV.MADRID-POLIDEPORTIVO,Avda de Madrid 9,40.4776461561596,-3.38863862347274,B3,http://www.crtm.es,0,,Europe/Madrid,2
par_8_11579,11579,ÁVILA-MURCIA,Calle   Ávila sn,40.4904595094651,-3.34523023696371,B3,http://www.crtm.es,0,,Europe/Madrid,2
par_8_11933,11933,MARQUÉS ALONSO MARTÍNEZ-PºALAMEDA,Calle  Marqués Alonso Martínez 12,40.4834613079216,-3.35653282207539,B3,http://www.crtm.es,0,,Europe/Madrid,2
par_8_11934,11934,AZUCENA-GINER DE LOS RÍOS,Calle  Azucena 6,40.4830115854952,-3.35920870363424,B3,http://www.crtm.es,0,,Europe/Madrid,2
par_8_11935,11935,PZA.PUERTA DE MÁRTIRES-TENIENTE RUIZ,Calle   Teniente Ruiz 1,40.485059848086,-3.36106024593754,B3,http://www.crtm.es,0,,Europe/Madrid,2
par_8_12691,12691,AV.MADRID-POLIDEPORTIVO,Avda de Madrid 9,40.4779880916283,-3.38875857144048,B3,http://www.crtm.es,0,,Europe/Madrid,2
par_8_19143,19143,NTRA.SRA.DE BELÉN-CºJUNCAL,Avda   Nuestra Señora de Belén 22,40.4756186250726,-3.38340076992884,B3,http://www.crtm.es,0,,Europe/Madrid,0
par_8_19144,19144,NTRA.SRA.DE BELÉN-DIEGO DE ALCALÁ,Avda   Nuestra Señora de Belén 36,40.4782180770408,-3.3846425141906,B3,http://www.crtm.es,0,,Europe/Madrid,0
par_8_19174,19174,PºALAMEDA-AV. LOPE FIGUEROA,Paseo de la Alameda 21,40.4827276363,-3.35488895458637,B3,http://www.crtm.es,0,,Europe/Madrid,0
par_8_20395,20395,COLEGIOS-SAN PEDRO Y SAN PABLO,Calle   Colegios 3,40.4815335824764,-3.36226836941796,B3,http://www.crtm.es,0,,Europe/Madrid,0
par_8_20397,20397,PZA.PUERTA DE MÁRTIRES-AZUCENA,Plaza   Puerta de Mártires 2,40.4848067547241,-3.36133026258816,B3,http://www.crtm.es,0,,Europe/Madrid,0
par_8_20402,20402,Pº.AGUADORES-RECINTO FERIAL,Paseo de Aguadores 2,40.4800019236966,-3.35942862067734,B3,http://www.crtm.es,0,,Europe/Madrid,0
par_8_20541,20541,CARMEN DESCALZO-SANTO TOMÁS DE AQUINO,Calle   Carmen Descalzo 16,40.4802295280719,-3.36155347807009,B3,http://www.crtm.es,0,,Europe/Madrid,0
par_8_20564,20564,SAN JULIÁN-RONDA PESCADERÍA,Calle   San Julián 3,40.4797449924584,-3.36380428395058,B3,http://www.crtm.es,0,,Europe/Madrid,0
par_8_20565,20565,RONDA PESCADERÍA-LICENCIADO VIDRIERA,Ronda de la Pescadería 30,40.4781814891134,-3.36537673040094,B3,http://www.crtm.es,0,,Europe/Madrid,0
par_8_20566,20566,PºALAMEDA-PºVAL,Paseo de la Alameda 26,40.4825569043206,-3.35474647427938,B3,http://www.crtm.es,0,,Europe/Madrid,0
par_8_20567,20567,AV.CASTILLA-AV.VIRGEN DEL VAL,Avda de Castilla 1,40.482843142962,-3.35247087486829,B3,http://www.crtm.es,0,,Europe/Madrid,0
par_8_20568,20568,AV.CASTILLA-PZA.SEPÚLVEDA,Plaza de Sepúlveda 2,40.4830961798643,-3.35221263094128,B3,http://www.crtm.es,0,,Europe/Madrid,0
par_8_20789,20789,FERNANDO FERNÁN GÓMEZ-EST.LA GARENA,Acces   Posterior 1,40.4797678701871,-3.3926031660242,B3,http://www.crtm.es,0,,Europe/Madrid,0
par_8_20958,20958,BASILIO-PZA. PUERTA AGUADORES,Calle   Basilios SN,40.4816060713246,-3.3592484044919,B3,http://www.crtm.es,0,,Europe/Madrid,0
par_8_20988,20988,RONDA PESCADERÍA-SAN JULIÁN,Ronda de la Pescadería 1,40.4792493989294,-3.36383700214775,B3,http://www.crtm.es,0,,Europe/Madrid,0
par_8_06948,06948,CÁNOVAS DEL CASTILLO-SAGASTA,Calle   Cánovas del Castillo 3,40.4877126439996,-3.36546381261919,B3,http://www.crtm.es,0,,Europe/Madrid,2
par_8_06949,06949,TORRELAGUNA-PARROQUIA,Calle   Torrelaguna 1,40.4869656138144,-3.36807918228135,B3,http://www.crtm.es,0,,Europe/Madrid,2
par_8_06950,06950,TORRELAGUNA-PARROQUIA,Calle   Torrelaguna 2,40.4870283368155,-3.36818571782154,B3,http://www.crtm.es,0,,Europe/Madrid,2
par_8_06960,06960,AV.DAGANZO-GTA.CHORRILLO,Avda   Daganzo 2 A,40.489917755127,-3.37517714500427,B3,http://www.crtm.es,0,,Europe/Madrid,2
par_8_06961,06961,AV.DAGANZO-GTA.DEL CHORRILLO,Avda  Daganzo SN,40.4888801574707,-3.37492346763611,B3,http://www.crtm.es,0,,Europe/Madrid,2
par_8_06964,06964,RÍO MANZANARES-ENTREPEÑAS,Calle  Río Manzanares 11,40.4702400686942,-3.36396531836591,B3,http://www.crtm.es,0,,Europe/Madrid,2
par_8_06965,06965,RÍO MANZANARES-RÍO TORCÓN,Calle  Río Manzanares 7,40.4729779568001,-3.36422783269822,B3,http://www.crtm.es,0,,Europe/Madrid,2
par_8_06967,06967,RONDA FISCAL-PºLAS MORERAS,Calle   Ronda Fiscal 2,40.4749791307881,-3.36384934193945,B3,http://www.crtm.es,0,,Europe/Madrid,2
par_8_06968,06968,RONDA FISCAL-PºLAS MORERAS,Calle   Ronda Fiscal 2,40.4748148169348,-3.36453268506117,B3,http://www.crtm.es,0,,Europe/Madrid,2
par_8_09461,09461,RONDA HENARES-GRAN CANAL,Calle   Ronda del Henares 1 A,40.4762909968647,-3.36207502701488,B3,http://www.crtm.es,0,,Europe/Madrid,2
par_8_10076,10076,CTRA.M300-CEMENTERIO JARDÍN,Ctra   Pastrana (Margen Derecho) 2,40.4630367846748,-3.36273513959868,B3,http://www.crtm.es,0,,Europe/Madrid,2
par_8_11405,11405,ALEJO CARPENTIER-INSTITUTO,Calle   Alejo Carpentier 1,40.4932811648946,-3.3763739024489,B3,http://www.crtm.es,0,,Europe/Madrid,2
par_8_11406,11406,ALEJO CARPENTIER-INSTITUTO,Calle  Alejo Carpentier 1,40.4931979323893,-3.37703425345984,B3,http://www.crtm.es,0,,Europe/Madrid,2
par_8_11407,11407,DÁMASO ALONSO-GTA.JACINTO BENAVENTE,Calle  Dámaso Alonso 11,40.4945391677719,-3.37459905293754,B3,http://www.crtm.es,0,,Europe/Madrid,2
par_8_11408,11408,DÁMASO ALONSO-GTA.JACINTO BENAVENTE,Calle  Dámaso Alonso 11,40.494592454937,-3.37483535992632,B3,http://www.crtm.es,0,,Europe/Madrid,2
par_8_11409,11409,GTA.VICENTE ALEIXANDRE-DÁMASO ALONSO,Gta  Vicente Aleixandre 2,40.4969326558489,-3.3754856346426,B3,http://www.crtm.es,0,,Europe/Madrid,2
par_8_11430,11430,AV.DOCTOR MARAÑÓN-NUEVO BAZTÁN,Avda   Doctor Marañón 8,40.4925651550293,-3.37757563591003,B3,http://www.crtm.es,0,,Europe/Madrid,2
par_8_17074,17074,DÁMASO ALONSO-GTA.VICENTE ALEIXANDRE,Calle  Dámaso Alonso 20,40.4974367226865,-3.37561825621334,B3,http://www.crtm.es,0,,Europe/Madrid,2
par_8_17075,17075,OCTAVIO PAZ-ERNESTO SÁBATO,Calle  Octavio Paz 10,40.4997158259298,-3.37288123470669,B3,http://www.crtm.es,0,,Europe/Madrid,2
par_8_17076,17076,OCTAVIO PAZ-ERNESTO SÁBATO,Calle  Octavio Paz 10,40.499968565137,-3.372729214953,B3,http://www.crtm.es,0,,Europe/Madrid,2
par_8_17077,17077,OCTAVIO PAZ-CARLOS FUENTES,Calle   Octavio Paz 50,40.5011959192718,-3.3692545097802,B3,http://www.crtm.es,0,,Europe/Madrid,2
par_8_17078,17078,OCTAVIO PAZ-CARLOS FUENTES,Calle   Octavio Paz 19,40.5013942243705,-3.36922019199223,B3,http://www.crtm.es,0,,Europe/Madrid,2
par_8_17079,17079,OCTAVIO PAZ-CAMILO JOSÉ CELA,Calle  Octavio Paz 88,40.5025578517996,-3.36592203208262,B3,http://www.crtm.es,0,,Europe/Madrid,2
par_8_17080,17080,OCTAVIO PAZ-CAMILO JOSÉ CELA,Calle  Octavio Paz 88,40.5025660381148,-3.36618171904744,B3,http://www.crtm.es,0,,Europe/Madrid,2
par_8_17081,17081,OCTAVIO PAZ-PABLO NERUDA,Calle   Octavio Paz 29,40.5040304193255,-3.36175205997637,B3,http://www.crtm.es,0,,Europe/Madrid,2
par_8_17082,17082,OCTAVIO PAZ-PABLO NERUDA,Calle  Octavio Paz 130,40.5038923289879,-3.36269549121919,B3,http://www.crtm.es,0,,Europe/Madrid,2
par_8_19256,19256,AV.DOCTOR MARAÑON-NUEVO BAZTÁN,Avda   Doctor Marañón 3,40.4924478572,-3.37774986461438,B3,http://www.crtm.es,0,,Europe/Madrid,0
par_8_19890,19890,SANTO TOMÁS DE AQUINO-JUZGADOS,Calle   Santo Tomás de Aquino 6,40.4803633671099,-3.36196712760751,B3,http://www.crtm.es,0,,Europe/Madrid,0
par_8_19891,19891,TORRELAGUNA-GTA.CHORRILLO,Calle   Torrelaguna 27,40.4887063918936,-3.37305628301206,B3,http://www.crtm.es,0,,Europe/Madrid,0
par_8_20538,20538,AV.DAGANZO-AV.AJALVIR,Calle de Antonio Cabezón 1,40.4902820631913,-3.37610935083586,B3,http://www.crtm.es,0,,Europe/Madrid,0
par_8_20563,20563,TORRELAGUNA-LUIS MIGUEL DOMINGUÍN,Calle   Torrelaguna 19,40.4882062363295,-3.3717083803476,B3,http://www.crtm.es,0,,Europe/Madrid,0
par_8_20574,20574,PºPASTRANA-RÍO TORCÓN,Paseo de Pastrana 37,40.4731697381103,-3.36625791555195,B3,http://www.crtm.es,0,,Europe/Madrid,0
par_8_20575,20575,PºPASTRANA-ENTREPEÑAS,Paseo de Pastrana 38,40.4701167719291,-3.36592282992178,B3,http://www.crtm.es,0,,Europe/Madrid,0
par_8_06952,06952,ALALPARDO-CONSERVATORIO,Calle  Alalpardo 2,40.4907984817843,-3.36962230690364,B3,http://www.crtm.es,0,,Europe/Madrid,2
par_8_06953,06953,ALALPARDO-CLUB DE JUBILADOS,Calle   Alalpardo 1,40.4902347584253,-3.37123578229704,B3,http://www.crtm.es,0,,Europe/Madrid,2
par_8_06954,06954,SAN JUAN DEL VISO-SAN IGNACIO DE LOYOLA,Calle  San Juan del Viso 3,40.4898058772181,-3.37293257481734,B3,http://www.crtm.es,0,,Europe/Madrid,2
par_8_07024,07024,SEBASTIÁN DE LA PLAZA-ERAS DE SAN ISIDRO,Calle  Sebastián de la Plaza 7,40.4863150499521,-3.36299022308056,B3,http://www.crtm.es,0,,Europe/Madrid,2
par_8_07036,07036,AV.JUAN DE AUSTRIA-AV.LOPE DE FIGUEROA,Avda   Juan de Austria 30,40.4871165330834,-3.35143129978738,B3,http://www.crtm.es,0,,Europe/Madrid,2
par_8_11572,11572,AV.JESUITAS-PADRE LLANOS,Avda   Jesuitas 1,40.4930493322662,-3.36722740399441,B3,http://www.crtm.es,0,,Europe/Madrid,2
par_8_11573,11573,AV.MIGUEL DE UNAMUNO-VILCHES,Calle   Vilches 16,40.4946037373443,-3.36569000831943,B3,http://www.crtm.es,0,,Europe/Madrid,2
par_8_11574,11574,AV.MIGUEL DE UNAMUNO-PZA.PAZ,Avda  Miguel de Unamuno 81,40.4951520024182,-3.36323845353452,B3,http://www.crtm.es,0,,Europe/Madrid,2
par_8_11575,11575,BELVIS DEL JARAMA-COLEGIO,Calle   Belvis del Jarama 10,40.4931434250742,-3.36023035078385,B3,http://www.crtm.es,0,,Europe/Madrid,2
par_8_11576,11576,AV.ALCARRIA-BELVÍS DEL JARAMA,Avda de la Alcarria 9,40.49214926859,-3.36411906944107,B3,http://www.crtm.es,0,,Europe/Madrid,2
par_8_11577,11577,VALDETORRES-TORREJÓN DE ARDOZ,Calle   Valdetorres 1,40.4904866295353,-3.36570305759326,B3,http://www.crtm.es,0,,Europe/Madrid,2
par_8_12435,12435,E.PASCUAL Y CUÉLLAR-CENTRO DE JUBILADOS,Calle   Eduardo Pascual y Cuéllar 10,40.4890807138299,-3.36870431554717,B3,http://www.crtm.es,0,,Europe/Madrid,2
par_8_12436,12436,LEÓN MARCHANTE-ZULEMA,Calle   León Marchante SN,40.4890094936441,-3.37125262960314,B3,http://www.crtm.es,0,,Europe/Madrid,2
par_8_07050,07050,AV.DAGANZO-AV.DOCTOR MARAÑÓN,Avda   Daganzo 10,40.4919405881735,-3.37859662477581,B3,http://www.crtm.es,0,,Europe/Madrid,2
par_8_07051,07051,CTRA.DAGANZO-ESCUELA INFANTIL,Ctra   Daganzo (Margen Izquierdo) 11,40.4935521458783,-3.38165017239575,B3,http://www.crtm.es,0,,Europe/Madrid,2
par_8_07056,07056,CHILE-POL.IND.AZQUE,Calle  Chile 2,40.5041093084295,-3.39804424388538,B3,http://www.crtm.es,0,,Europe/Madrid,2
par_8_07057,07057,CHILE-BOLIVIA,Calle  Chile 11,40.5056928441627,-3.3960117776696,B3,http://www.crtm.es,0,,Europe/Madrid,2
par_8_07058,07058,PERÚ-CHILE,Calle  Perú 37,40.5083364551237,-3.39746728570015,B3,http://www.crtm.es,0,,Europe/Madrid,2
par_8_07059,07059,PERÚ-POL.IND.AZQUE,Calle  Perú 41 A,40.5067687066245,-3.40013723424947,B3,http://www.crtm.es,0,,Europe/Madrid,2
par_8_09687,09687,PZA.ESTACIÓN-EST.ALCALÁ DE HENARES,Plaza de la Estación SN,40.4892098116481,-3.36492915311212,B3,http://www.crtm.es,0,,Europe/Madrid,2
par_8_12246,12246,AV.ALCARRIA-BELVÍS DEL JARAMA,Avda de la Alcarria 10,40.492438477508,-3.3638256288187,B3,http://www.crtm.es,0,,Europe/Madrid,2
par_8_12247,12247,AV.ALCARRIA-PZA.PAZ,Avda de la Alcarria 16,40.4949734213014,-3.36273006462976,B3,http://www.crtm.es,0,,Europe/Madrid,2
par_8_12248,12248,AV.MIGUEL DE UNAMUNO-AV.JESUITAS,Avda   Miguel de Unamuno 23,40.4950153354995,-3.36657728855575,B3,http://www.crtm.es,0,,Europe/Madrid,2
par_8_12358,12358,VILLALBILLA-MERCADO,Calle  Villalbilla SN,40.491482340111,-3.37268225598101,B3,http://www.crtm.es,0,,Europe/Madrid,2
par_8_12360,12360,VILLALBILLA-MERCADO,Calle  Villalbilla SN,40.4915279544308,-3.37250550840613,B3,http://www.crtm.es,0,,Europe/Madrid,2
par_8_12433,12433,ALEJO CARPENTIER-MIGUEL DELIBES,Calle   Alejo Carpentier 23,40.4950236860822,-3.37241863518073,B3,http://www.crtm.es,0,,Europe/Madrid,2
par_8_12434,12434,ALEJO CARPENTIER-MIGUEL DELIBES,Calle   Alejo Carpentier 20,40.4948979060115,-3.37231173445361,B3,http://www.crtm.es,0,,Europe/Madrid,2
par_8_12922,12922,CTRA.DAGANZO-ESCUELA INFANTIL,Ctra   Daganzo (Margen Derecho) 4,40.4936340814189,-3.38139102866381,B3,http://www.crtm.es,0,,Europe/Madrid,2
par_8_18335,18335,CTRA.M100-POL.IND.CAMPORROSO,Bulev de Buenos Aires 2,40.512956591211,-3.40565095303001,B3,http://www.crtm.es,0,,Europe/Madrid,0
par_8_18337,18337,CTRA.M100-POL.IND.LA PEÑA,Ctra   Daganzo (Margen Izquierdo) 5000,40.5045100982361,-3.39938026907651,B3,http://www.crtm.es,0,,Europe/Madrid,0
par_8_18341,18341,CTRA.M100-POL.IND.BAÑUELOS,Ctra   Daganzo (Margen Izquierdo) 5100,40.5072336391758,-3.40115503322351,B3,http://www.crtm.es,0,,Europe/Madrid,0
par_8_18372,18372,CTRA.DAGANZO-MÉXICO,Ctra   Daganzo (Margen Derecho) 4,40.4977059293824,-3.38954502683672,B3,http://www.crtm.es,0,,Europe/Madrid,0
par_8_18373,18373,CTRA.DAGANZO-MÉXICO,Ctra   Daganzo (Margen Derecho) 4,40.4975252379578,-3.38969739527723,B3,http://www.crtm.es,0,,Europe/Madrid,0
par_8_18374,18374,CTRA.DAGANZO-PZA.PANAMÁ,Ctra de Daganzo (Margen Derecho) 4,40.5001107242789,-3.39502302908909,B3,http://www.crtm.es,0,,Europe/Madrid,0
par_8_18375,18375,CTRA.DAGANZO-PZA.PANAMÁ,Ctra   Daganzo (Margen Izquierdo) 5000,40.4998664805036,-3.39531663269381,B3,http://www.crtm.es,0,,Europe/Madrid,0
par_8_20155,20155,BULEV.BUENOS AIRES-BANCO DE ALIMENTOS,Bulev de Buenos Aires 4,40.5111675171492,-3.40971235508645,B3,http://www.crtm.es,0,,Europe/Madrid,0
par_8_20235,20235,MÉXICO-CºEL OLIVAR,Calle   México 1,40.4992063382155,-3.38807853835192,B3,http://www.crtm.es,0,,Europe/Madrid,0
par_8_20236,20236,MÉXICO-REPÚBLICA DOMINICANA,Calle   México 1,40.4991893111456,-3.38778340687395,B3,http://www.crtm.es,0,,Europe/Madrid,0
par_8_20237,20237,AV.PASIONISTAS-PZA.GUATEMALA,Avda de Pasionistas 1,40.5010101994011,-3.38476086721549,B3,http://www.crtm.es,0,,Europe/Madrid,0
par_8_20238,20238,AV.PASIONISTAS-PZA.GUATEMALA,Avda de Pasionistas 1,40.5011548887387,-3.3845964704032,B3,http://www.crtm.es,0,,Europe/Madrid,0
par_8_20239,20239,AV.PASIONISTAS-HONDURAS,Avda de Pasionistas 1,40.5040133184516,-3.38651294767613,B3,http://www.crtm.es,0,,Europe/Madrid,0
par_8_20240,20240,AV.PASIONISTAS-HONDURAS,Avda de Pasionistas 1,40.5041398744403,-3.38638384991433,B3,http://www.crtm.es,0,,Europe/Madrid,0
par_8_20241,20241,HONDURAS-CºEL OLIVAR,Calle   Honduras 1,40.5029192224884,-3.39038952151355,B3,http://www.crtm.es,0,,Europe/Madrid,0
par_8_21183,21183,HONDURAS-CºEL OLIVAR,Calle   Honduras 26,40.5030111819784,-3.38983536048388,B3,http://www.crtm.es,0,,Europe/Madrid,0
par_8_21184,21184,HONDURAS-AV.DAGANZO,Calle   Honduras 28,40.4998015372668,-3.39322739654521,B3,http://www.crtm.es,0,,Europe/Madrid,0
par_8_21185,21185,HONDURAS-AV.DAGANZO,Calle   Honduras 28,40.4997827968689,-3.39343971298755,B3,http://www.crtm.es,0,,Europe/Madrid,0
par_8_12242,12242,VÍA COMPLUTENSE-BRIHUEGA,Calle   Vía Complutense 47,40.4866256713867,-3.36111760139465,B3,http://www.crtm.es,0,,Europe/Madrid,2
par_8_12243,12243,VÍA COMPLUTENSE-BRIHUEGA,Calle   Vía Complutense 40,40.4864311218262,-3.36082172393799,B3,http://www.crtm.es,0,,Europe/Madrid,2
par_8_12256,12256,JOSÉ MªPEREDA-PZA.JOSÉ ESPRONCEDA,Calle   José María Pereda 36,40.5015643104214,-3.36673095427798,B3,http://www.crtm.es,0,,Europe/Madrid,2
par_8_12257,12257,JOSÉ MªPEREDA-PZA.JOSÉ ESPRONCEDA,Calle   José María Pereda 51,40.5015194914629,-3.36665989971168,B3,http://www.crtm.es,0,,Europe/Madrid,2
par_8_12258,12258,AV.BENITO PÉREZ GALDÓS-PÍO BAROJA,Avda   Benito Pérez Galdós 3,40.5054652240161,-3.36953757613395,B3,http://www.crtm.es,0,,Europe/Madrid,2
par_8_12260,12260,AV.BENITO P.GALDÓS-LEOPOLDO ALAS CLARÍN,Avda   Benito Pérez Galdós 15,40.5094680786133,-3.36924266815186,B3,http://www.crtm.es,0,,Europe/Madrid,2
par_8_13191,13191,JOSÉ MARÍA PEREDA-PZA.CARLOS ARNICHES,Calle   José María Pereda 26,40.4999656677246,-3.36547327041626,B3,http://www.crtm.es,0,,Europe/Madrid,2
par_8_13192,13192,JOSÉ MARÍA PEREDA-PZA.CARLOS ARNICHES,Calle  José María Pereda 31,40.4993438720703,-3.36544609069824,B3,http://www.crtm.es,0,,Europe/Madrid,2
par_8_15040,15040,GOYA-FERRAZ,Calle   Goya 7,40.4887625366532,-3.36392377174387,B3,http://www.crtm.es,0,,Europe/Madrid,2
par_8_20401,20401,Pº.AGUADORES-RECINTO FERIAL,Paseo de Aguadores 2,40.4799933184357,-3.35929879702193,B3,http://www.crtm.es,0,,Europe/Madrid,0
par_8_20528,20528,AV.VÍCTIMAS DEL T.-S.GARCÉS EL MAYOR,Avda   Víctimas del Terrorismo 1,40.5130799239504,-3.36601463704434,B3,http://www.crtm.es,0,,Europe/Madrid,0
par_8_20529,20529,AV.VÍCTIMAS DEL T.-S.GARCÉS EL MAYOR,Avda   Víctimas del Terrorismo 1,40.5128905166734,-3.36608442958289,B3,http://www.crtm.es,0,,Europe/Madrid,0
par_8_20530,20530,AV.VÍCTIMAS DEL TERRORISMO-ALFONSO VI,Avda   Víctimas del Terrorismo 1,40.5119937611312,-3.36191288745412,B3,http://www.crtm.es,0,,Europe/Madrid,0
par_8_20531,20531,AV.VÍCTIMAS DEL TERRORISMO-ALFONSO VI,Avda   Víctimas del Terrorismo 1,40.5118222257807,-3.36203000075857,B3,http://www.crtm.es,0,,Europe/Madrid,0
par_8_20532,20532,AV.VÍCTIMAS DEL TERRORISMO-ALFONSO VII,Avda   Víctimas del Terrorismo 1,40.5107867145051,-3.35897916152906,B3,http://www.crtm.es,0,,Europe/Madrid,0
par_8_20533,20533,AV.VÍCTIMAS DEL TERRORISMO-SANCHO III,Avda   Víctimas del Terrorismo 1,40.5106421348761,-3.35912003072447,B3,http://www.crtm.es,0,,Europe/Madrid,0
par_8_20536,20536,BENITO PÉREZ GALDÓS-ROSALÍA DE CASTRO,Avda   Benito Pérez Galdós 7,40.5073639480105,-3.37020895278681,B3,http://www.crtm.es,0,,Europe/Madrid,0
par_8_20559,20559,JOSÉ MARÍA PEREDA-AV.JESUITAS,Calle   José María Pereda 4,40.4964944902499,-3.36318668931552,B3,http://www.crtm.es,0,,Europe/Madrid,0
par_8_20560,20560,JOSÉ MARÍA PEREDA-AV.JESUITAS,Calle   José María Pereda 3,40.4964576762358,-3.36343430888174,B3,http://www.crtm.es,0,,Europe/Madrid,0
par_8_09657,09657,PZA.ZORITA-CENTRO COMERCIAL,Plaza  Zorita SN,40.5031455249058,-3.33243104788471,B3,http://www.crtm.es,0,,Europe/Madrid,2
par_8_09685,09685,VÍA COMPLUTENSE-VARSOVIA,Calle   Vía Complutense 146,40.4982737106733,-3.34102186396305,B3,http://www.crtm.es,0,,Europe/Madrid,2
par_8_09686,09686,VÍA COMPLUTENSE-VARSOVIA,Calle   Vía Complutense 146,40.4983090838475,-3.34124626568566,B3,http://www.crtm.es,0,,Europe/Madrid,2
par_8_10066,10066,LUIS ASTRANA MARÍN-PARQUE O´DONNELL,Calle  Luis Astrana Marín 10,40.4849853515625,-3.36984014511108,B3,http://www.crtm.es,0,,Europe/Madrid,2
par_8_11130,11130,CTRA.A2-C.C.LA DEHESA,Ctra   Naciona II (Margen Derecho) 34,40.5043116862942,-3.33103233825548,B3,http://www.crtm.es,0,,Europe/Madrid,2
par_8_12655,12655,LUIS ASTRANA MARÍN-ANDRÉS LLORENTE,Calle   Luis Astrana Marín 12,40.4855079650879,-3.37020874023438,B3,http://www.crtm.es,0,,Europe/Madrid,2
par_8_12681,12681,AV.JUAN CARLOS I-EST.LA GARENA,Avda   Juan Carlos I 16,40.4825057983398,-3.39548826217651,B3,http://www.crtm.es,0,,Europe/Madrid,2
par_8_12682,12682,AV.JUAN CARLOS I-EST.LA GARENA,Avda   Juan Carlos I 16,40.4823263513097,-3.39526090881321,B3,http://www.crtm.es,0,,Europe/Madrid,2
par_8_12683,12683,AV.JUAN CARLOS I-ALEJANDRO MALASPINA,Avda   Juan Carlos I 10,40.4838752746582,-3.39241695404053,B3,http://www.crtm.es,0,,Europe/Madrid,2
par_8_12684,12684,AV.JUAN CARLOS I-AGUSTÍN DE BETHENCOURT,Avda  Juan Carlos I 7,40.4833899016251,-3.39247088739168,B3,http://www.crtm.es,0,,Europe/Madrid,2
par_8_12685,12685,AV.JUAN CARLOS I-PZA.JESÚS GURIDI,Avda  Juan Carlos I 1,40.4857025146484,-3.38790845870972,B3,http://www.crtm.es,0,,Europe/Madrid,2
par_8_12686,12686,AV.JUAN CARLOS I-PZA.JESÚS GURIDI,Avda  Juan Carlos I 1,40.4855238332189,-3.38748056652483,B3,http://www.crtm.es,0,,Europe/Madrid,2
par_8_12687,12687,AV.EUROPA-FEDERICO CHUECA,Avda de Europa 4,40.4872093200684,-3.38447165489197,B3,http://www.crtm.es,0,,Europe/Madrid,2
par_8_12688,12688,AV.EUROPA-FEDERICO CHUECA,Avda de Europa 4,40.4870475446508,-3.38442153547764,B3,http://www.crtm.es,0,,Europe/Madrid,2
par_8_12694,12694,AV.JUAN CARLOS I-C.C.ALCALÁ DE HENARES,Avda   Juan Carlos I 24,40.4807777404785,-3.39980816841125,B3,http://www.crtm.es,0,,Europe/Madrid,2
par_8_12782,12782,VÍA COMPLUTENSE-BARRIO LEDESMA,Calle  Vía Complutense 111,40.4918746948242,-3.35139894485474,B3,http://www.crtm.es,0,,Europe/Madrid,2
par_8_12783,12783,VÍA COMPLUTENSE-BARRIO LEDESMA,Calle  Vía Complutense 118,40.4917106628418,-3.35115027427673,B3,http://www.crtm.es,0,,Europe/Madrid,2
par_8_12784,12784,VÍA COMPLUTENSE-TUY,Calle  Vía Complutense 103,40.4895095825195,-3.35506796836853,B3,http://www.crtm.es,0,,Europe/Madrid,2
par_8_12785,12785,VÍA COMPLUTENSE-TUY,Calle   Vía Complutense 78,40.4893569946289,-3.35486674308777,B3,http://www.crtm.es,0,,Europe/Madrid,2
par_8_12786,12786,VÍA COMPLUTENSE-AV.CABALLERÍA ESPAÑOLA,Avda   Caballería Española 1,40.4875994263144,-3.35846620794556,B3,http://www.crtm.es,0,,Europe/Madrid,2
par_8_12787,12787,VÍA COMPLUTENSE-AV.CABALLERÍA ESPAÑOLA,Calle   Vía Complutense 61,40.4873377696815,-3.35859460769262,B3,http://www.crtm.es,0,,Europe/Madrid,2
par_8_12788,12788,AV.AJALVIR-AMADEO VIVES,Avda  Ajalvir 10,40.4894371032715,-3.37841939926147,B3,http://www.crtm.es,0,,Europe/Madrid,2
par_8_12789,12789,AV.AJALVIR-AMADEO VIVES,Avda  Ajalvir 10,40.4893476952886,-3.37808646927334,B3,http://www.crtm.es,0,,Europe/Madrid,2
par_8_13187,13187,VÍA COMPLUTENSE-FORMACIÓN PROFESIONAL,Calle   Vía Complutense 142,40.4951607433188,-3.34570275624413,B3,http://www.crtm.es,0,,Europe/Madrid,2
par_8_13188,13188,VÍA COMPLUTENSE-FORMACIÓN PROFESIONAL,Calle  Vía Complutense 140,40.4950681818542,-3.34652832464185,B3,http://www.crtm.es,0,,Europe/Madrid,2
par_8_17271,17271,VÍA COMPLUTENSE-CTRA.A2,Calle  Vía Complutense 146,40.5006906822804,-3.33706876309773,B3,http://www.crtm.es,0,,Europe/Madrid,2
par_8_20526,20526,DOÑA INÉS ULLOA-EST.ALCALÁ UNIVERSIDAD,Calle   Doña Inés de Ulloa 1,40.5054206848145,-3.33415508270264,B3,http://www.crtm.es,0,,Europe/Madrid,0
par_8_20539,20539,AV.CARLOS III-BLAS CABRERA,Avda   Carlos III 1,40.4877242877114,-3.40520400685961,B3,http://www.crtm.es,0,,Europe/Madrid,0
par_8_20540,20540,AV.CARLOS III-GALILEO GALILEI,Avda   Carlos III 1,40.4854284023428,-3.40222867041483,B3,http://www.crtm.es,0,,Europe/Madrid,0
par_8_20905,20905,UCEDA-VIA SERVICIO A-2,Calle  Nacional II (Margen Derecho) 35900,40.5087030521836,-3.32324033445594,B3,http://www.crtm.es,0,,Europe/Madrid,0
par_8_07011,07011,AV.LOPE DE FIGUEROA-COLEGIO,Avda  Lope de Figueroa 27 A,40.4850054636528,-3.35241139285259,B3,http://www.crtm.es,0,,Europe/Madrid,2
par_8_07013,07013,AV.LOPE DE FIGUEROA-PZA.JUVENTUD,Avda  Lope de Figueroa 1,40.4828014801788,-3.35431121842382,B3,http://www.crtm.es,0,,Europe/Madrid,2
par_8_12692,12692,AV.CARLOS III-GTA.FELIPE IV,Avda   Carlos III SN,40.4804282499059,-3.39707847292622,B3,http://www.crtm.es,0,,Europe/Madrid,2
par_8_15629,15629,GTA.FERNANDO VII-EST.LA GARENA,Rtda   Fernando VII S/N,40.4810450248343,-3.39322411062178,B3,http://www.crtm.es,0,,Europe/Madrid,2
par_8_18805,18805,PºPASTRANA-RONDA FISCAL,Paseo de Pastrana 35,40.4747641038143,-3.36632556414709,B3,http://www.crtm.es,0,,Europe/Madrid,0
par_8_20087,20087,AV.MADRID-ANTONIO SUÁREZ,Avda de Madrid 44,40.4767855772218,-3.39270376753438,B3,http://www.crtm.es,0,,Europe/Madrid,0
par_8_20518,20518,UNIV.ALCALÁ-AMBIENTALES,Ctra de Meco 700,40.5093061713875,-3.34520883427765,B3,http://www.crtm.es,0,,Europe/Madrid,0
par_8_20520,20520,UNIV.ALCALÁ-HOSPITAL ENTRADA SERVICIOS,Ctra de Meco 600,40.5085177112449,-3.34677458742693,B3,http://www.crtm.es,0,,Europe/Madrid,0
par_8_20521,20521,UNIV.ALCALÁ-TALLER DE JARDINERÍA,Ctra de Meco 600,40.5085729404143,-3.34336380834106,B3,http://www.crtm.es,0,,Europe/Madrid,0
par_8_20524,20524,UNIV.ALCALÁ-JARDÍN BOTÁNICO,Calle   Campus Universitario 1,40.5054374093752,-3.34046802256029,B3,http://www.crtm.es,0,,Europe/Madrid,0
par_8_20525,20525,DOÑA INÉS ULLOA-EST.ALCALÁ UNIVERSIDAD,Calle   Doña Inés de Ulloa 1,40.5055194810164,-3.33395348277364,B3,http://www.crtm.es,0,,Europe/Madrid,0
par_8_20542,20542,RONDA FISCAL-LUIS VIVES,Calle   Ronda Fiscal 16,40.4739240051659,-3.36704061025783,B3,http://www.crtm.es,0,,Europe/Madrid,0
par_8_20544,20544,PASEO DEL VAL-MANUEL MERINO,Paseo del Val 13,40.4820899352272,-3.35718627358194,B3,http://www.crtm.es,0,,Europe/Madrid,0
par_8_20807,20807,AV.LOPE DE FIGUEROA-PZA.RGUEZ DE HITA,Avia de Lope de Figueroa 0,40.4873082972837,-3.35058275327867,B3,http://www.crtm.es,0,,Europe/Madrid,0
par_8_07014,07014,AV.LOPE DE FIGUEROA-PZA.JUVENTUD,Avda   Lope de Figueroa 2,40.4826583862305,-3.35404086112976,B3,http://www.crtm.es,0,,Europe/Madrid,2
par_8_07060,07060,VILLAMALEA-RESIDENCIA DE MAYORES,Lugar  Residencia de Ancianos C.A.M. SN,40.5077285766602,-3.35739493370056,B3,http://www.crtm.es,0,,Europe/Madrid,2
par_8_12353,12353,RONDA FISCAL-RÍO ARLANZA,Calle   Ronda Fiscal 13,40.4719657897949,-3.37137293815613,B3,http://www.crtm.es,0,,Europe/Madrid,2
par_8_12693,12693,AV.CARLOS III-GTA.FELIPE IV,Avda   Carlos III SN,40.4803647428676,-3.39720787711385,B3,http://www.crtm.es,0,,Europe/Madrid,2
par_8_19147,19147,UNIV.ALCALÁ-JARDÍN BOTÁNICO,Urb   Campus Universitario 1,40.5054380350712,-3.34025558181404,B3,http://www.crtm.es,0,,Europe/Madrid,0
par_8_20517,20517,UNIV.ALCALÁ-AMBIENTALES,Ctra de Meco 700,40.5094590025428,-3.34531584625374,B3,http://www.crtm.es,0,,Europe/Madrid,0
par_8_20519,20519,UNIV.ALCALÁ-HOSPITAL ENTRADA SERVICIOS,Ctra de Meco 600,40.5086164176802,-3.3469049288024,B3,http://www.crtm.es,0,,Europe/Madrid,0
par_8_20522,20522,UNIV.ALCALÁ-TALLER DE JARDINERÍA,Ctra de Meco 600,40.5086906850989,-3.34315195470324,B3,http://www.crtm.es,0,,Europe/Madrid,0
par_8_20534,20534,VILLAMALEA-JUAN RAMÓN JIMÉNEZ,Calle   Villamalea 1,40.5074424743652,-3.35407662391663,B3,http://www.crtm.es,0,,Europe/Madrid,0
par_8_20543,20543,RONDA FISCAL-PASEO PASTRANA,Calle   Ronda Fiscal 16,40.4737713429493,-3.36688641944344,B3,http://www.crtm.es,0,,Europe/Madrid,0
par_8_20569,20569,AV.LOPE DE FIGUEROA-COLEGIO,Avda   Lope de Figueroa 27 B,40.4848796646327,-3.35230454537843,B3,http://www.crtm.es,0,,Europe/Madrid,0
