stop_id,stop_code,stop_name,stop_desc,stop_lat,stop_lon,zone_id,stop_url,location_type,parent_station,stop_timezone,wheelchair_boarding
par_8_07616,07616,VÍA LUSITANA-CEMENTERIO SUR,Calle  Vía Lusitana 55,40.3680534362793,-3.74051809310913,A,http://www.crtm.es,0,,Europe/Madrid,2
par_8_07617,07617,VÍA LUSITANA-CEMENTERIO SUR,Calle   Vía Lusitana 55,40.3671913146973,-3.74160385131836,A,http://www.crtm.es,0,,Europe/Madrid,2
par_8_07871,07871,SANTA ROSA-CHARCO,Calle  Santa Rosa 5,40.3303642272949,-3.76994752883911,B1,http://www.crtm.es,0,,Europe/Madrid,2
par_8_07878,07878,SANTA TERESA-ESTACIÓN,Calle   Santa Teresa 6,40.3288364265274,-3.76977055034904,B1,http://www.crtm.es,0,,Europe/Madrid,2
par_8_07880,07880,SANTA ROSA-EST.LEGANÉS CENTRAL,Calle   Santa Rosa 10,40.3289985656738,-3.77070903778076,B1,http://www.crtm.es,0,,Europe/Madrid,2
par_8_07897,07897,AV.DOCTOR MARTÍN VEGUE-AV.GIBRALTAR,Avda   Doctor Martín-Vegue 26,40.3284797668457,-3.75947308540344,B1,http://www.crtm.es,0,,Europe/Madrid,2
par_8_07898,07898,AV.DR.MARTÍN VEGUE-AV.DE LA MANCHA,Avda   Doctor Martín-Vegue 5,40.3290061371799,-3.76182670952805,B1,http://www.crtm.es,0,,Europe/Madrid,2
par_8_07899,07899,AV.DOCTOR MARTÍN VEGUE-SAN MATEO,Avda   Doctor Martín-Vegue 5,40.3291931152344,-3.76201200485229,B1,http://www.crtm.es,0,,Europe/Madrid,2
par_8_07904,07904,AV.UNIVERSIDAD-POLICÍA NACIONAL,Avda   Universidad 23,40.3309363191149,-3.76558008997644,B1,http://www.crtm.es,0,,Europe/Madrid,2
par_8_07905,07905,AV.UNIVERSIDAD-UNIVERSIDAD,Avda   Universidad 25,40.3312227168665,-3.76586585200627,B1,http://www.crtm.es,0,,Europe/Madrid,2
par_8_07907,07907,AV.UNIVERSIDAD-SANTA ROSA,Avda   Universidad 35,40.3312502703095,-3.7685030688959,B1,http://www.crtm.es,0,,Europe/Madrid,2
par_8_07908,07908,AV.UNIVERSIDAD-SANTA ROSA,Avda   Universidad 33,40.3314316888164,-3.76831677605267,B1,http://www.crtm.es,0,,Europe/Madrid,2
par_8_07920,07920,AV.DOCTOR MARTÍN VEGUE-AV.LA MANCHA,Avda   Doctor Martín-Vegue 37,40.3285598754883,-3.75929737091064,B1,http://www.crtm.es,0,,Europe/Madrid,2
par_8_07922,07922,AV.LA MANCHA-PARQUE PABLO RUIZ PICASSO,Avda de la Mancha 14,40.3299799266971,-3.7575880826186,B1,http://www.crtm.es,0,,Europe/Madrid,2
par_8_07927,07927,RIOJA-COLEGIO,Calle de La Rioja 93,40.3299800718604,-3.7520436211332,B1,http://www.crtm.es,0,,Europe/Madrid,2
par_8_07928,07928,RIOJA-COLEGIO,Calle de La Rioja 76,40.3299789237675,-3.75222018366183,B1,http://www.crtm.es,0,,Europe/Madrid,2
par_8_07931,07931,RIOJA-LORA,Calle de La Rioja 58,40.3308448791504,-3.75606226921082,B1,http://www.crtm.es,0,,Europe/Madrid,2
par_8_07932,07932,RIOJA-LORA,Calle de La Rioja 43,40.3307647705078,-3.75588464736938,B1,http://www.crtm.es,0,,Europe/Madrid,2
par_8_07951,07951,RIOJA-ALCUDIA,Calle de La Rioja 88,40.3314652499973,-3.74947028048451,B1,http://www.crtm.es,0,,Europe/Madrid,2
par_8_07952,07952,RIOJA-ALMUNIA,Calle de La Rioja 90,40.3322133290132,-3.74941969641248,B1,http://www.crtm.es,0,,Europe/Madrid,2
par_8_07953,07953,RIOJA-AV.REY JUAN CARLOS I,Calle   Rioja 133,40.3339231711693,-3.7497093773132,B1,http://www.crtm.es,0,,Europe/Madrid,2
par_8_07954,07954,RIOJA-AV.REY JUAN CARLOS I,Calle de La Rioja 118,40.3340408144594,-3.74962827261314,B1,http://www.crtm.es,0,,Europe/Madrid,2
par_8_07955,07955,MONEGROS-AV.REY JUAN CARLOS I,Calle   Monegros 40 B,40.3352165222168,-3.74989485740662,B1,http://www.crtm.es,0,,Europe/Madrid,2
par_8_07957,07957,MONEGROS-MAYORAZGO,Calle   Monegros 36,40.3368721008301,-3.75016045570374,B1,http://www.crtm.es,0,,Europe/Madrid,2
par_8_07958,07958,MONEGROS-MAYORAZGO,Calle   Monegros 65,40.337287902832,-3.75007104873657,B1,http://www.crtm.es,0,,Europe/Madrid,2
par_8_07959,07959,SOMONTANO-PRIORATO,Calle   Somontano 3,40.3376197814941,-3.74883842468262,B1,http://www.crtm.es,0,,Europe/Madrid,2
par_8_07960,07960,SOMONTANO-ESCUELA INFANTIL,Calle  Somontano 3,40.3375511169434,-3.7484610080719,B1,http://www.crtm.es,0,,Europe/Madrid,2
par_8_07969,07969,AV.EUROPA-EST.ZARZAQUEMADA,Avda   Europa 63,40.3398132324219,-3.74847412109375,B1,http://www.crtm.es,0,,Europe/Madrid,2
par_8_08205,08205,CTRA.M421-C.C.PLAZA NUEVA,Ctra  Carabanchel 2,40.3432464599609,-3.75651860237122,B1,http://www.crtm.es,0,,Europe/Madrid,2
par_8_08206,08206,CTRA.M421-C.C.PLAZA NUEVA,Crta.  Carabanchel 2,40.3445663452148,-3.75565028190613,B1,http://www.crtm.es,0,,Europe/Madrid,2
par_8_11905,11905,AV.MARÍA GUERRERO-AV.MARÍA MOLINER,Avda de María Guerrero 6,40.3435554504395,-3.7535548210144,B1,http://www.crtm.es,0,,Europe/Madrid,2
par_8_11906,11906,AV.MARÍA MOLINER-RESIDENCIA,Avda de María Moliner 8,40.3435173034668,-3.75220036506653,B1,http://www.crtm.es,0,,Europe/Madrid,2
par_8_11907,11907,AV.MARÍA MOLINER-PZA.DEL LABERINTO,Avda de María Moliner 26,40.3435897827148,-3.74813914299011,B1,http://www.crtm.es,0,,Europe/Madrid,2
par_8_11908,11908,AV.MARÍA MOLINER-FLORA TRISTÁN,Avda de María Moliner 27,40.3436889648438,-3.7441840171814,B1,http://www.crtm.es,0,,Europe/Madrid,2
par_8_11910,11910,IRENE FERNÁNDEZ-AV.MARÍA MOLINER,Calle   Irene Fernández 28,40.3437843322754,-3.74301958084106,B1,http://www.crtm.es,0,,Europe/Madrid,2
par_8_11911,11911,AV.CARMEN MARTÍN GAITE-CENTRO DE SALUD,Avda de Carmen Martín Gaite 27,40.3454360961914,-3.7484302520752,B1,http://www.crtm.es,0,,Europe/Madrid,2
par_8_11912,11912,AV.CARMEN MARTÍN GAITE-PZA.MÚSICA,Avda de Carmen Martín Gaite 65,40.3455238342285,-3.74448680877686,B1,http://www.crtm.es,0,,Europe/Madrid,2
par_8_11913,11913,AV.CARMEN MARTÍN GAITE-TERESA CLARAMUNT,Avda de Carmen Martín Gaite 15,40.3453559875488,-3.75226783752441,B1,http://www.crtm.es,0,,Europe/Madrid,2
par_8_12826,12826,RONCAL-EST.ZARZAQUEMADA,Calle   Roncal SN,40.3405609130859,-3.74841165542603,B1,http://www.crtm.es,0,,Europe/Madrid,2
par_8_12827,12827,CLARA JANÉS-CENTRO COMERCIAL,Calle de Clara Janés SN,40.3423881530762,-3.74879693984985,B1,http://www.crtm.es,0,,Europe/Madrid,2
par_8_12828,12828,AV.REINA SOFÍA-GABRIELA MISTRAL,Avda de la Reina Sofía 30,40.3425941467285,-3.74585580825806,B1,http://www.crtm.es,0,,Europe/Madrid,2
par_8_12829,12829,AV.REINA SOFÍA-GABRIELA MISTRAL,Avda de la Reina Sofía 33,40.3429069519043,-3.74635362625122,B1,http://www.crtm.es,0,,Europe/Madrid,2
par_8_13121,13121,AV.LA MANCHA-PARQUE PABLO RUIZ PICASSO,Avda de la Mancha 24 B,40.3320309089567,-3.75805835628669,B1,http://www.crtm.es,0,,Europe/Madrid,2
par_8_13122,13122,AV.LA MANCHA-CENTRO DE MAYORES,Avda de la Mancha 33,40.3332290649414,-3.75899648666382,B1,http://www.crtm.es,0,,Europe/Madrid,2
par_8_13123,13123,AV.LA MANCHA-PARQUE PABLO RUIZ PICASSO,Avda de la Mancha 11,40.3301239013672,-3.75860857963562,B1,http://www.crtm.es,0,,Europe/Madrid,2
par_8_16211,16211,MONEGROS-PRIORATO,Calle   Monegros 85,40.3358573913574,-3.74985504150391,B1,http://www.crtm.es,0,,Europe/Madrid,2
par_8_17041,17041,INTERCAMBIADOR DE PLAZA ELÍPTICA,Plaza  Eliptica sn,40.384391784668,-3.71839499473572,A,http://www.crtm.es,0,est_90_36,,2
par_8_17800,17800,CTRA.M425-PARQUE TECNÓLOGICO,Avda de la Innovación 1,40.3580131530762,-3.74560165405273,B1,http://www.crtm.es,0,,Europe/Madrid,0
par_8_3994,3994,VÍA LUSITANA-CONSEJERÍA DE EMPLEO Y MUJER,Calle  Vía Lusitana 102,40.3754234313965,-3.73207020759583,A,http://www.crtm.es,0,,Europe/Madrid,0
par_8_3995,3995,VÍA LUSITANA-CONSEJERÍA DE EMPLEO Y MUJER,Calle de Ontanilla 46,40.3752365112305,-3.73183250427246,A,http://www.crtm.es,0,,Europe/Madrid,0
est_90_36,36,Intercambiador de Plaza Elíptica,Calle  Vía Lusitana 2,40.3846,-3.71848,A,http://www.crtm.es,1,,Europe/Madrid,0
par_8_07547,07547,AV.CARABANCHEL ALTO-AV DEL EURO,Avda de Carabanchel Alto 134,40.3642120361328,-3.75346684455872,A,http://www.crtm.es,0,,Europe/Madrid,2
par_8_07562,07562,GUABAIRO-CARABANCHEL,Calle de Guabairo 4,40.3872566223145,-3.74528789520264,A,http://www.crtm.es,0,,Europe/Madrid,2
par_8_07567,07567,AV.CARABANCHEL ALTO-CARPIO Y TORTA,Avda de Carabanchel Alto 136,40.3639869689941,-3.75382947921753,A,http://www.crtm.es,0,,Europe/Madrid,2
par_8_07570,07570,AV.CARABANCHEL ALTO-CHIRIMOYA,Avda de Carabanchel Alto 62,40.3700256347656,-3.75313115119934,A,http://www.crtm.es,0,,Europe/Madrid,2
par_8_07571,07571,AV.CARABANCHEL ALTO-ALLARIZ,Avda de Carabanchel Alto 94,40.3677253723145,-3.75347065925598,A,http://www.crtm.es,0,,Europe/Madrid,2
par_8_07572,07572,AV.CARABANCHEL ALTO-ALLARIZ,Avda de Carabanchel Alto 96 A,40.367359161377,-3.75336050987244,A,http://www.crtm.es,0,,Europe/Madrid,2
par_8_07603,07603,GUABAIRO-CENTRO COMERCIAL,Calle de Guabairo 28,40.3854866027832,-3.74609303474426,A,http://www.crtm.es,0,,Europe/Madrid,2
par_8_07605,07605,OCA-EST.CARABANCHEL,Calle de la Oca 101,40.3880386352539,-3.74395322799683,A,http://www.crtm.es,0,,Europe/Madrid,2
par_8_07864,07864,AV.DOCTOR FLEMING-COLEGIO,Avda   Doctor Fleming SN,40.3225928453802,-3.76574477039584,B1,http://www.crtm.es,0,,Europe/Madrid,2
par_8_07890,07890,AV.DOCTOR FLEMING-GARCILASO,Avda   Doctor Fleming 22,40.3238973028533,-3.76329945099042,B1,http://www.crtm.es,0,,Europe/Madrid,2
par_8_07891,07891,AV.DOCTOR FLEMING-CONSTITUCIÓN DE CÁDIZ,Avda   Doctor Fleming 22,40.323897846488,-3.76321706275115,B1,http://www.crtm.es,0,,Europe/Madrid,2
par_8_07895,07895,AV.MUSEO-PZA.JOAN MANUEL SERRAT,Avda del Museo 4,40.3249616557709,-3.76036873835007,B1,http://www.crtm.es,0,,Europe/Madrid,2
par_8_07896,07896,AV.MUSEO-PZA.JOAN MANUEL SERRAT,Avda del Museo 4,40.3250070072092,-3.76032216399265,B1,http://www.crtm.es,0,,Europe/Madrid,2
par_8_07925,07925,RIOJA-SERENA,Calle de La Rioja 44,40.3319244384766,-3.75600361824036,B1,http://www.crtm.es,0,,Europe/Madrid,2
par_8_07926,07926,RIOJA-SERENA,Calle de La Rioja 7,40.3329086303711,-3.75576734542847,B1,http://www.crtm.es,0,,Europe/Madrid,2
par_8_07933,07933,RIOJA-LA SAGRA,Calle   Sagra 1,40.333812713623,-3.75560092926025,B1,http://www.crtm.es,0,,Europe/Madrid,2
par_8_07934,07934,AV.DOCTOR FLEMING-COLEGIO,Calle   Juan de Mariana 5,40.322665224112,-3.76569850663754,B1,http://www.crtm.es,0,,Europe/Madrid,2
par_8_07936,07936,AV.MUSEO-CENTRO DE MAYORES,Avda del Museo 9200,40.3221207233571,-3.75395734912805,B1,http://www.crtm.es,0,,Europe/Madrid,2
par_8_07937,07937,LUGO-CENTRO DE MAYORES,Calle   Lugo 4,40.3218252098337,-3.75368334519219,B1,http://www.crtm.es,0,,Europe/Madrid,2
par_8_07944,07944,AV.EUROPA-ALCUDIA,Avda   Europa 17,40.332466425083,-3.7465030108477,B1,http://www.crtm.es,0,,Europe/Madrid,2
par_8_07947,07947,AV.EUROPA-CENTRO DE SALUD,Avda   Europa 3,40.3305797455151,-3.74569351097628,B1,http://www.crtm.es,0,,Europe/Madrid,2
par_8_07948,07948,AV.EUROPA-CENTRO DE SALUD,Avda  Europa 3,40.33068959155,-3.74542396840565,B1,http://www.crtm.es,0,,Europe/Madrid,2
par_8_07949,07949,AV.EUROPA-AV.ALEMANIA,Avda  Europa 17,40.3322892947115,-3.74603017535885,B1,http://www.crtm.es,0,,Europe/Madrid,2
par_8_07950,07950,AV.ALEMANIA-AV.EUROPA,Avda   Alemania 2,40.3327140808105,-3.74584102630615,B1,http://www.crtm.es,0,,Europe/Madrid,2
par_8_07971,07971,AV.PORTUGAL-AV.FRANCIA,Avda de Portugal 2,40.3378372192383,-3.74460244178772,B1,http://www.crtm.es,0,,Europe/Madrid,2
par_8_07972,07972,AV.PORTUGAL-AV.BÉLGICA,Avda de Portugal 14,40.3385848999023,-3.74053716659546,B1,http://www.crtm.es,0,,Europe/Madrid,2
par_8_07973,07973,AV.PORTUGAL-AV.BÉLGICA,Avda de Portugal 12,40.3386077880859,-3.74089050292969,B1,http://www.crtm.es,0,,Europe/Madrid,2
par_8_07977,07977,AV.ALEMANIA-AV.FRANCIA,Avda  Alemania 10 A,40.3334009024696,-3.74268731687451,B1,http://www.crtm.es,0,,Europe/Madrid,2
par_8_07978,07978,AV.ALEMANIA-AV.FRANCIA,Avda  Alemania 10 A,40.3333376167934,-3.74272193984166,B1,http://www.crtm.es,0,,Europe/Madrid,2
par_8_07979,07979,AV.ALEMANIA-INSTITUTO,Avda  Alemania 21,40.334048543345,-3.74003385590026,B1,http://www.crtm.es,0,,Europe/Madrid,2
par_8_07980,07980,AV.ALEMANIA-COLEGIO,Avda  Alemania 21,40.3339496766455,-3.73999745865448,B1,http://www.crtm.es,0,,Europe/Madrid,2
par_8_07981,07981,AV.BÉLGICA-BIBLIOTECA,Avda   Bélgica 65,40.3358735136302,-3.7392297043662,B1,http://www.crtm.es,0,,Europe/Madrid,2
par_8_07982,07982,AV.BÉLGICA-BIBLIOTECA,Avda   Bélgica 71,40.3356847129616,-3.73916878044686,B1,http://www.crtm.es,0,,Europe/Madrid,2
par_8_08199,08199,CTRA.M421-MONTEJANO,Avda de Carabanchel Alto 154,40.3582801818848,-3.75444889068604,A,http://www.crtm.es,0,,Europe/Madrid,2
par_8_08203,08203,CTRA.M421-DEPORTIVO BUTARQUE,Ctra   M-421 (Leganés-Carabanchel) 1100,40.3486061096191,-3.75538921356201,B1,http://www.crtm.es,0,,Europe/Madrid,2
par_8_08352,08352,RIOJA-LA SAGRA,Calle de La Rioja 6,40.3341331481934,-3.75569868087769,B1,http://www.crtm.es,0,,Europe/Madrid,2
par_8_08353,08353,TORRES QUEVEDO-GUARDIA CIVIL TRÁFICO,Calle  Torres Quevedo 5,40.3261642456055,-3.74422693252563,B1,http://www.crtm.es,0,,Europe/Madrid,2
par_8_09073,09073,AV.EUROPA-EST.ZARZAQUEMADA,Avda   Europa 14,40.3404159545898,-3.74735045433044,B1,http://www.crtm.es,0,,Europe/Madrid,2
par_8_09074,09074,AV.FRANCIA-POLONIA,Avda   Francia 10,40.3390693664551,-3.74521636962891,B1,http://www.crtm.es,0,,Europe/Madrid,2
par_8_09075,09075,AV.FRANCIA-POLONIA,Avda   Francia 10,40.3391036987305,-3.74506378173828,B1,http://www.crtm.es,0,,Europe/Madrid,2
par_8_09076,09076,AV.REY JUAN CARLOS I-EST.EL CARRASCAL,Avda   Rey Juan Carlos I 89,40.3370352987655,-3.73928947580313,B1,http://www.crtm.es,0,,Europe/Madrid,2
par_8_09077,09077,C.C.PARQUESUR-EST.EL CARRASCAL,Avda   Rey Juan Carlos I 112,40.3370525016147,-3.73800641526342,B1,http://www.crtm.es,0,,Europe/Madrid,2
par_8_09079,09079,AV.GRAN BRETAÑA-C.C.PARQUESUR,Avda   Gran Bretaña 1,40.3387565612793,-3.73758387565613,B1,http://www.crtm.es,0,,Europe/Madrid,2
par_8_09511,09511,MONEGROS-AV.REY JUAN CARLOS I,Calle   Monegros 8,40.3357238769531,-3.75525712966919,B1,http://www.crtm.es,0,,Europe/Madrid,2
par_8_09512,09512,MONEGROS-AV.REY JUAN CARLOS I,Calle   Monegros 7,40.3352813720703,-3.75551128387451,B1,http://www.crtm.es,0,,Europe/Madrid,2
par_8_09513,09513,AV.BÉLGICA-CORREOS,Avda  Bélgica 1,40.3401832580566,-3.74102568626404,B1,http://www.crtm.es,0,,Europe/Madrid,2
par_8_09514,09514,AV.BÉLGICA-CORREOS,Avda  Bélgica 1,40.340518951416,-3.74086451530457,B1,http://www.crtm.es,0,,Europe/Madrid,2
par_8_09516,09516,AV.GRAN BRETAÑA-C.C.PARQUESUR,Avda de Gran Bretaña SN,40.3381004333496,-3.73761200904846,B1,http://www.crtm.es,0,,Europe/Madrid,2
par_8_09517,09517,AV.PORTUGAL-CENTRO DE SALUD,Avda de Portugal 2,40.3377571105957,-3.74427199363709,B1,http://www.crtm.es,0,,Europe/Madrid,2
par_8_09520,09520,REY PASTOR-JUAN DE LA CIERVA,Calle   Rey Pastor 29,40.3286933898926,-3.74290108680725,B1,http://www.crtm.es,0,,Europe/Madrid,2
par_8_09521,09521,REY PASTOR-JUAN DE LA CIERVA,Calle   Rey Pastor 16,40.328052520752,-3.74360036849976,B1,http://www.crtm.es,0,,Europe/Madrid,2
par_8_1152,1152,NTRA.SRA.FATIMA-MONS.OSCAR ROMERO,Avda de Nuestra Señora de Fátima 69,40.3825378417969,-3.74787473678589,A,http://www.crtm.es,0,,Europe/Madrid,0
par_8_1153,1153,NTRA.SRA.FATIMA-MONS.OSCAR ROMERO,Avda de Nuestra Señora de Fátima 69,40.3826026916504,-3.7476634979248,A,http://www.crtm.es,0,,Europe/Madrid,0
par_8_1156,1156,NTRA.SRA.FATIMA-EUGENIA DE MONTIJO,Avda de Nuestra Señora de Fátima 104,40.3782424926758,-3.74879336357117,A,http://www.crtm.es,0,,Europe/Madrid,0
par_8_1157,1157,NTRA.SRA.FATIMA-EUGENIA DE MONTIJO,Avda de Nuestra Señora de Fátima 104,40.3782730102539,-3.74862861633301,A,http://www.crtm.es,0,,Europe/Madrid,0
par_8_1158,1158,AV.CARABANCHEL ALTO-GOMEZ ARTECHE,Avda de Carabanchel Alto 68,40.3696212768555,-3.75330328941345,A,http://www.crtm.es,0,,Europe/Madrid,0
par_8_12697,12697,OCA-MATILDE HERNÁNDEZ,Calle de la Oca 34,40.389835357666,-3.7354781627655,A,http://www.crtm.es,0,,Europe/Madrid,2
par_8_15333,15333,CTRA.M421-POLIDEPORTIVO,Ctra  Carabanchel 28,40.3506622314453,-3.75492930412292,B1,http://www.crtm.es,0,,Europe/Madrid,2
par_8_15334,15334,AV.FUENLABRADA-HOSPITAL SEVERO OCHOA,Avda   Fuenlabrada 123,40.3209218841267,-3.76775034750959,B1,http://www.crtm.es,0,,Europe/Madrid,2
par_8_16165,16165,AV.CARABANCHEL ALTO-AV.LA PESETA,Avda de Carabanchel Alto 150,40.3616676330566,-3.75405097007751,A,http://www.crtm.es,0,,Europe/Madrid,2
par_8_16166,16166,AV.CARABANCHEL ALTO-AV.LA PESETA,Avda de Carabanchel Alto 53,40.3617248535156,-3.75375723838806,A,http://www.crtm.es,0,,Europe/Madrid,2
par_8_18325,18325,JULIO PALACIOS-CENTRO COMERCIAL,Calle   Julio Palacios 2,40.320629119873,-3.74885082244873,B1,http://www.crtm.es,0,,Europe/Madrid,0
par_8_18326,18326,JULIO PALACIOS-CENTRO COMERCIAL,Calle   Julio Palacios 2,40.3206748962402,-3.74902772903442,B1,http://www.crtm.es,0,,Europe/Madrid,0
par_8_18327,18327,JULIO PALACIOS-POL.IND.NTRA.SRA.BUTARQUE,Calle  Julio Palacios 20,40.32373046875,-3.74460053443909,B1,http://www.crtm.es,0,,Europe/Madrid,0
par_8_18328,18328,JULIO PALACIOS-POL.IND.NTRA.SRA.BUTARQUE,Calle  Julio Palacios 5,40.3237991333008,-3.74491906166077,B1,http://www.crtm.es,0,,Europe/Madrid,0
par_8_18329,18329,TORRES QUEVEDO-REY PASTOR,Calle   Torres Quevedo 3,40.3265228271484,-3.74477243423462,B1,http://www.crtm.es,0,,Europe/Madrid,0
par_8_2548,2548,OCA-MATILDE HERNANDEZ,Calle de la Oca 17,40.3895263671875,-3.73423767089844,A,http://www.crtm.es,0,,Europe/Madrid,0
par_8_3715,3715,OCA-PINZON,Calle de la Oca 76,40.3888359069824,-3.74054527282715,A,http://www.crtm.es,0,,Europe/Madrid,0
par_8_3716,3716,OCA-PINZON,Calle de la Oca 71,40.3887405395508,-3.74043822288513,A,http://www.crtm.es,0,,Europe/Madrid,0
par_8_378,378,EUGENIA DE MONTIJO-PZA.PARTERRE,Calle de Eugenia de Montijo 89,40.3750686645508,-3.750807762146,A,http://www.crtm.es,0,,Europe/Madrid,0
par_8_379,379,EUGENIA DE MONTIJO-PZA.PARTERRE,Calle de Eugenia de Montijo 102,40.3751106262207,-3.75099682807922,A,http://www.crtm.es,0,,Europe/Madrid,0
par_8_4019,4019,AV. CARABANCHEL ALTO-Nº 44,Avda de Carabanchel Alto 44,40.3720054626465,-3.75221085548401,A,http://www.crtm.es,0,,Europe/Madrid,0
par_8_4020,4020,AV. CARABANCHEL ALTO-Nº 44,Avda de Carabanchel Alto 42,40.3720245361328,-3.75201082229614,A,http://www.crtm.es,0,,Europe/Madrid,0
par_8_50003,50003,OCA-GRAL.RICARDOS,Calle de la Oca 7,40.3888702392578,-3.73280477523804,A,http://www.crtm.es,0,,Europe/Madrid,0
par_8_5600,5600,GTA.VALLE DE ORO-GRAL.RICARDOS,Gta del Valle de Oro 13,40.3883934020996,-3.73111486434937,A,http://www.crtm.es,0,,Europe/Madrid,0
par_8_589,589,NTRA.SRA.FATIMA-FONTIVEROS,Avda de Nuestra Señora de Fátima 33,40.3851089477539,-3.74597096443176,A,http://www.crtm.es,0,,Europe/Madrid,0
par_8_07881,07881,FEDERICA MONTSENY-SAGASTA,Calle   Federica Montseny 26,40.3223075866699,-3.78107333183289,B1,http://www.crtm.es,0,,Europe/Madrid,2
par_8_07882,07882,FEDERICA MONTSENY-MANUEL BARTOLOME,Calle   Federica Montseny 25,40.3222541809082,-3.78096675872803,B1,http://www.crtm.es,0,,Europe/Madrid,2
par_8_07883,07883,AV.DR.MENDIGUCHIA CARRICHE-RÍO SEGRE,Plaza   Talavera la Vieja 1,40.3331146240234,-3.77378129959106,B1,http://www.crtm.es,0,,Europe/Madrid,2
par_8_07884,07884,AV.DR.MENDIGUCHIA CARRICHE-RÍO SEGRE,Avda   Doctor Mendiguchia Carriche 38,40.3331260681152,-3.77348709106445,B1,http://www.crtm.es,0,,Europe/Madrid,2
par_8_07886,07886,RÍO DUERO-RÍO URBIÓN,Calle  Río Duero 62,40.3345336914063,-3.77194929122925,B1,http://www.crtm.es,0,,Europe/Madrid,2
par_8_07887,07887,RÍO GUADALQUIVIR-RÍO TAJO,Calle   Río Guadalquivir 11,40.3340034484863,-3.77162528038025,B1,http://www.crtm.es,0,,Europe/Madrid,2
par_8_07900,07900,AV.FUENLABRADA-TRVA.DEL CID,Avda   Fuenlabrada 28,40.3308782524314,-3.76209497033967,B1,http://www.crtm.es,0,,Europe/Madrid,2
par_8_07901,07901,AV.FUENLABRADA-CONSTITUCIÓN,Avda  Fuenlabrada 27 A,40.3307342529297,-3.76208806037903,B1,http://www.crtm.es,0,,Europe/Madrid,2
par_8_07902,07902,AV.FUENLABRADA-BATALLA DE BRUNETE,Avda   Fuenlabrada 8,40.3327564918028,-3.76143331481973,B1,http://www.crtm.es,0,,Europe/Madrid,2
par_8_07909,07909,RÍO DUERO-PZA.RÍO HEREDIA,Calle   Río Duero 8,40.3352203369141,-3.76615309715271,B1,http://www.crtm.es,0,,Europe/Madrid,2
par_8_07911,07911,RÍO MANZANARES-RÍO DUERO,Calle   Río Manzanares 29,40.3346862792969,-3.76926684379578,B1,http://www.crtm.es,0,,Europe/Madrid,2
par_8_07912,07912,RÍO DUERO-RÍO MANZANARES,Calle   Río Duero 44,40.3353080749512,-3.77025103569031,B1,http://www.crtm.es,0,,Europe/Madrid,2
par_8_07916,07916,AV.FUENLABRADA-AV.REY JUAN CARLOS I,Avda   Fuenlabrada 3,40.3338584899902,-3.76061654090881,B1,http://www.crtm.es,0,,Europe/Madrid,2
par_8_08145,08145,COBRE-POL.IND.POLVORANCA ESTACIÓN,Calle del Cobre 3,40.3273773193359,-3.77479887008667,B1,http://www.crtm.es,0,,Europe/Madrid,2
par_8_08147,08147,COBRE-POL.IN.POLVORANCA ESTACIÓN,Calle del Cobre 1,40.3273239135742,-3.77498650550842,B1,http://www.crtm.es,0,,Europe/Madrid,2
par_8_08212,08212,CºPOLVORANCA-FEDERICA MONTSENY,Calle   Camino de Polvoranca 20,40.3262519836426,-3.77742266654968,B1,http://www.crtm.es,0,,Europe/Madrid,2
par_8_08213,08213,CºPOLVORANCA-ESTAÑO,Calle   Camino de Polvoranca 20,40.3260917663574,-3.7772912979126,B1,http://www.crtm.es,0,,Europe/Madrid,2
par_8_08380,08380,INTERCAMBIADOR DE ALUCHE,Calle de Valmojado 293,40.3850246397989,-3.76038400282808,A,http://www.crtm.es,0,est_90_1,,2
par_8_09510,09510,AV.LA MANCHA-PARQUE DE LOS OLIVOS,Avda de la Mancha 36,40.3368225097656,-3.75670576095581,B1,http://www.crtm.es,0,,Europe/Madrid,2
par_8_09524,09524,FEDERICA MONTSENY-CLARA CAMPOAMOR,Calle   Federica Montseny 14,40.3239212036133,-3.77972650527954,B1,http://www.crtm.es,0,,Europe/Madrid,2
par_8_09525,09525,FEDERICA MONTSENY-DIEGO MTNEZ.BARRIO,Calle   Federica Montseny 11,40.3241653442383,-3.77936458587646,B1,http://www.crtm.es,0,,Europe/Madrid,2
par_8_10575,10575,RÍO DUERO-COLEGIO,Calle   Río Duero 15,40.3353309631348,-3.76680183410645,B1,http://www.crtm.es,0,,Europe/Madrid,2
par_8_11393,11393,COBRE-PZA.JOSÉ LUIS LÓPEZ ARANGUREN,Calle del Cobre 14,40.3306770324707,-3.77304720878601,B1,http://www.crtm.es,0,,Europe/Madrid,2
par_8_11394,11394,COBRE-PZA.JOSÉ LUIS LÓPEZ ARANGUREN,Calle del Cobre 14,40.3306579589844,-3.77318835258484,B1,http://www.crtm.es,0,,Europe/Madrid,2
par_8_12428,12428,AV.CONDE DE BARCELONA-AV.PABLO IGLESIAS,Avda   Conde de Barcelona 15,40.3251686096191,-3.78324866294861,B1,http://www.crtm.es,0,,Europe/Madrid,2
par_8_12429,12429,AV.CONDE DE BARCELONA-AV.PABLO IGLESIAS,Avda   Conde de Barcelona 37,40.3250579833984,-3.7832944393158,B1,http://www.crtm.es,0,,Europe/Madrid,2
par_8_12443,12443,COBRE-PABELLÓN OLÍMPIA,Calle del Cobre 17,40.3290061950684,-3.77354621887207,B1,http://www.crtm.es,0,,Europe/Madrid,2
par_8_12444,12444,COBRE-PABELLÓN OLÍMPIA,Calle del Cobre 14,40.3292274475098,-3.77324247360229,B1,http://www.crtm.es,0,,Europe/Madrid,2
par_8_12742,12742,AV.CARABANCHEL-PARQUE DE LOS OLIVOS,Avda   Dos de Mayo 39,40.3359298706055,-3.75933289527893,B1,http://www.crtm.es,0,,Europe/Madrid,2
par_8_15593,15593,ALCALDE RAMÓN YERRO ORDÓÑEZ-MÓSTOLES,Calle de Móstoles 24,40.3149909973145,-3.78812122344971,B1,http://www.crtm.es,0,,Europe/Madrid,2
par_8_15597,15597,ALCALDE FCO.MORENO-EST.PARQUE POLVORANCA,Calle   Alcalde Francisco Moreno Menéndez 4,40.3124771118164,-3.78418469429016,B1,http://www.crtm.es,0,,Europe/Madrid,2
par_8_15604,15604,CÉSAR GªCONTONENTE-ALCALDE A.DE CASTRO,Calle   César García Contonente 6,40.3217239379883,-3.78611612319946,B1,http://www.crtm.es,0,,Europe/Madrid,2
par_8_15605,15605,CÉSAR GªCONTONENTE-ALCALDE A.DE CASTRO,Calle   Alcalde Alfredo de Castro 24,40.3217163085938,-3.786292552948,B1,http://www.crtm.es,0,,Europe/Madrid,2
par_8_18309,18309,RÍO SENA-RÍO GUADIANA,Calle   Río Sena 1,40.3348159790039,-3.77640247344971,B1,http://www.crtm.es,0,,Europe/Madrid,0
par_8_18310,18310,AV.ALCORCÓN-CANTABRIA,Avda de Alcorcón S/N,40.3338890075684,-3.77666258811951,B1,http://www.crtm.es,0,,Europe/Madrid,0
par_8_18311,18311,CANTABRIA-ARAGÓN,Calle   Cantabria 8,40.3319053649902,-3.7770049571991,B1,http://www.crtm.es,0,,Europe/Madrid,0
par_8_18312,18312,CANTABRIA-ARAGÓN,Calle   Cantabria 8,40.3319664001465,-3.77681732177734,B1,http://www.crtm.es,0,,Europe/Madrid,0
par_8_19300,19300,CAMINO DE POLVORANCA-POL.IND.POLVORANCA,Calle   Camino de Polvoranca S/N A,40.325927734375,-3.78415203094482,B1,http://www.crtm.es,0,,Europe/Madrid,0
par_8_19301,19301,CAMINO DE POLVORANCA-POL.IND.POLVORANCA,Calle   Camino de Polvoranca S/N A,40.325756072998,-3.78389120101929,B1,http://www.crtm.es,0,,Europe/Madrid,0
par_8_20185,20185,ALCALDE PEDRO GLEZ.GLEZ.-ARANJUEZ,Calle   Alcalde Pedro González González 22,40.3160057067871,-3.78726196289063,B1,http://www.crtm.es,0,,Europe/Madrid,0
par_8_20186,20186,ALCALDE PEDRO GLEZ.GLEZ.-ARANJUEZ,Calle   Alcalde Pedro González González 19,40.3159370422363,-3.78661394119263,B1,http://www.crtm.es,0,,Europe/Madrid,0
par_8_20187,20187,A.PEDRO GLEZ.GLEZ.-ALCALÁ DE HENARES,Calle   Alcalde Pedro González González 8,40.3183555603027,-3.78590059280396,B1,http://www.crtm.es,0,,Europe/Madrid,0
par_8_20188,20188,A.PEDRO GLEZ.GLEZ.-TORREJÓN DE ARDOZ,Calle   Alcalde Pedro González González 7,40.3182907104492,-3.78525233268738,B1,http://www.crtm.es,0,,Europe/Madrid,0
par_8_660,660,AV.POBLADOS-COMISARIA,Avda de los Poblados 51,40.3817443847656,-3.75775003433228,A,http://www.crtm.es,0,,Europe/Madrid,0
par_8_661,661,JOAQUIN TURINA-NAVALMORALES,Avda de los Poblados 51,40.3824272155762,-3.75787568092346,A,http://www.crtm.es,0,,Europe/Madrid,0
par_8_662,662,AV.POBLADOS-PARQUE EUGENIA MONTIJO,Avda de los Poblados 57,40.3784141540527,-3.75596928596497,A,http://www.crtm.es,0,,Europe/Madrid,0
par_8_663,663,AV.POBLADOS-PARQUE EUGENIA MONTIJO,Avda de los Poblados 57,40.3784599304199,-3.75566363334656,A,http://www.crtm.es,0,,Europe/Madrid,0
par_8_667,667,AV.POBLADOS-PARTERRE,Avda de los Poblados 82,40.3766899108887,-3.75079035758972,A,http://www.crtm.es,0,,Europe/Madrid,0
est_90_1,1,Aluche,Calle de Valmojado 293,40.38563,-3.76085,A,http://www.crtm.es,1,,Europe/Madrid,0
par_8_07586,07586,CTRA.BARRIO DE LA FORTUNA-XILÓFONO,Ctra del Barrio de la Fortuna 8,40.3694953918457,-3.76643514633179,A,http://www.crtm.es,0,,Europe/Madrid,2
par_8_07587,07587,CTRA.BARRIO DE LA FORTUNA-AV.LA PESETA,Avda de la Peseta 6,40.3695335388184,-3.76615285873413,A,http://www.crtm.es,0,,Europe/Madrid,2
par_8_07588,07588,CTRA.Bº DE LA FORTUNA-HOSP.FUND.SAN JOSÉ,Ctra del Barrio de la Fortuna 21,40.3654289245605,-3.77117085456848,A,http://www.crtm.es,0,,Europe/Madrid,2
par_8_07589,07589,CTRA.Bº DE LA FORTUNA-HOSP.FUND.SAN JOSÉ,Ctra del Barrio de la Fortuna 21,40.3655166625977,-3.77150177955627,A,http://www.crtm.es,0,,Europe/Madrid,2
par_8_07894,07894,AV.DOS DE MAYO-AV.FUENLABRADA,Avda   Dos de Mayo 12,40.3346557617188,-3.76152014732361,B1,http://www.crtm.es,0,,Europe/Madrid,2
par_8_07910,07910,AV.MAR MEDITERRÁNEO-RÍO DUERO,Avda   Mar Mediterráneo 2,40.3354339599609,-3.76524901390076,B1,http://www.crtm.es,0,,Europe/Madrid,2
par_8_07915,07915,AV.DOS DE MAYO-SEGURIDAD SOCIAL,Avda  Dos de Mayo 12,40.3348808288574,-3.76119303703308,B1,http://www.crtm.es,0,,Europe/Madrid,2
par_8_07923,07923,AV.REY JUAN CARLOS I-MONEGROS,Avda  Rey Juan Carlos I 1,40.3346903179191,-3.7564164224046,B1,http://www.crtm.es,0,,Europe/Madrid,2
par_8_07924,07924,AV.REY JUAN CARLOS I-LA RIOJA,Avda   Rey Juan Carlos I 12 A,40.334555730964,-3.75633251212534,B1,http://www.crtm.es,0,,Europe/Madrid,2
par_8_07929,07929,AV.MAR MEDITERRÁNEO-CENTRO DE SALUD,Avda  Mar Mediterráneo 16,40.3364028930664,-3.76589560508728,B1,http://www.crtm.es,0,,Europe/Madrid,2
par_8_07961,07961,MONEGROS-RIBEIRO,Calle   Monegros 63,40.337890625,-3.75017189979553,B1,http://www.crtm.es,0,,Europe/Madrid,2
par_8_07962,07962,MONEGROS-RIBEIRO,Calle   Monegros 61 A,40.3380088806152,-3.75033783912659,B1,http://www.crtm.es,0,,Europe/Madrid,2
par_8_07963,07963,MONEGROS-COLEGIO,Calle   Monegros 41,40.3388252258301,-3.75192451477051,B1,http://www.crtm.es,0,,Europe/Madrid,2
par_8_07964,07964,MONEGROS-COLEGIO,Calle   Monegros 18,40.3386878967285,-3.75214672088623,B1,http://www.crtm.es,0,,Europe/Madrid,2
par_8_07965,07965,MONEGROS-AV.LA MANCHA,Calle   Monegros 12,40.3375473022461,-3.75453591346741,B1,http://www.crtm.es,0,,Europe/Madrid,2
par_8_07966,07966,MONEGROS-PANADÉS,Calle   Monegros 12,40.3376197814941,-3.75433659553528,B1,http://www.crtm.es,0,,Europe/Madrid,2
par_8_07985,07985,SEFARDITAS-OBELISCO V CENTENARIO,Calle los Sefarditas 4,40.3387832641602,-3.7681360244751,B1,http://www.crtm.es,0,,Europe/Madrid,2
par_8_08029,08029,FÁTIMA-SAN BERNARDO,Calle  Fátima 1,40.361026763916,-3.78044819831848,B1,http://www.crtm.es,0,,Europe/Madrid,2
par_8_08035,08035,SAN BERNARDO-SANTA CATALINA,Calle   San Bernardo 4,40.3610992431641,-3.78018999099731,B1,http://www.crtm.es,0,,Europe/Madrid,2
par_8_08140,08140,SEFARDITAS-OBELISCO V CENTENARIO,Calle   Jesús Miguel Haddad Blanco 10,40.3389129638672,-3.76759600639343,B1,http://www.crtm.es,0,,Europe/Madrid,2
par_8_12114,12114,JESÚS M.HADDAD BLANCO-CENTRO DE SALUD,Calle   Jesús Miguel Haddad Blanco 1,40.3368759155273,-3.76741981506348,B1,http://www.crtm.es,0,,Europe/Madrid,2
par_8_12115,12115,JESÚS M.HADDAD BLANCO-CENTRO DE SALUD,Calle   Jesús Miguel Haddad Blanco 2,40.3367614746094,-3.7672655582428,B1,http://www.crtm.es,0,,Europe/Madrid,2
par_8_12744,12744,AV.GIBRALTAR-CASA DEL RELOJ,Avda   Gibraltar 2,40.3266220092773,-3.75949931144714,B1,http://www.crtm.es,0,,Europe/Madrid,2
par_8_12745,12745,AV.GIBRALTAR-CASA DEL RELOJ,Avda   Gibraltar 9,40.3266410827637,-3.7597348690033,B1,http://www.crtm.es,0,,Europe/Madrid,2
par_8_15143,15143,FÁTIMA-AV.LIBERTAD,Calle   Fátima 22,40.3591537475586,-3.7815101146698,B1,http://www.crtm.es,0,,Europe/Madrid,2
par_8_15144,15144,SAN JUAN-POLIDEPORTIVO,Calle   San Juan 7,40.3588027954102,-3.78271913528442,B1,http://www.crtm.es,0,,Europe/Madrid,2
par_8_15145,15145,PZA.SAN ANTONIO DE LA FLORIDA-SAN AMADO,Plaza  San Antonio de la Florida 1,40.3573989868164,-3.78127789497375,B1,http://www.crtm.es,0,,Europe/Madrid,2
par_8_15147,15147,SAN LUIS-JARDINES GARCÍA LORCA,Calle   San Luis 4,40.3564834594727,-3.77500224113464,B1,http://www.crtm.es,0,,Europe/Madrid,2
par_8_15530,15530,ÁLAVA-VIZCAYA,Calle  Álava SN,40.3574562072754,-3.77398896217346,B1,http://www.crtm.es,0,,Europe/Madrid,2
par_8_16600,16600,SAN LUIS-JARDINES GARCÍA LORCA,Calle   San Luis 4,40.3565292358398,-3.77517938613892,B1,http://www.crtm.es,0,,Europe/Madrid,2
par_8_16601,16601,SAN PEDRO-SAN AGUSTÍN,Calle   San Pedro 33,40.3557167053223,-3.77833795547485,B1,http://www.crtm.es,0,,Europe/Madrid,2
par_8_16602,16602,SAN PEDRO-OPORTO,Calle   San Pedro 31,40.3556251525879,-3.77840757369995,B1,http://www.crtm.es,0,,Europe/Madrid,2
par_8_16603,16603,SAN PEDRO-SAN FERNANDO,Calle   San Pedro 5,40.3561248779297,-3.78151059150696,B1,http://www.crtm.es,0,,Europe/Madrid,2
par_8_16604,16604,SAN PEDRO-PORTALEGRE,Calle   San Pedro 3,40.3560943603516,-3.78240513801575,B1,http://www.crtm.es,0,,Europe/Madrid,2
par_8_16605,16605,BEJA-BRAGANZA,Calle   Beja 9,40.3567771911621,-3.78533363342285,B1,http://www.crtm.es,0,,Europe/Madrid,2
par_8_16606,16606,LISBOA-COIMBRA,Calle  Lisboa 7,40.3577575683594,-3.78400254249573,B1,http://www.crtm.es,0,,Europe/Madrid,2
par_8_16607,16607,COIMBRA-JESÚS,Calle   Coimbra S/N,40.3578262329102,-3.78340268135071,B1,http://www.crtm.es,0,,Europe/Madrid,2
par_8_16608,16608,LISBOA-BEJA,Calle  Lisboa 3,40.3566093444824,-3.7844250202179,B1,http://www.crtm.es,0,,Europe/Madrid,2
par_8_16610,16610,SANTO DOMINGO-SAN JOSÉ,Calle   Santo Domingo 8,40.3591613769531,-3.77919030189514,B1,http://www.crtm.es,0,,Europe/Madrid,2
par_8_17803,17803,AV.AMÉRICA LATINA-ANITA MARTÍNEZ,Avda de América Latina 2 E,40.3450775146484,-3.77012658119202,B1,http://www.crtm.es,0,,Europe/Madrid,0
par_8_17804,17804,AV.AMÉRICA LATINA-BRASIL,Ctra de la Fortuna 2 E,40.3451957702637,-3.76976299285889,B1,http://www.crtm.es,0,,Europe/Madrid,0
par_8_18319,18319,GRANADA-CTRA.M406,Calle de Granada 2,40.319637298584,-3.7503228187561,B1,http://www.crtm.es,0,,Europe/Madrid,0
par_8_18320,18320,AV.VALLADOLID-CTRA.M406,Calle de Granada 2,40.3195877075195,-3.75001621246338,B1,http://www.crtm.es,0,,Europe/Madrid,0
par_8_18321,18321,ZAMORA-CUENCA,Calle de Zamora 37,40.3187637329102,-3.75444436073303,B1,http://www.crtm.es,0,,Europe/Madrid,0
par_8_18322,18322,ZAMORA-CÓRDOBA,Calle de Zamora 41,40.3188095092773,-3.75420951843262,B1,http://www.crtm.es,0,,Europe/Madrid,0
par_8_18323,18323,PONTEVEDRA-HUELVA,Calle de Pontevedra 7,40.3182945251465,-3.75857043266296,B1,http://www.crtm.es,0,,Europe/Madrid,0
par_8_18324,18324,PONTEVEDRA-HUELVA,Calle de Pontevedra 7,40.3184204101563,-3.75865411758423,B1,http://www.crtm.es,0,,Europe/Madrid,0
par_8_359,359,COLONIA AVIACIÓN,Calle de la Maestra Justa Freire 53,40.3749008178711,-3.76525950431824,A,http://www.crtm.es,0,,Europe/Madrid,0
par_8_360,360,COLONIA AVIACIÓN,Calle de la Maestra Justa Freire 59,40.3742790222168,-3.76544094085693,A,http://www.crtm.es,0,,Europe/Madrid,0
par_8_361,361,MAESTRA JUSTA FREIRE,Calle de la Maestra Justa Freire 21,40.3775253295898,-3.76632595062256,A,http://www.crtm.es,0,,Europe/Madrid,0
par_8_362,362,MAESTRA JUSTA FREIRE,Calle de la Maestra Justa Freire 30,40.3772468566895,-3.76634621620178,A,http://www.crtm.es,0,,Europe/Madrid,0
par_8_4265,4265,CTRA.BARRIO LA FORTUNA-JOAQUIN TURINA,Ctra del Barrio de la Fortuna 1,40.3727111816406,-3.76557636260986,A,http://www.crtm.es,0,,Europe/Madrid,0
par_8_578,578,RAFAEL FINAT-AVENIDA DE LAS ÁGUILAS,Calle de Rafael Finat 4,40.3836135864258,-3.76526379585266,A,http://www.crtm.es,0,,Europe/Madrid,0
par_8_579,579,RAFAEL FINAT-AVENIDA DE LAS ÁGUILAS,Calle de Rafael Finat 5,40.3838882446289,-3.76452469825745,A,http://www.crtm.es,0,,Europe/Madrid,0
par_8_580,580,RAFAEL FINAT Nº 36,Calle de Rafael Finat 36,40.3815231323242,-3.767737865448,A,http://www.crtm.es,0,,Europe/Madrid,0
par_8_581,581,RAFAEL FINAT Nº 31,Calle de Rafael Finat 23,40.3816719055176,-3.76736235618591,A,http://www.crtm.es,0,,Europe/Madrid,0
par_8_627,627,CTRA.BARRIO DE LA FORTUNA-AV.AVIACION,Ctra del Barrio de la Fortuna 4,40.3726997375488,-3.76588249206543,A,http://www.crtm.es,0,,Europe/Madrid,0
par_8_07614,07614,AV.ABRANTES-BESOLLA,Avda de Abrantes 291,40.3757476806641,-3.73465347290039,A,http://www.crtm.es,0,,Europe/Madrid,2
par_8_07615,07615,AV.ABRANTES-PAN BENDITO,Avda de Abrantes 291,40.3757057189941,-3.73454689979553,A,http://www.crtm.es,0,,Europe/Madrid,2
par_8_07874,07874,PIZARRO-PARQUE SAN CRISTÓBAL,Calle   Pizarro 2 A,40.3250999450684,-3.76626229286194,B1,http://www.crtm.es,0,,Europe/Madrid,2
par_8_07875,07875,PIZARRO-PARQUE SAN CRISTÓBAL,Calle   Pizarro 4,40.3249626159668,-3.7665433883667,B1,http://www.crtm.es,0,,Europe/Madrid,2
par_8_07892,07892,AV.FUENLABRADA-PZA.ESPAÑA,Avda   Fuenlabrada 58,40.3275871276855,-3.76371264457703,B1,http://www.crtm.es,0,,Europe/Madrid,2
par_8_07893,07893,AV.FUENLABRADA-GETAFE,Avda   Fuenlabrada 75,40.3271980285645,-3.76386117935181,B1,http://www.crtm.es,0,,Europe/Madrid,2
par_8_17960,17960,VALLE DE ORO-OPORTO,Calle del Valle de Oro 3,40.3883018493652,-3.72995924949646,A,http://www.crtm.es,0,,Europe/Madrid,0
par_8_2438,2438,AV.ABRANTES-PELICANO,Avda de Abrantes 22,40.3828964233398,-3.72565960884094,A,http://www.crtm.es,0,,Europe/Madrid,0
par_8_2439,2439,AV.ABRANTES-ALFONSO MARTINEZ CONDE,Avda de Abrantes 54,40.3807334899902,-3.7283341884613,A,http://www.crtm.es,0,,Europe/Madrid,0
par_8_2440,2440,AV.ABRANTES-ALFONSO MARTINEZ CONDE,Avda de Abrantes 77,40.3807640075684,-3.72802829742432,A,http://www.crtm.es,0,,Europe/Madrid,0
par_8_2441,2441,AV.ABRANTES-CARRERO JUAN RAMON,Avda de Abrantes 70,40.3795967102051,-3.73004198074341,A,http://www.crtm.es,0,,Europe/Madrid,0
par_8_2442,2442,AV.ABRANTES-CARRERO JUAN RAMON,Avda de Abrantes 103,40.3793983459473,-3.73001623153687,A,http://www.crtm.es,0,,Europe/Madrid,0
par_8_2443,2443,AV.ABRANTES-PZA.LAS MENINAS,Avda de Abrantes 110,40.377311706543,-3.73275017738342,A,http://www.crtm.es,0,,Europe/Madrid,0
par_8_2444,2444,AV.ABRANTES-PZA.MENINAS,Avda de Abrantes 141,40.3775405883789,-3.73222255706787,A,http://www.crtm.es,0,,Europe/Madrid,0
par_8_3182,3182,AV.POBLADOS-AV.ABRANTES,Calle  Vía Lusitana 132,40.3739585876465,-3.73552918434143,A,http://www.crtm.es,0,,Europe/Madrid,0
par_8_3183,3183,AV.POBLADOS-AV.ABRANTES,Avda de los Poblados 108,40.3737144470215,-3.73547959327698,A,http://www.crtm.es,0,,Europe/Madrid,0
par_8_5046,5046,AV.ABRANTES-PELICANO,Avda de Abrantes 23,40.3829154968262,-3.7254478931427,A,http://www.crtm.es,0,,Europe/Madrid,0
par_8_5662,5662,PORTALEGRE-AV.OPORTO,Calle de Portalegre 108,40.3850440979004,-3.72380948066711,A,http://www.crtm.es,0,,Europe/Madrid,0
par_8_5663,5663,OPAÑEL,Calle de Portalegre 75,40.3857383728027,-3.7234046459198,A,http://www.crtm.es,0,,Europe/Madrid,0
par_8_07543,07543,AV.REY JUAN CARLOS I-EST.JULIÁN BESTEIRO,Avda   Rey Juan Carlos I 32,40.3345545780474,-3.7523651737788,B1,http://www.crtm.es,0,,Europe/Madrid,2
par_8_07544,07544,AV.REY JUAN CARLOS I-EST.JULIÁN BESTEIRO,Avda   Rey Juan Carlos I 25,40.3347250483713,-3.75247301981321,B1,http://www.crtm.es,0,,Europe/Madrid,2
par_8_07548,07548,AV.REY JUAN CARLOS I-AV.EUROPA,Avda   Rey Juan Carlos I 68,40.3348693847656,-3.74788975715637,B1,http://www.crtm.es,0,,Europe/Madrid,2
par_8_07549,07549,AV.REY JUAN CARLOS I-AV.EUROPA,Calle   Priorato 119,40.3350296020508,-3.74820947647095,B1,http://www.crtm.es,0,,Europe/Madrid,2
par_8_07862,07862,CTRA.M409-LOS FRAILES,Avda   Fuenlabrada 123,40.3169315032179,-3.77036503250856,B1,http://www.crtm.es,0,,Europe/Madrid,2
par_8_07863,07863,CTRA.M409-LOS FRAILES,Avda   Fuenlabrada 123,40.3171056399006,-3.76991977298709,B1,http://www.crtm.es,0,,Europe/Madrid,2
par_8_07865,07865,AV.ORELLANA-HOSPITAL SEVERO OCHOA,Avda   Orellana 2 A,40.3226699829102,-3.76902437210083,B1,http://www.crtm.es,0,,Europe/Madrid,2
par_8_07866,07866,AV.ORELLANA-HOSPITAL SEVERO OCHOA,Avda   Orellana 2 A,40.322452545166,-3.76783323287964,B1,http://www.crtm.es,0,,Europe/Madrid,2
par_8_07867,07867,AV.FUENLABRADA-JUAN SEBASTIÁN ELCANO,Calle   Juan Sebastián Elcano 2,40.3227996826172,-3.76694250106812,B1,http://www.crtm.es,0,,Europe/Madrid,2
par_8_07868,07868,AV.FUENLABRADA-SAAVEDRA FAJARDO,Avda   Fuenlabrada 123,40.322811126709,-3.76673078536987,B1,http://www.crtm.es,0,,Europe/Madrid,2
par_8_07869,07869,AV.ORELLANA-PZA.DE LA INMACULADA,Avda   Orellana 8,40.3231773376465,-3.77130198478699,B1,http://www.crtm.es,0,,Europe/Madrid,2
par_8_07870,07870,AV.ORELLANA-PZA.DE LA INMACULADA,Avda de los Pinos 2,40.3230857849121,-3.77138328552246,B1,http://www.crtm.es,0,,Europe/Madrid,2
par_8_07879,07879,SANTA TERESA-ESTACIÓN,Calle   Santa Teresa 1,40.3286026006022,-3.76970903648508,B1,http://www.crtm.es,0,,Europe/Madrid,2
par_8_07914,07914,AV.LOS PINOS-CENTRO DE SALUD Y GERENCIA,Avda de los Pinos 18,40.3212816903481,-3.77593468834121,B1,http://www.crtm.es,0,,Europe/Madrid,2
par_8_07983,07983,AV.REY JUAN CARLOS I-AV.FRANCIA,Avda   Francia 24,40.3357620239258,-3.74496817588806,B1,http://www.crtm.es,0,,Europe/Madrid,2
par_8_07984,07984,AV.REY JUAN CARLOS I-AV.FRANCIA,Avda   Rey Juan Carlos I 76,40.3353691101074,-3.74459886550903,B1,http://www.crtm.es,0,,Europe/Madrid,2
par_8_11914,11914,BASTIDOR-CIUDAD DEL AUTOMÓVIL,Calle  Bastidor 2,40.3167037963867,-3.76628518104553,B1,http://www.crtm.es,0,,Europe/Madrid,2
par_8_11916,11916,CARLOS SÁINZ-CIUDAD DEL AUTOMÓVIL,Calle de Carlos Sáinz 23,40.3157157897949,-3.77131128311157,B1,http://www.crtm.es,0,,Europe/Madrid,2
par_8_11917,11917,CARLOS SÁINZ-PALIER,Calle de Carlos Sáinz 57,40.31298828125,-3.77521109580994,B1,http://www.crtm.es,0,,Europe/Madrid,2
par_8_11918,11918,AV.REY JUAN CARLOS I-EST.EL CARRASCAL,Avda   Rey Juan Carlos I 73,40.3364868164063,-3.74180912971497,B1,http://www.crtm.es,0,,Europe/Madrid,2
par_8_11919,11919,AV.REY JUAN CARLOS I-EST.EL CARRASCAL,Avda   Rey Juan Carlos I 100,40.3362464904785,-3.74095892906189,B1,http://www.crtm.es,0,,Europe/Madrid,2
par_8_12823,12823,AV.GRAN BRETAÑA-INSTITUTO,Avda   Gran Bretaña 30,40.3407135009766,-3.74129033088684,B1,http://www.crtm.es,0,,Europe/Madrid,2
par_8_12824,12824,AV.GRAN BRETAÑA-INSTITUTO,Avda de Gran Bretaña SN,40.3408508300781,-3.74129176139832,B1,http://www.crtm.es,0,,Europe/Madrid,2
par_8_13034,13034,CºACEDINOS-CEMENTERIO,Cmno de Acedinos 1,40.3103256225586,-3.7634003162384,B1,http://www.crtm.es,0,,Europe/Madrid,2
par_8_15364,15364,BASTIDOR-CIUDAD DEL AUTOMÓVIL,Calle   Bastidor 1,40.3166885375977,-3.76610827445984,B1,http://www.crtm.es,0,,Europe/Madrid,2
par_8_16090,16090,C.C.PARQUESUR-EST.EL CARRASCAL,Pque   Avda Rey Juan Carlos I S/N,40.3371956597731,-3.738161023427,B1,http://www.crtm.es,0,,Europe/Madrid,2
par_8_20407,20407,AV.FUENLABRADA-HOSPITAL SEVERO OCHOA,Avda   Fuenlabrada 123,40.3209512521754,-3.76739757693172,B1,http://www.crtm.es,0,,Europe/Madrid,0
par_8_2453,2453,AV.POBLADOS-ALISEDA,Avda de los Poblados 92,40.3734970092773,-3.74160242080688,A,http://www.crtm.es,0,,Europe/Madrid,0
par_8_2463,2463,AV.POBLADOS-EUGENIA MONTIJO,Avda de los Poblados 84,40.3761520385742,-3.74901747703552,A,http://www.crtm.es,0,,Europe/Madrid,0
par_8_3184,3184,AV.POBLADOS-BELZUNEGUI,Avda de los Poblados 95,40.3739318847656,-3.73830890655518,A,http://www.crtm.es,0,,Europe/Madrid,0
par_8_3185,3185,AV.POBLADOS-AV.DEL EURO,Avda de los Poblados 104,40.3737258911133,-3.7381534576416,A,http://www.crtm.es,0,,Europe/Madrid,0
par_8_3186,3186,AV.POBLADOS-SECOYA,Avda de los Poblados 92,40.3733444213867,-3.74130630493164,A,http://www.crtm.es,0,,Europe/Madrid,0
par_8_07913,07913,CTRA.M411-AV.MEDITERRÁNEO,Ctra de la Fortuna 2 A,40.3367805480957,-3.76964378356934,B1,http://www.crtm.es,0,,Europe/Madrid,2
par_8_08032,08032,AV.LIBERTAD-SAN LUIS,Avda   Libertad 76,40.35693359375,-3.77543139457703,B1,http://www.crtm.es,0,,Europe/Madrid,2
par_8_08033,08033,SAN JOSÉ-EST.LA FORTUNA,Calle   San José 44,40.357738494873,-3.77733659744263,B1,http://www.crtm.es,0,,Europe/Madrid,2
par_8_09066,09066,AV.CONDE DE BARCELONA-TOMÁS MEABE,Calle   Juan Negrín 1,40.3249626159668,-3.78304624557495,B1,http://www.crtm.es,0,,Europe/Madrid,2
par_8_09507,09507,AV.AMÉRICA LATINA-ESCUELA POLITÉCNICA,Avda de América Latina 2 C,40.3373908996582,-3.77008628845215,B1,http://www.crtm.es,0,,Europe/Madrid,2
par_8_12572,12572,PALMERA-VIOLETA PARRA,Calle de la Palmera 31,40.3382949829102,-3.77532386779785,B1,http://www.crtm.es,0,,Europe/Madrid,2
par_8_12573,12573,PALMERA-CENTRO COMERCIAL,Calle de la Palmera 2,40.3385276794434,-3.77284240722656,B1,http://www.crtm.es,0,,Europe/Madrid,2
par_8_12574,12574,PALMERA-CENTRO COMERCIAL,Calle de la Palmera 2,40.3386878967285,-3.77265596389771,B1,http://www.crtm.es,0,,Europe/Madrid,2
par_8_12575,12575,PALMERA-VIOLETA PARRA,Calle de la Palmera 31,40.3384284973145,-3.7755138874054,B1,http://www.crtm.es,0,,Europe/Madrid,2
par_8_15146,15146,CARMEN-PZA.CARMEN,Calle   Carmen 20,40.3567314147949,-3.77838492393494,B1,http://www.crtm.es,0,,Europe/Madrid,2
par_8_17805,17805,ANITA MARTÍNEZ-BUDAPEST,Calle   Anita Martínez 6,40.344783782959,-3.77194833755493,B1,http://www.crtm.es,0,,Europe/Madrid,0
par_8_17806,17806,ANITA MARTÍNEZ-AMSTERDAN,Calle   Anita Martínez 6,40.3444786071777,-3.77188611030579,B1,http://www.crtm.es,0,,Europe/Madrid,0
par_8_17807,17807,ANITA MARTÍNEZ-ATENAS,Calle   Varsovia 1,40.344539642334,-3.77495980262756,B1,http://www.crtm.es,0,,Europe/Madrid,0
par_8_17808,17808,ANITA MARTÍNEZ-PRAGA,Calle   Praga 2,40.3442497253418,-3.77488589286804,B1,http://www.crtm.es,0,,Europe/Madrid,0
par_8_18301,18301,AV.JUAN XXIII-REPÚBLICA DOMINICANA,Avda   Juan XXIII 1,40.3442535400391,-3.77748799324036,B1,http://www.crtm.es,0,,Europe/Madrid,0
par_8_18302,18302,AV.JUAN XXIII-HAITÍ,Avda   Juan XXIII 1,40.3438148498535,-3.77844834327698,B1,http://www.crtm.es,0,,Europe/Madrid,0
par_8_18303,18303,AV.JUAN XXIII-BOLIVIA,Avda   Juan XXIII 18,40.3432579040527,-3.78305745124817,B1,http://www.crtm.es,0,,Europe/Madrid,0
par_8_18304,18304,AV.JUAN XXIII-CAÑADA,Avda   Juan XXIII 15,40.343017578125,-3.78278398513794,B1,http://www.crtm.es,0,,Europe/Madrid,0
par_8_20189,20189,AV.VICENTE FERRER-MARTE,Avda  Vicente Ferrer SN,40.338680267334,-3.78356957435608,B1,http://www.crtm.es,0,,Europe/Madrid,0
par_8_20190,20190,AV.VICENTE FERRER-MARTE,Avda   Vicente Ferrer SN,40.3384246826172,-3.78377866744995,B1,http://www.crtm.es,0,,Europe/Madrid,0
par_8_20191,20191,AV.VICENTE FERRER-NEPTUNO,Avda  Vicente Ferrer SN,40.3412132263184,-3.78463506698608,B1,http://www.crtm.es,0,,Europe/Madrid,0
par_8_20192,20192,AV.VICENTE FERRER-NEPTUNO,Avda  Vicente Ferrer SN,40.3411903381348,-3.78504681587219,B1,http://www.crtm.es,0,,Europe/Madrid,0
par_8_355,355,JOAQUIN TURINA-POLVORANCA,Calle de Joaquín Turina 37,40.3719711303711,-3.75467228889465,A,http://www.crtm.es,0,,Europe/Madrid,0
par_8_356,356,JOAQUIN TURINA-POLVORANCA,Calle de Joaquín Turina 37,40.371883392334,-3.75456523895264,A,http://www.crtm.es,0,,Europe/Madrid,0
par_8_357,357,JOAQUIN TURINA-NAVALMORALES,Calle de Joaquín Turina 64,40.3721885681152,-3.75863242149353,A,http://www.crtm.es,0,,Europe/Madrid,0
par_8_358,358,JOAQUIN TURINA-NAVALMORALES,Calle de Joaquín Turina 68,40.3721237182617,-3.75905585289001,A,http://www.crtm.es,0,,Europe/Madrid,0
par_8_3817,3817,JOAQUIN TURINA-JACOBEO,Calle de Joaquín Turina 47,40.3727836608887,-3.76267957687378,A,http://www.crtm.es,0,,Europe/Madrid,0
par_8_3818,3818,JOAQUIN TURINA-JACOBEO,Calle de Joaquín Turina 47,40.3725929260254,-3.76260662078857,A,http://www.crtm.es,0,,Europe/Madrid,0
par_8_18305,18305,ENCINA-SAN NICASIO,Calle de la Encina 24,40.3370475769043,-3.7756040096283,B1,http://www.crtm.es,0,,Europe/Madrid,0
par_8_18306,18306,ENCINA-PALMERA,Calle de la Encina 24,40.338493347168,-3.77771615982056,B1,http://www.crtm.es,0,,Europe/Madrid,0
par_8_18307,18307,ENCINA-PALMERA,Calle de la Encina 24,40.3385887145996,-3.77803516387939,B1,http://www.crtm.es,0,,Europe/Madrid,0
par_8_19410,19410,AV.PUEBLO SAHARAUI-CONCHALI,Avda del Pueblo Saharaui SN,40.3412590026855,-3.78184533119202,B1,http://www.crtm.es,0,,Europe/Madrid,0
par_8_19411,19411,AV.PUEBLO SAHARAUI-CONCHALI,Avda del Pueblo Saharaui SN,40.3409843444824,-3.78115916252136,B1,http://www.crtm.es,0,,Europe/Madrid,0
par_8_07604,07604,REY PASTOR-OFICINA INEM II,Calle   Rey Pastor 48,40.3327751159668,-3.73630619049072,B1,http://www.crtm.es,0,,Europe/Madrid,2
par_8_07917,07917,JUAN DE LA CIERVA-RAMÓN Y CAJAL,Calle   Juan de la Cierva 3,40.3283195495605,-3.74109578132629,B1,http://www.crtm.es,0,,Europe/Madrid,2
par_8_07938,07938,JUAN DE LA CIERVA-RAMÓN Y CAJAL,Calle   Juan de la Cierva 6,40.3282279968262,-3.74122428894043,B1,http://www.crtm.es,0,,Europe/Madrid,2
par_8_07939,07939,REY PASTOR-MIGUEL CATALÁ,Calle   Rey Pastor 48,40.3328514099121,-3.73650717735291,B1,http://www.crtm.es,0,,Europe/Madrid,2
par_8_08214,08214,AV.BUENOS AIRES-BIBLIOTECA,Avda de Buenos Aires 1,40.3245999943693,-3.73690557171135,B1,http://www.crtm.es,0,,Europe/Madrid,2
par_8_08215,08215,AV.BUENOS AIRES-BARRIO EL BERCIAL,Avda de Buenos Aires 14,40.3264237470178,-3.73628976803402,B1,http://www.crtm.es,0,,Europe/Madrid,2
par_8_08216,08216,AV.BUENOS AIRES-EDUARDO TORROJA,Avda de Buenos Aires 25,40.3281984845434,-3.73629728299322,B1,http://www.crtm.es,0,,Europe/Madrid,2
par_8_08217,08217,AUSTRIA-BARRIO EL BERCIAL,Calle   Austria 1,40.3259606439505,-3.73686151438615,B1,http://www.crtm.es,0,,Europe/Madrid,2
par_8_08218,08218,AV.BUENOS AIRES-BIBLIOTECA,Avda de Buenos Aires 1 T,40.3245165933776,-3.73726955773641,B1,http://www.crtm.es,0,,Europe/Madrid,2
par_8_08235,08235,AV.ESPAÑA-EST.JUAN DE LA CIERVA,Avda de España 14,40.3112016491647,-3.72292023579178,B1,http://www.crtm.es,0,,Europe/Madrid,2
par_8_08239,08239,AV.ESPAÑA-ALICANTE,Avda de España 36,40.3129875598594,-3.72113866261372,B1,http://www.crtm.es,0,,Europe/Madrid,2
par_8_08246,08246,AV.CIUDADES-ARAGÓN,Avda de las Ciudades 96,40.3134023020083,-3.71528220225444,B1,http://www.crtm.es,0,,Europe/Madrid,2
par_8_08292,08292,MADRID-DAOÍZ,Calle   Titulcia 1,40.313732396482,-3.72736055222324,B1,http://www.crtm.es,0,,Europe/Madrid,2
par_8_08293,08293,MADRID-UNIVERSIDAD,Calle   Madrid 129,40.3159370422363,-3.72727274894714,B1,http://www.crtm.es,0,,Europe/Madrid,2
par_8_08294,08294,MADRID-UNIVERSIDAD,Calle   Madrid 133,40.3168144226074,-3.72695255279541,B1,http://www.crtm.es,0,,Europe/Madrid,2
par_8_08296,08296,MADRID-PZA.VICTORIA KENT,Calle   Madrid 141,40.3188056945801,-3.72687983512878,B1,http://www.crtm.es,0,,Europe/Madrid,2
par_8_08297,08297,MADRID-PZA.VICTORIA KENT,Calle   Madrid 141,40.3191757202148,-3.72666001319885,B1,http://www.crtm.es,0,,Europe/Madrid,2
par_8_08315,08315,AV.JUAN DE LA CIERVA-PZA.SAN SEBASTIÁN,Avda de Juan de la Cierva 54,40.3122367858887,-3.72700929641724,B1,http://www.crtm.es,0,,Europe/Madrid,2
par_8_08316,08316,AV.JUAN DE LA CIERVA-PZA.SAN SEBASTIÁN,Avda de Juan de la Cierva 54,40.3123742612578,-3.72700468938661,B1,http://www.crtm.es,0,,Europe/Madrid,2
par_8_08317,08317,AV.GIBRALTAR-CATALUÑA,Avda de Gibraltar 2,40.3108654145973,-3.72482312747436,B1,http://www.crtm.es,0,,Europe/Madrid,2
par_8_08324,08324,AV.ARAGÓN-BADAJOZ,Avda de Aragón 13,40.311391295077,-3.7185090818972,B1,http://www.crtm.es,0,,Europe/Madrid,2
par_8_08325,08325,AV.ARAGÓN-EXTREMADURA,Avda de Aragón 27,40.3127170735761,-3.71536912166446,B1,http://www.crtm.es,0,,Europe/Madrid,2
par_8_08326,08326,AV.CIUDADES-AV.ESPAÑA,Avda de las Ciudades 66,40.3147745955816,-3.71772110897938,B1,http://www.crtm.es,0,,Europe/Madrid,2
par_8_08332,08332,AV.ESPAÑA-EST.JUAN DE LA CIERVA,Avda de España 14,40.3114449519703,-3.72291106180497,B1,http://www.crtm.es,0,,Europe/Madrid,2
par_8_08990,08990,ALICANTE-AV.ESPAÑA,Calle   Alicante 2,40.3125541984418,-3.7212870453137,B1,http://www.crtm.es,0,,Europe/Madrid,2
par_8_09522,09522,REY PASTOR-POL.IND.NTRA.SRA.DE BUTARQUE,Calle   Rey Pastor 32,40.3303451538086,-3.73988199234009,B1,http://www.crtm.es,0,,Europe/Madrid,2
par_8_09523,09523,REY PASTOR-POL.IND.NTRA.SRA.DE BUTARQUE,Calle   Rey Pastor 32,40.3303565979004,-3.73950552940369,B1,http://www.crtm.es,0,,Europe/Madrid,2
par_8_09993,09993,AV.JUAN DE LA CIERVA-EGIDO,Avda de Juan de la Cierva 49,40.3102682730437,-3.7252286327823,B1,http://www.crtm.es,0,,Europe/Madrid,2
par_8_10806,10806,AV.DON JUAN BORBÓN-PARQUE ANDALUCÍA,Avda   Don Juan de Borbón 10,40.3128429389604,-3.71102779032729,B1,http://www.crtm.es,0,,Europe/Madrid,2
par_8_10807,10807,AV.DON JUAN BORBÓN-PARQUE ANDALUCÍA,Avda   Don Juan de Borbón 10,40.3128231132733,-3.71132180044401,B1,http://www.crtm.es,0,,Europe/Madrid,2
par_8_10808,10808,AV.DON JUAN BORBÓN-PLAZA DE TOROS,Avda   Don Juan de Borbón 11,40.3159000587348,-3.71346078641233,B1,http://www.crtm.es,0,,Europe/Madrid,2
par_8_10809,10809,AV.DON JUAN BORBÓN-PLAZA DE TOROS,Avda   Don Juan de Borbón 4,40.3155936244595,-3.71348109938465,B1,http://www.crtm.es,0,,Europe/Madrid,2
par_8_10810,10810,AV.DON JUAN BORBÓN-GIRALDA,Avda   Don Juan de Borbón 1,40.3180603512219,-3.71522543173014,B1,http://www.crtm.es,0,,Europe/Madrid,2
par_8_10811,10811,AV.DON JUAN BORBÓN-GIRALDA,Avda   Don Juan de Borbón 3,40.3177181011254,-3.71521005055538,B1,http://www.crtm.es,0,,Europe/Madrid,2
par_8_10812,10812,AV.ESPAÑA-AV.CIUDADES,Avda de España 57,40.3150089081234,-3.71915942002087,B1,http://www.crtm.es,0,,Europe/Madrid,2
par_8_11401,11401,EDUARDO TORROJA-COLEGIO,Calle   Eduardo Torroja 27,40.3277740478516,-3.73740553855896,B1,http://www.crtm.es,0,,Europe/Madrid,2
par_8_11720,11720,AV.RIGOBERTA MENCHÚ-EST.LOS ESPARTALES,Avda   Rigoberta Menchú 1,40.3247193966601,-3.71936840584299,B1,http://www.crtm.es,0,,Europe/Madrid,2
par_8_11722,11722,AV.RIGOBERTA MENCHÚ-CENTRO DE SALUD,Avda   Rigoberta Menchú 2,40.3226249633006,-3.71570911151947,B1,http://www.crtm.es,0,,Europe/Madrid,2
par_8_11723,11723,AV.RIGOBERTA MENCHÚ-CENTRO DE SALUD,Avda   Rigoberta Menchú 19,40.3226793783257,-3.71565083406086,B1,http://www.crtm.es,0,,Europe/Madrid,2
par_8_11724,11724,AV.RIGOBERTA MENCHÚ-AV.RABIA,Avda   Rigoberta Menchú 10,40.3210651942114,-3.71298550362883,B1,http://www.crtm.es,0,,Europe/Madrid,2
par_8_11725,11725,AV.RIGOBERTA MENCHÚ-MANUELA MALASAÑA,Avda   Rigoberta Menchú 10,40.3211819419247,-3.71304558276578,B1,http://www.crtm.es,0,,Europe/Madrid,2
par_8_11726,11726,AV.RABIA-ALMAZARA,Avda de la Rabia SN,40.3189526288541,-3.7151642290959,B1,http://www.crtm.es,0,,Europe/Madrid,2
par_8_11727,11727,AV.RABIA-ALMAZARA,Avda de la Rabia SN,40.3190879017958,-3.71514211689013,B1,http://www.crtm.es,0,,Europe/Madrid,2
par_8_17439,17439,AV.SALVADOR ALLENDE-AV.CHILE,Avda   Salvador Allende SN,40.3197522357539,-3.73986595653368,B1,http://www.crtm.es,0,,Europe/Madrid,2
par_8_17440,17440,AV.PAZ-AV.CHILE,Avda de la Paz 7,40.3185868473498,-3.73613400554518,B1,http://www.crtm.es,0,,Europe/Madrid,2
par_8_17441,17441,AV.SALVADOR ALLENDE-AV.ROSA REGÁS,Avda   Salvador Allende 51,40.3225670091548,-3.736424418269,B1,http://www.crtm.es,0,,Europe/Madrid,2
par_8_17442,17442,AV.SALVADOR ALLENDE-URUGUAY,Avda   Salvador Allende 53,40.3223339988647,-3.73764600389708,B1,http://www.crtm.es,0,,Europe/Madrid,2
par_8_17443,17443,AV.PARQUE-AV.LAS TRECE ROSAS,Avda del Parque 1 B,40.3231611169982,-3.73650149767735,B1,http://www.crtm.es,0,,Europe/Madrid,2
par_8_17445,17445,AV.TRECE ROSAS-AV.MARIANO MORENO MÚSICO,Avda   Las Trece Rosas 5,40.3236431006475,-3.73437625916561,B1,http://www.crtm.es,0,,Europe/Madrid,2
par_8_18173,18173,AV.PAZ-AV.CHILE,Avda de la Paz 7,40.3186396996077,-3.7363228951427,B1,http://www.crtm.es,0,,Europe/Madrid,0
par_8_18331,18331,RÍO GUADIANA-SAN NICASIO,Calle   Río Guadiana 16,40.3350448608398,-3.77599310874939,B1,http://www.crtm.es,0,,Europe/Madrid,0
par_8_18332,18332,RÍO NERVIÓN-SAN NICASIO,Calle   Río Guadiana 16,40.3351631164551,-3.77581787109375,B1,http://www.crtm.es,0,,Europe/Madrid,0
par_8_18802,18802,BUHIGAS-RAMÓN RUBIAL,Calle   Buhigas 3,40.318542548524,-3.73033105919154,B1,http://www.crtm.es,0,,Europe/Madrid,0
par_8_18803,18803,BUHIGAS-RAMÓN RUBIAL,Calle   Buhigas 2 D,40.3185748656943,-3.73091989308436,B1,http://www.crtm.es,0,,Europe/Madrid,0
par_8_19435,19435,AV.SALVADOR ALLENDE-AV.CHILE,Avda   Salvador Allende 8,40.3199589952283,-3.73852643944188,B1,http://www.crtm.es,0,,Europe/Madrid,0
par_8_20118,20118,AV.RIGOBERTA MENCHÚ-EST.LOS ESPARTALES,Avda   Rigoberta Menchú 1,40.3247828951682,-3.71929845518322,B1,http://www.crtm.es,0,,Europe/Madrid,0
par_8_07693,07693,GALICIA-EL NARANJO,Calle   Galicia 27 A,40.2998352050781,-3.80945420265198,B2,http://www.crtm.es,0,,Europe/Madrid,2
par_8_07694,07694,GALICIA-COLEGIO,Calle   Galicia 24,40.2984352111816,-3.80961418151855,B2,http://www.crtm.es,0,,Europe/Madrid,2
par_8_07695,07695,GALICIA-COLEGIO,Calle   Galicia 25,40.2982635498047,-3.80991792678833,B2,http://www.crtm.es,0,,Europe/Madrid,2
par_8_07696,07696,GALICIA-KIOSCO,Calle   Galicia 15,40.2958908081055,-3.8100426197052,B2,http://www.crtm.es,0,,Europe/Madrid,2
par_8_07697,07697,GALICIA-FARMACIA,Calle   Galicia 20,40.2959213256836,-3.809654712677,B2,http://www.crtm.es,0,,Europe/Madrid,2
par_8_07698,07698,GALICIA-CENTRO DE DÍA,Calle   Galicia 2,40.2939987182617,-3.81030249595642,B2,http://www.crtm.es,0,,Europe/Madrid,2
par_8_07699,07699,GALICIA-CENTRO DE DÍA,Calle   Galicia 1,40.2942695617676,-3.81049394607544,B2,http://www.crtm.es,0,,Europe/Madrid,2
par_8_07702,07702,MÓSTOLES-COLEGIO,Calle de Móstoles 68,40.2920341491699,-3.80671405792236,B2,http://www.crtm.es,0,,Europe/Madrid,2
par_8_07703,07703,MÓSTOLES-COLEGIO,Calle de Móstoles 68,40.2922210693359,-3.80659866333008,B2,http://www.crtm.es,0,,Europe/Madrid,2
par_8_07705,07705,AV.EUROPA-MÓSTOLES,Avda de Europa 2,40.2896881103516,-3.80455660820007,B2,http://www.crtm.es,0,,Europe/Madrid,2
par_8_07716,07716,MÓSTOLES-AUSTRIA,Calle de Móstoles 35,40.289005279541,-3.80268979072571,B2,http://www.crtm.es,0,,Europe/Madrid,2
par_8_07717,07717,MÓSTOLES-MIRASIERRA,Calle de Mostoles 15,40.2887306213379,-3.80212187767029,B2,http://www.crtm.es,0,,Europe/Madrid,2
par_8_07718,07718,MÓSTOLES-FÁTIMA,Calle de Móstoles 38,40.2868194580078,-3.79988765716553,B2,http://www.crtm.es,0,,Europe/Madrid,2
par_8_07719,07719,MÓSTOLES-FATIMA,Calle de Móstoles 21,40.2867546081543,-3.8000750541687,B2,http://www.crtm.es,0,,Europe/Madrid,2
par_8_07720,07720,AV.NACIONES-PARQUE,Avda de las Naciones 8,40.286205291748,-3.80244493484497,B2,http://www.crtm.es,0,,Europe/Madrid,2
par_8_07725,07725,FRANCIA-AV.NACIONES,Calle de Francia 33,40.2849655151367,-3.80492424964905,B2,http://www.crtm.es,0,,Europe/Madrid,2
par_8_07726,07726,FRANCIA-HOLANDA,Calle de Francia 26,40.2851181030273,-3.80497312545776,B2,http://www.crtm.es,0,,Europe/Madrid,2
par_8_07730,07730,PORTUGAL-GALERIAS COMERCIALES,Calle   Portugal 37,40.2844276428223,-3.80948233604431,B2,http://www.crtm.es,0,,Europe/Madrid,2
par_8_07731,07731,PORTUGAL-GALERIAS COMERCIALES,Calle   Portugal 44,40.2844734191895,-3.8092827796936,B2,http://www.crtm.es,0,,Europe/Madrid,2
par_8_07732,07732,PORTUGAL-TURQUÍA,Calle   Portugal 31,40.2810707092285,-3.80890107154846,B2,http://www.crtm.es,0,,Europe/Madrid,2
par_8_07751,07751,LEGANÉS-HUMILLADERO,Calle de Leganés 4000,40.2846897164163,-3.79409115767014,B2,http://www.crtm.es,0,,Europe/Madrid,2
par_8_07752,07752,MÓSTOLES-HUMILLADERO,Calle de Móstoles 12,40.2844581604004,-3.79708337783813,B2,http://www.crtm.es,0,,Europe/Madrid,2
par_8_07754,07754,LEGANÉS-CENTRO DE SALUD MENTAL,Calle de Leganés 2900,40.2948072918365,-3.79009164275648,B2,http://www.crtm.es,0,,Europe/Madrid,2
par_8_07755,07755,LEGANÉS-CENTRO DE SALUD MENTAL,Calle de Leganés 60,40.295187410986,-3.78983722653704,B2,http://www.crtm.es,0,,Europe/Madrid,2
par_8_07763,07763,LEGANÉS-MURCIA,Calle de Leganés 35,40.2894368518681,-3.79155849950191,B2,http://www.crtm.es,0,,Europe/Madrid,2
par_8_07764,07764,LEGANÉS-CUZCO,Calle de Leganés 46,40.2895545242067,-3.79147751986261,B2,http://www.crtm.es,0,,Europe/Madrid,2
par_8_07771,07771,LEGANÉS-LOS ÁNGELES,Calle de Leganés 36,40.286998226576,-3.79245942169942,B2,http://www.crtm.es,0,,Europe/Madrid,2
par_8_07772,07772,LEGANÉS-LOS ÁNGELES,Calle de Leganés 23,40.2868618920934,-3.79263429212132,B2,http://www.crtm.es,0,,Europe/Madrid,2
par_8_07781,07781,LUIS SAUQUILLO-TESILLO,Calle de Leganés 4,40.2843821394468,-3.79427577829068,B2,http://www.crtm.es,0,,Europe/Madrid,2
par_8_07888,07888,AV.FUENLABRADA-CAMPOAMOR,Calle   Campoamor 15,40.3254203796387,-3.76548910140991,B1,http://www.crtm.es,0,,Europe/Madrid,2
par_8_07889,07889,AV.FUENLABRADA-ESCUELA INFANTIL,Avda   Fuenlabrada 101,40.3249359130859,-3.76566004753113,B1,http://www.crtm.es,0,,Europe/Madrid,2
par_8_20821,20821,CTRA.M409-CIUDAD DEL AUTOMÓVIL,Ctra   M-409 (Leganés- Fuenlabrada) 600,40.3127253139184,-3.77560136744878,B1,http://www.crtm.es,0,,Europe/Madrid,0
par_8_07756,07756,AV.LOS ANDES-LEGANÉS,Avda de los Andes 14,40.2952919006348,-3.78859829902649,B2,http://www.crtm.es,0,,Europe/Madrid,2
par_8_07757,07757,AV.LOS ANDES-LEGANÉS,Avda de los Andes 3,40.2955360412598,-3.78881287574768,B2,http://www.crtm.es,0,,Europe/Madrid,2
par_8_07758,07758,CALLAO-AV.LOS ANDES,Calle de Callao 54,40.2940979003906,-3.78551340103149,B2,http://www.crtm.es,0,,Europe/Madrid,2
par_8_07759,07759,CALLAO-AV.LOS ANDES,Calle de Callao 56,40.2943420410156,-3.78523397445679,B2,http://www.crtm.es,0,,Europe/Madrid,2
par_8_07760,07760,CALLAO-ESCUELA DE MÚSICA,Calle de Callao 40,40.2923164367676,-3.78646945953369,B2,http://www.crtm.es,0,,Europe/Madrid,2
par_8_07761,07761,CALLAO-ESCUELA DE MÚSICA,Calle de Callao 38,40.2923622131348,-3.78663468360901,B2,http://www.crtm.es,0,,Europe/Madrid,2
par_8_07765,07765,CALLAO-CENTRO DE SALUD,Calle de Callao 21,40.289852142334,-3.78847622871399,B2,http://www.crtm.es,0,,Europe/Madrid,2
par_8_07766,07766,CALLAO-CENTRO DE SALUD,Calle de Callao 12,40.2888069152832,-3.78864049911499,B2,http://www.crtm.es,0,,Europe/Madrid,2
par_8_07769,07769,AV.ESTADOS-EST.PARQUE DE LOS ESTADOS,Avda de los Estados 8,40.2869987487793,-3.78813719749451,B2,http://www.crtm.es,0,,Europe/Madrid,2
par_8_07770,07770,AV.ESTADOS-EST.PARQUE DE LOS ESTADOS,Avda de los Estados 8,40.2868537902832,-3.78821778297424,B2,http://www.crtm.es,0,,Europe/Madrid,2
par_8_07773,07773,AV.FCO.JAVIER SAUQUILLO-CASTILLEJOS,Avda   Francisco Javier Sauquillo 32,40.2840576171875,-3.79020857810974,B2,http://www.crtm.es,0,,Europe/Madrid,2
par_8_07779,07779,ARROYADA DEL TESILLO-PAZ,Calle   Arroyada del Tesillo 22,40.2835731506348,-3.79249691963196,B2,http://www.crtm.es,0,,Europe/Madrid,2
par_8_07780,07780,TESILLO-LEGANÉS,Calle   Tesillo 34,40.2840270996094,-3.79443144798279,B2,http://www.crtm.es,0,,Europe/Madrid,2
par_8_07784,07784,AV.FCO.JAVIER SAUQUILLO-VALDEMORO,Avda  Francisco Javier Sauquillo 4,40.2820091247559,-3.78672623634338,B2,http://www.crtm.es,0,,Europe/Madrid,2
par_8_10513,10513,TEIDE-POL.IND.LA ESTACIÓN,Calle   Teide 4,40.2779273986816,-3.80342936515808,B2,http://www.crtm.es,0,,Europe/Madrid,2
par_8_10514,10514,TEIDE-POL.IND.LA ESTACIÓN,Calle   Teide 4,40.2777938842773,-3.80359220504761,B2,http://www.crtm.es,0,,Europe/Madrid,2
par_8_10515,10515,TURQUÍA-AV.DE LAS NACIONES,Calle de Turquía 3,40.2793083190918,-3.80596280097961,B2,http://www.crtm.es,0,,Europe/Madrid,2
par_8_10516,10516,TURQUÍA-MÓNACO,Calle de Turquía 1,40.2791557312012,-3.80607867240906,B2,http://www.crtm.es,0,,Europe/Madrid,2
par_8_10517,10517,TURQUÍA-PORTUGAL,Calle de Turquía 13,40.2800674438477,-3.80803036689758,B2,http://www.crtm.es,0,,Europe/Madrid,2
par_8_10521,10521,TURQUÍA-CHIPRE,Calle de Turquía 18,40.2802391052246,-3.80800890922546,B2,http://www.crtm.es,0,,Europe/Madrid,2
par_8_10881,10881,AV.LOS ESTADOS-BRASIL,Avda de los Estados 28,40.2850799560547,-3.78432679176331,B2,http://www.crtm.es,0,,Europe/Madrid,2
par_8_10882,10882,AV.LOS ESTADOS-BOLIVIA,Avda de los Estados 22,40.2855796813965,-3.78495597839355,B2,http://www.crtm.es,0,,Europe/Madrid,2
par_8_10883,10883,BRASIL-PARAGUAY,Calle de Brasil SN,40.2811813354492,-3.78522276878357,B2,http://www.crtm.es,0,,Europe/Madrid,2
par_8_10884,10884,BRASIL-URUGUAY,Calle de Brasil 16,40.2828102111816,-3.7843005657196,B2,http://www.crtm.es,0,,Europe/Madrid,2
par_8_10885,10885,CONSTITUCIÓN-OLIVAR,Calle de la Constitución 40,40.2815322875977,-3.78769731521606,B2,http://www.crtm.es,0,,Europe/Madrid,2
par_8_11058,11058,BRASIL-URUGUAY,Calle de Brasil 6,40.2828979492188,-3.784419298172,B2,http://www.crtm.es,0,,Europe/Madrid,2
par_8_16541,16541,BRASIL-CONSTITUCIÓN,Calle de Brasil 2,40.2812881469727,-3.78502416610718,B2,http://www.crtm.es,0,,Europe/Madrid,2
par_8_07712,07712,ESPAÑA-PARQUE LINEAL LA SERNA,Avda de España 9,40.2921142578125,-3.8012912273407,B2,http://www.crtm.es,0,,Europe/Madrid,2
par_8_07713,07713,AV.ESPAÑA-CASTILLA LA VIEJA,Avda de España 9,40.2919044494629,-3.80072402954102,B2,http://www.crtm.es,0,,Europe/Madrid,2
par_8_07714,07714,AV.ESPAÑA-CASTILLA LA NUEVA,Avda de España 18,40.292594909668,-3.79837918281555,B2,http://www.crtm.es,0,,Europe/Madrid,2
par_8_07715,07715,AV.ESPAÑA-CASTILLA LA MANCHA,Avda de España 20,40.2924919128418,-3.79768371582031,B2,http://www.crtm.es,0,,Europe/Madrid,2
par_8_07721,07721,AV.NACIONES-MÓSTOLES,Avda de las Naciones 2,40.2870025634766,-3.80071330070496,B2,http://www.crtm.es,0,,Europe/Madrid,2
par_8_07727,07727,FRANCIA-EST.PARQUE EUROPA,Calle de Francia 34,40.285099029541,-3.80643153190613,B2,http://www.crtm.es,0,,Europe/Madrid,2
par_8_07762,07762,AV.ESPAÑA-VALENCIA,Calle de Valencia 23,40.2932548522949,-3.79272770881653,B2,http://www.crtm.es,0,,Europe/Madrid,2
par_8_08174,08174,CTRA.M506-POL.IND.CAMINO DE LA CARRERA,Ctra   M-506 (Villaviciosa-Pinto) 13000,40.299186706543,-3.82469582557678,B2,http://www.crtm.es,0,,Europe/Madrid,2
par_8_08175,08175,CTRA.M506-POL.IND.PIQUETA,Ctra   M-407 4800,40.2984771728516,-3.82445192337036,B2,http://www.crtm.es,0,,Europe/Madrid,2
par_8_08181,08181,AV.PABLO IGLESIAS-POSITO,Avda de Pablo Iglesias 17,40.3038482666016,-3.83642578125,B2,http://www.crtm.es,0,,Europe/Madrid,2
par_8_08182,08182,AV.NUEVO VERSALLES-URB.NUEVO VERSALLES,Calle de Clara Campoamor 1,40.2947731018066,-3.83176040649414,B2,http://www.crtm.es,0,,Europe/Madrid,2
par_8_09800,09800,AV.PABLO IGLESIAS-URB.NUEVO VERSALLES,Avda de Pablo Iglesias 1,40.2981758117676,-3.8324728012085,B2,http://www.crtm.es,0,,Europe/Madrid,2
par_8_11173,11173,FRANCIA-PºSETUBAL,Calle de Francia 52,40.2852935791016,-3.81037497520447,B2,http://www.crtm.es,0,,Europe/Madrid,2
par_8_11174,11174,FRANCIA-PºSETÚBAL,Calle de Francia 52,40.2851295471191,-3.81107878684998,B2,http://www.crtm.es,0,,Europe/Madrid,2
par_8_11676,11676,AV.PABLO IGLESIAS-ENCUENTRO,Avda de Pablo Iglesias 15,40.3016357421875,-3.84116387367249,B2,http://www.crtm.es,0,,Europe/Madrid,2
par_8_11677,11677,AV.PABLO IGLESIAS-ENCUENTRO,Avda de Pablo Iglesias 15,40.3012657165527,-3.84082984924316,B2,http://www.crtm.es,0,,Europe/Madrid,2
par_8_11678,11678,AV.PABLO IGLESIAS-MARIA MOLINER,Avda de Pablo Iglesias 9,40.2960968017578,-3.84060120582581,B2,http://www.crtm.es,0,,Europe/Madrid,2
par_8_11679,11679,AV.PABLO IGLESIAS-ALEGRIA,Avda de Pablo Iglesias 9,40.2961463928223,-3.84021353721619,B2,http://www.crtm.es,0,,Europe/Madrid,2
par_8_11680,11680,AV.PABLO IGLESIAS-FEDERICA MONTSENY,Avda de Pablo Iglesias 1,40.2960662841797,-3.83607077598572,B2,http://www.crtm.es,0,,Europe/Madrid,2
par_8_11681,11681,AV.PABLO IGLESIAS-DOLORES IBARRURI,Avda de Pablo Iglesias 1,40.2963104248047,-3.83608555793762,B2,http://www.crtm.es,0,,Europe/Madrid,2
par_8_11682,11682,AV.PABLO IGLESIAS-GABRIELA MISTRAL,Avda de Pablo Iglesias 1,40.2968864440918,-3.8335394859314,B2,http://www.crtm.es,0,,Europe/Madrid,2
par_8_12023,12023,AV.CIUDAD JARDÍN-CENTRO COMERCIAL,Avda de Ciudad Jardín SN,40.3007392883301,-3.83053922653198,B2,http://www.crtm.es,0,,Europe/Madrid,2
par_8_12024,12024,AV.PABLO IGLESIAS-URB.NUEVO VERSALLES,Avda de Pablo Iglesias 1,40.2982177734375,-3.83274412155151,B2,http://www.crtm.es,0,,Europe/Madrid,2
par_8_12025,12025,AV.PABLO IGLESIAS-CENTRO COMERCIAL,Avda de Pablo Iglesias 17,40.3021965026855,-3.8329930305481,B2,http://www.crtm.es,0,,Europe/Madrid,2
par_8_12026,12026,AV.PABLO IGLESIAS-CENTRO COMERCIAL,Avda de Pablo Iglesias 17,40.3025512695313,-3.83299732208252,B2,http://www.crtm.es,0,,Europe/Madrid,2
par_8_12027,12027,AV.PABLO IGLESIAS-AV.CIUDAD JARDÍN,Avda de Pablo Iglesias 17,40.3003273010254,-3.83139324188232,B2,http://www.crtm.es,0,,Europe/Madrid,2
par_8_12423,12423,CLARA CAMPOAMOR-ANA FRANK,Calle de Clara Campoamor 2,40.2949447631836,-3.83178615570068,B2,http://www.crtm.es,0,,Europe/Madrid,2
par_8_12424,12424,AV.PABLO IGLESIAS-GABRIELA MISTRAL,Avda de Pablo Iglesias 1,40.2966613769531,-3.83356022834778,B2,http://www.crtm.es,0,,Europe/Madrid,2
par_8_12425,12425,AV.PABLO IGLESIAS-AV.LIBERTAD,Avda de Pablo Iglesias 17,40.3036117553711,-3.83918809890747,B2,http://www.crtm.es,0,,Europe/Madrid,2
par_8_12426,12426,AV.PABLO IGLESIAS-ALBA,Avda de Pablo Iglesias 15,40.3038635253906,-3.83965015411377,B2,http://www.crtm.es,0,,Europe/Madrid,2
par_8_12427,12427,AV.PABLO IGLESIAS-JUVENTUD,Avda de Pablo Iglesias 17,40.3036041259766,-3.83652853965759,B2,http://www.crtm.es,0,,Europe/Madrid,2
par_8_12528,12528,AV.ESPAÑA-BARCELONA,Avda de España 34,40.2937049865723,-3.79305052757263,B2,http://www.crtm.es,0,,Europe/Madrid,2
par_8_08168,08168,PZA.DE LA CONSTITUCIÓN-AV.FUENLABRADA,Plaza de la Constitución 3,40.2597045898438,-3.86072993278503,B3,http://www.crtm.es,0,,Europe/Madrid,2
par_8_08169,08169,CTRA.M413-PARQUE PRIMERO DE MAYO,Ctra   M-413 (Arroyomolinos) 5300,40.2602081298828,-3.86707472801209,B3,http://www.crtm.es,0,,Europe/Madrid,2
par_8_08171,08171,CTRA.FUENLABRADA-SERRANILLOS,Calle de Griñón 9,40.2688674926758,-3.9194164276123,B3,http://www.crtm.es,0,,Europe/Madrid,2
par_8_08372,08372,GLORIETA SAN VICENTE,Gta de San Vicente 1,40.4202690124512,-3.72092175483704,A,http://www.crtm.es,0,est_90_18,,2
par_8_08461,08461,PºEXTREMADURA-CUATRO VIENTOS,Paseo de Extremadura 8500,40.380132080447,-3.7900509419197,A,http://www.crtm.es,0,,Europe/Madrid,2
par_8_08464,08464,PºEXTREMADURA-CUATRO VIENTOS,Paseo de Extremadura 573,40.3776645886858,-3.79254302966251,A,http://www.crtm.es,0,,Europe/Madrid,2
par_8_09041,09041,AV.ARROYOMOLINOS-SAN ISIDORO LABRADOR,Avda de Arroyomolinos 1,40.2600021362305,-3.86334419250488,B3,http://www.crtm.es,0,,Europe/Madrid,2
par_8_09317,09317,AV.FUENLABRADA-URB.LOS SALMUEROS,Avda   Fuenlabrada 4300,40.2601547241211,-3.85625505447388,B3,http://www.crtm.es,0,,Europe/Madrid,2
par_8_09318,09318,CALÉNDULA-URB.LOS SALMUEROS,Calle  Caléndula 2,40.2599716186523,-3.8554060459137,B3,http://www.crtm.es,0,,Europe/Madrid,2
par_8_09319,09319,AV.FUENLABRADA-HUMANES,Avda   Fuenlabrada 3,40.259765625,-3.85868430137634,B3,http://www.crtm.es,0,,Europe/Madrid,2
par_8_09320,09320,AV.FUENLABRADA-HUMANES,Avda  Fuenlabrada 6,40.2596855163574,-3.8584246635437,B3,http://www.crtm.es,0,,Europe/Madrid,2
par_8_10504,10504,CTRA.FUENLABRADA-URB.LA RINCONADA,Ctra   M-413 (Arroyomolinos-Fuenlabrada) 9800,40.2667503356934,-3.91374254226685,B3,http://www.crtm.es,0,,Europe/Madrid,2
par_8_10505,10505,CTRA.FUENLABRADA-URB.LA RINCONADA,Ctra   M-413 (Arroyomolinos-Fuenlabrada) 9800,40.2667388916016,-3.91403651237488,B3,http://www.crtm.es,0,,Europe/Madrid,2
par_8_10506,10506,CTRA.M413-GRANJA BOVINA,Ctra   M-413 (Arroyomolinos) 8500,40.2596054077148,-3.90245151519775,B3,http://www.crtm.es,0,,Europe/Madrid,2
par_8_10507,10507,CTRA.M413-GRANJA BOVINA,Ctra   M-413 (Arroyomolinos) 8400,40.2591743469238,-3.90194010734558,B3,http://www.crtm.es,0,,Europe/Madrid,2
par_8_10508,10508,CTRA.M413-FINCA LOS CORONELES,Ctra   M-413 (Arroyomolinos) 7800,40.259334564209,-3.89567446708679,B3,http://www.crtm.es,0,,Europe/Madrid,2
par_8_10509,10509,CTRA.M413-FINCA LOS CORONELES,Ctra   M-413 (Arroyomolinos) 7600,40.2592658996582,-3.89376854896545,B3,http://www.crtm.es,0,,Europe/Madrid,2
par_8_10510,10510,CTRA.M413-CERÁMICA,Ctra   M-413 (Arroyomolinos) 7000,40.2587966918945,-3.88685941696167,B3,http://www.crtm.es,0,,Europe/Madrid,2
par_8_10511,10511,CTRA.M413-CERÁMICA,Ctra   M-413 (Arroyomolinos) 6500,40.2589340209961,-3.88085222244263,B3,http://www.crtm.es,0,,Europe/Madrid,2
par_8_10512,10512,CTRA.M413-PARQUE PRIMERO DE MAYO,Ctra   M-413 Arroyomolinos 5.400,40.2599792480469,-3.86642503738403,B3,http://www.crtm.es,0,,Europe/Madrid,2
par_8_10520,10520,AV.ARROYOMOLINOS-EL CARRIL,Calle el Carril 6,40.2601623535156,-3.8633816242218,B3,http://www.crtm.es,0,,Europe/Madrid,2
par_8_11250,11250,CTRA.FUENLABRADA-SERRANILLOS,Ctra   M-413 (Arroyomolinos-Fuenlabrada) 10300,40.268741607666,-3.91922664642334,B3,http://www.crtm.es,0,,Europe/Madrid,2
par_8_12050,12050,AV.FUENLABRADA-URB.LOS OLIVOS,Calle los Olivos 1,40.2604331970215,-3.8523542881012,B3,http://www.crtm.es,0,,Europe/Madrid,2
par_8_12055,12055,AV.FUENLABRADA-URB.LAS VILLAS,Avda  Fuenlabrada 26,40.2604675292969,-3.85263705253601,B3,http://www.crtm.es,0,,Europe/Madrid,2
par_8_16214,16214,AV.UNIÓN EUROPEA-TORREVIEJA,Avda de la Unión Europea 29,40.279670715332,-3.92024517059326,B3,http://www.crtm.es,0,,Europe/Madrid,2
par_8_16215,16215,AV.UNIÓN EUROPEA-TORREVIEJA,Avda de la Unión Europea 27,40.2793807983398,-3.92073512077332,B3,http://www.crtm.es,0,,Europe/Madrid,2
par_8_16216,16216,AV.UNIÓN EUROPEA-EL FERROL,Avda de la Unión Europea 26,40.2863349914551,-3.91746497154236,B3,http://www.crtm.es,0,,Europe/Madrid,2
par_8_16217,16217,AV.UNIÓN EUROPEA-NORUEGA,Avda de la Unión Europea 26,40.2859802246094,-3.91777777671814,B3,http://www.crtm.es,0,,Europe/Madrid,2
par_8_16218,16218,AV.UNIÓN EUROPEA-AVILÉS,Avda de la Unión Europea 36,40.2898406982422,-3.91697120666504,B3,http://www.crtm.es,0,,Europe/Madrid,2
par_8_16219,16219,AV.UNIÓN EUROPEA-RIBADEO,Avda de la Unión Europea 26,40.2893600463867,-3.91732954978943,B3,http://www.crtm.es,0,,Europe/Madrid,2
par_8_16220,16220,CARPINTEROS-FRESADORES,Calle de Carpinteros 1,40.2995223999023,-3.90744185447693,B3,http://www.crtm.es,0,,Europe/Madrid,2
par_8_16221,16221,CARPINTEROS-FRESADORES,Calle de Carpinteros 1,40.2997016906738,-3.90755009651184,B3,http://www.crtm.es,0,,Europe/Madrid,2
par_8_16222,16222,HERREROS-FORJADORES,Calle de Herreros 5,40.3016624450684,-3.90525841712952,B3,http://www.crtm.es,0,,Europe/Madrid,2
par_8_16223,16223,HERREROS-FORJADORES,Calle de Herreros 5,40.3016815185547,-3.90547037124634,B3,http://www.crtm.es,0,,Europe/Madrid,2
par_8_16629,16629,CTRA.FUENLABRADA-ARROYO DE MORALEJA,Ctra   M-413 (Arroyomolinos-Fuenlabrada) 10200,40.2686195373535,-3.9175078868866,B3,http://www.crtm.es,0,,Europe/Madrid,2
par_8_17051,17051,INTERCAMBIADOR DE PRÍNCIPE PÍO,Paseo de la Florida 2,40.421314239502,-3.72064995765686,A,http://www.crtm.es,0,est_90_18,,2
par_8_17229,17229,CTRA.FUENLABRADA-URB.EL CASTILLO,Ctra   M-413 Arroyomolinos-Fuenlabrada 4,40.2677040100098,-3.91637825965881,B3,http://www.crtm.es,0,,Europe/Madrid,2
par_8_17529,17529,AV.MEDITERRÁNEO-BENICARLÓ,Avda del Mediterráneo 5,40.2629280090332,-3.90462422370911,B3,http://www.crtm.es,0,,Europe/Madrid,2
par_8_17539,17539,AV.UNIÓN EUROPEA-LÍNEA DE LA CONCEPCIÓN,Avda de la Unión Europea 43,40.2819480895996,-3.91844081878662,B3,http://www.crtm.es,0,,Europe/Madrid,2
par_8_17540,17540,AV.UNIÓN EUROPEA-LÍNEA DE LA CONCEPCIÓN,Avda de la Unión Europea 41,40.2816467285156,-3.91900134086609,B3,http://www.crtm.es,0,,Europe/Madrid,2
par_8_17545,17545,AV.UNIÓN EUROPEA-RIO TAJO,Avda de la Unión Europea 6,40.2761611938477,-3.9254789352417,B3,http://www.crtm.es,0,,Europe/Madrid,2
par_8_17546,17546,AV.UNIÓN EUROPEA-BÉLGICA,Avda de la Unión Europea 6,40.2765769958496,-3.92539048194885,B3,http://www.crtm.es,0,,Europe/Madrid,2
par_8_18568,18568,AV.MEDITERRÁNEO-VALENCIA,Calle de Valencia 231,40.2632713317871,-3.9047110080719,B3,http://www.crtm.es,0,,Europe/Madrid,0
par_8_18569,18569,ALICANTE-AV.MEDITERRÁNEO,Calle de Alicante 78,40.2657508850098,-3.90229797363281,B3,http://www.crtm.es,0,,Europe/Madrid,0
par_8_18570,18570,ALICANTE-AV.MEDITERRÁNEO,Calle de Alicante 75,40.2658424377441,-3.90206384658813,B3,http://www.crtm.es,0,,Europe/Madrid,0
par_8_18571,18571,ALICANTE-TARRAGONA,Calle de Alicante 51,40.2672500610352,-3.90395259857178,B3,http://www.crtm.es,0,,Europe/Madrid,0
par_8_18572,18572,ALICANTE-CASTELLÓN DE LA PLANA,Calle de Alicante 51,40.2673416137695,-3.90376567840576,B3,http://www.crtm.es,0,,Europe/Madrid,0
par_8_18573,18573,ALICANTE-BARCELONA,Calle de Alicante 15,40.270206451416,-3.90710878372192,B3,http://www.crtm.es,0,,Europe/Madrid,0
par_8_19293,19293,AV.UNIÓN EUROPEA-SANTANDER,Avda de la Unión Europea SN,40.2931137084961,-3.91589784622192,B3,http://www.crtm.es,0,,Europe/Madrid,0
par_8_19294,19294,AV.UNIÓN EUROPEA-SANTANDER,Avda de la Unión Europea 26,40.2930870056152,-3.91547393798828,B3,http://www.crtm.es,0,,Europe/Madrid,0
par_8_892,892,Pº EXTREMADURA-CAMPAMENTO,Calle de Carabias 24,40.3965209976837,-3.76841989361963,A,http://www.crtm.es,0,,Europe/Madrid,0
par_8_893,893,Pº EXTREMADURA-CAMPAMENTO,Avda del Padre Piquer 3,40.3959503173828,-3.76871466636658,A,http://www.crtm.es,0,,Europe/Madrid,0
est_90_18,18,Intercambiador de Príncipe Pío,Paseo de la Florida 2,40.42107,-3.72037,A,http://www.crtm.es,1,,Europe/Madrid,0
par_8_07733,07733,PORTUGAL-URB.SOMBRAS BLANCAS,Calle   Portugal 12,40.2785797119141,-3.80838918685913,B2,http://www.crtm.es,0,,Europe/Madrid,2
par_8_07739,07739,LUIS SAUQUILLO-EL ARROYO,Calle   Luis Sauquillo 93,40.2778803806019,-3.80170423973584,B2,http://www.crtm.es,0,,Europe/Madrid,2
par_8_07740,07740,LUIS SAUQUILLO-EL ARROYO,Calle   Luis Sauquillo 80 B,40.2780792983523,-3.80160072544376,B2,http://www.crtm.es,0,,Europe/Madrid,2
par_8_07741,07741,COMUNIDAD DE MADRID-PZA.VALDESERRANO,Calle de la Comunidad de Madrid 3,40.2768783569336,-3.80040550231934,B2,http://www.crtm.es,0,,Europe/Madrid,2
par_8_07742,07742,COMUNIDAD DE MADRID-PZA.VALDEHONDILLO,Calle de la Comunidad de Madrid 3,40.2770233154297,-3.80039548873901,B2,http://www.crtm.es,0,,Europe/Madrid,2
par_8_07743,07743,COMUNIDAD DE MADRID-PANADERAS,Calle de la Comunidad de Madrid 5,40.2773056030273,-3.79871678352356,B2,http://www.crtm.es,0,,Europe/Madrid,2
par_8_07744,07744,PANADERAS-CENTRO DE SALUD,Calle de las Panaderas 9,40.2779273986816,-3.7983124256134,B2,http://www.crtm.es,0,,Europe/Madrid,2
par_8_07745,07745,PANADERAS-PZA.MIRAFLOR,Calle de las Panaderas 2,40.2795295715332,-3.79861354827881,B2,http://www.crtm.es,0,,Europe/Madrid,2
par_8_07746,07746,PANADERAS-PZA.MIRAFLOR,Calle de las Panaderas 2,40.2794303894043,-3.79874181747437,B2,http://www.crtm.es,0,,Europe/Madrid,2
par_8_08154,08154,AV.INDUSTRIA-ALBACETE,Avda de la Industria 400,40.2745552062988,-3.81310486793518,B3,http://www.crtm.es,0,,Europe/Madrid,2
par_8_08155,08155,AV.INDUSTRIA-ISLAS CÍES,Avda de la Industria 400,40.2744026184082,-3.8128559589386,B3,http://www.crtm.es,0,,Europe/Madrid,2
par_8_08156,08156,AV.INDUSTRIA-POL.IND.SAN MIGUEL,Avda de la Industria 24,40.2733039855957,-3.81670093536377,B3,http://www.crtm.es,0,,Europe/Madrid,2
par_8_08157,08157,AV.INDUSTRIA-POL.IND.LA SOLANILLA,Avda de la Industria 700,40.2733535766602,-3.81598401069641,B3,http://www.crtm.es,0,,Europe/Madrid,2
par_8_08158,08158,AV.INDUSTRIA-POL.IND.CANDELAS,Avda de la Industria 62,40.2710342407227,-3.82322478294373,B3,http://www.crtm.es,0,,Europe/Madrid,2
par_8_08159,08159,AV.INDUSTRIA-POL.IND.MARTÍN Y VICIOSO,Calle de los Metales 62,40.2710647583008,-3.82236647605896,B3,http://www.crtm.es,0,,Europe/Madrid,2
par_8_08160,08160,AV.INDUSTRIA-POL.IND.AGUSTÍN ALONSO,Avda de la Industria 1700,40.2695808410645,-3.82742929458618,B3,http://www.crtm.es,0,,Europe/Madrid,2
par_8_08161,08161,AV.INDUSTRIA-POL.IND.AGUSTÍN ALONSO,Avda de la Industria 1700,40.2695007324219,-3.82702851295471,B3,http://www.crtm.es,0,,Europe/Madrid,2
par_8_08162,08162,PETUNIA-POL.IND.CALAHORROS,Avda de la Industria 2600,40.2662963867188,-3.8367862701416,B3,http://www.crtm.es,0,,Europe/Madrid,2
par_8_08163,08163,AV.INDUSTRIA-POL.IND.CALAHORROS,Avda de la Industria 2500,40.2663078308105,-3.83617472648621,B3,http://www.crtm.es,0,,Europe/Madrid,2
par_8_08164,08164,AV.INDUSTRIA-POL.IND.NUEVOS CALAHORROS,Avda de la Industria 99,40.2649421691895,-3.84072113037109,B3,http://www.crtm.es,0,,Europe/Madrid,2
par_8_08165,08165,AV.INDUSTRIA-POL.IND.EL LOMO,Avda de la Industria 2900,40.2648010253906,-3.84047222137451,B3,http://www.crtm.es,0,,Europe/Madrid,2
par_8_08166,08166,AV.FUENLABRADA-POL.IND.SAN MILLÁN,Avda   Fuenlabrada 37,40.2620544433594,-3.84907007217407,B3,http://www.crtm.es,0,,Europe/Madrid,2
par_8_08167,08167,AV.FUENLABRADA-POL.IND.SAN MILLÁN,Avda   Fuenlabrada 36,40.2620048522949,-3.84857559204102,B3,http://www.crtm.es,0,,Europe/Madrid,2
par_8_08170,08170,CTRA.LAS COLINAS-URB.LAS COLINAS,Ctra de las Colinas 5,40.267505645752,-3.87999892234802,B3,http://www.crtm.es,0,,Europe/Madrid,2
par_8_10518,10518,PORTUGAL-URB.SOMBRAS BLANCAS,Calle   Portugal 13,40.2785415649414,-3.80858874320984,B2,http://www.crtm.es,0,,Europe/Madrid,2
par_8_10519,10519,CºLA DEHESA-COMPLEJO DEPORTIVO,Cmno la Dehesa SN,40.2613410949707,-3.86835908889771,B3,http://www.crtm.es,0,,Europe/Madrid,2
par_8_10886,10886,CºLA DEHESA-COMPLEJO DEPORTIVO,Cmno la Dehesa 1,40.2613487243652,-3.86864161491394,B3,http://www.crtm.es,0,,Europe/Madrid,2
par_8_11260,11260,PZA.GALAYOS-CONSULTORIO LOCAL,Plaza de los Galayos 2,40.2651252746582,-3.92112994194031,B3,http://www.crtm.es,0,,Europe/Madrid,2
par_8_11874,11874,MIRASIERRA-COLEGIO,Calle   Mirasierra 4,40.2621841430664,-3.85479879379272,B3,http://www.crtm.es,0,,Europe/Madrid,2
par_8_11875,11875,MIRASIERRA-COLEGIO,Calle   Mirasierra 4,40.2620735168457,-3.85479760169983,B3,http://www.crtm.es,0,,Europe/Madrid,2
par_8_11876,11876,MIRASIERRA-CENTRO CULTURAL,Calle   Mirasierra 3,40.2621803283691,-3.85992622375488,B3,http://www.crtm.es,0,,Europe/Madrid,2
par_8_11877,11877,MIRASIERRA-CENTRO CULTURAL,Calle   Mirasierra 2,40.2620506286621,-3.85933661460876,B3,http://www.crtm.es,0,,Europe/Madrid,2
par_8_11878,11878,GUADARRAMA-AV.MÓSTOLES,Calle   Guadarrama 38,40.2627105712891,-3.86353158950806,B3,http://www.crtm.es,0,,Europe/Madrid,2
par_8_11879,11879,PENSAMIENTO-PARQUE DE LA CONSTITUCIÓN,Calle   Pensamiento 5,40.2620544433594,-3.86452269554138,B3,http://www.crtm.es,0,,Europe/Madrid,2
par_8_11880,11880,PENSAMIENTO-PETUNIA,Calle  Pensamiento 36,40.2607460021973,-3.86639952659607,B3,http://www.crtm.es,0,,Europe/Madrid,2
par_8_11921,11921,MIRASIERRA-AV.FUENLABRADA,Calle   Mirasierra 79,40.2613334655762,-3.85130739212036,B3,http://www.crtm.es,0,,Europe/Madrid,2
par_8_12320,12320,BATRES-SIERRA DE GREDOS,Calle   Batres 16,40.2662353515625,-3.92165064811707,B3,http://www.crtm.es,0,,Europe/Madrid,2
par_8_12531,12531,SOMOSIERRA-MIGUEL DE CERVANTES,Calle de Somosierra 15,40.2613143920898,-3.92105460166931,B3,http://www.crtm.es,0,,Europe/Madrid,2
par_8_12532,12532,SOMOSIERRA-MIGUEL DE CERVANTES,Calle de Somosierra 10,40.2619476318359,-3.92173361778259,B3,http://www.crtm.es,0,,Europe/Madrid,2
par_8_12630,12630,CºDEL MOLINO-HOSPITAL DE FUENLABRADA,Cmno del Molino 3,40.2852110326118,-3.81627218956331,B2,http://www.crtm.es,0,,Europe/Madrid,2
par_8_12631,12631,CºMOLINO-UNIVERSIDAD REY JUAN CARLOS,Cmno del Molino 5,40.2857068032511,-3.81878387902276,B2,http://www.crtm.es,0,,Europe/Madrid,2
par_8_12632,12632,CºMOLINO-UNIVERSIDAD REY JUAN CARLOS,Cmno del Molino 5,40.285561504437,-3.81894682093319,B2,http://www.crtm.es,0,,Europe/Madrid,2
par_8_12638,12638,CºDEL MOLINO-HOSPITAL DE FUENLABRADA,Cmno del Molino 3,40.285770628116,-3.81612598964115,B2,http://www.crtm.es,0,,Europe/Madrid,2
par_8_12641,12641,MADRID-CASTILLA Y LEÓN,Calle de Castilla-León 5,40.2720718383789,-3.91644883155823,B3,http://www.crtm.es,0,,Europe/Madrid,2
par_8_12643,12643,ROSALÍA DE CASTRO-ORTEGA Y GASSET,Calle   Rosalía de Castro 92,40.2606964111328,-3.9182710647583,B3,http://www.crtm.es,0,,Europe/Madrid,2
par_8_12644,12644,ROSALÍA DE CASTRO-BENITO PÉREZ GALDÓS,Calle   Rosalía de Castro 36,40.2626266479492,-3.91429877281189,B3,http://www.crtm.es,0,,Europe/Madrid,2
par_8_12645,12645,ROSALÍA DE CASTRO-BENITO PÉREZ GALDÓS,Calle   Rosalía de Castro 36,40.2626800537109,-3.91454648971558,B3,http://www.crtm.es,0,,Europe/Madrid,2
par_8_12646,12646,ROSALÍA DE CASTRO-ORTEGA Y GASSET,Calle   Rosalía de Castro 96,40.2606658935547,-3.91862344741821,B3,http://www.crtm.es,0,,Europe/Madrid,2
par_8_12648,12648,CASTILLA Y LEÓN-CENTRO DE LAS ARTES,Calle de Castilla-León 5,40.2721977233887,-3.91648578643799,B3,http://www.crtm.es,0,,Europe/Madrid,2
par_8_15324,15324,C.C.MADRID XANADÚ-CINES,Calle   Puerto de Navacerrada S/N,40.3016929626465,-3.9255211353302,B3,http://www.crtm.es,0,,Europe/Madrid,2
par_8_15325,15325,C.C.MADRID XANADÚ-CINES,Calle   Puerto de Navacerrada S/N,40.3014984130859,-3.92502427101135,B3,http://www.crtm.es,0,,Europe/Madrid,2
par_8_15326,15326,C.C.MADRID XANADÚ-CENTRO DE OCIO,Calle   Puerto de Navacerrada 3,40.3013114929199,-3.92717504501343,B3,http://www.crtm.es,0,,Europe/Madrid,2
par_8_15327,15327,C.C.MADRID XANADÚ-CENTRO DE OCIO,Calle   Puerto de Navacerrada S/N,40.300651550293,-3.92863702774048,B3,http://www.crtm.es,0,,Europe/Madrid,2
par_8_15328,15328,C.C.MADRID XANADÚ-CENTRO COMERCIAL,Calle   Puerto de Navacerrada S/N,40.2981605529785,-3.9313325881958,B3,http://www.crtm.es,0,,Europe/Madrid,2
par_8_15329,15329,C.C.MADRID XANADÚ-CENTRO COMERCIAL,Calle   Puerto de Navacerrada S/N,40.2978096008301,-3.93108057975769,B3,http://www.crtm.es,0,,Europe/Madrid,2
par_8_15330,15330,C.C.MADRID XANADÚ-APARCAMIENTO,Calle   Puerto de Somosierra S/N,40.2959175109863,-3.93366670608521,B3,http://www.crtm.es,0,,Europe/Madrid,2
par_8_15331,15331,C.C.MADRID XANADÚ-APARCAMIENTO,Calle   Puerto de Somosierra S/N,40.2956619262695,-3.93378090858459,B3,http://www.crtm.es,0,,Europe/Madrid,2
par_8_15519,15519,PLAZA MAYOR-CENTRO CULTURAL,Ctra  M-413 Arroyomolinos-Fuenlabrada 4,40.2686576843262,-3.91960191726685,B3,http://www.crtm.es,0,,Europe/Madrid,2
par_8_16212,16212,RÍO TAJO-VALDELACEA,Calle   Río Tajo 37,40.2765235900879,-3.92433094978333,B3,http://www.crtm.es,0,,Europe/Madrid,2
par_8_16213,16213,RÍO TAJO-VALDELACEA,Calle   Río Tajo 37,40.2764778137207,-3.92445969581604,B3,http://www.crtm.es,0,,Europe/Madrid,2
par_8_16626,16626,BATRES-PZA.LOS GALAYOS,Calle   Batres 26,40.2654495239258,-3.92100501060486,B3,http://www.crtm.es,0,,Europe/Madrid,2
par_8_16631,16631,PZA.LOS ALMENDROS-SOMOSIERRA,Plaza de los Almendros 4,40.2624588012695,-3.92226982116699,B3,http://www.crtm.es,0,,Europe/Madrid,2
par_8_16712,16712,BRATES-SIERRA DE GREDOS,Calle   Batres 14,40.266658782959,-3.92177414894104,B3,http://www.crtm.es,0,,Europe/Madrid,2
par_8_17389,17389,BATRES-IGLESIA,Calle   Batres 10,40.2678756713867,-3.92187285423279,B3,http://www.crtm.es,0,,Europe/Madrid,2
par_8_17533,17533,CASTILLA Y LEÓN-AV.CASTAÑERAS,Calle de Castilla-León 14,40.273998260498,-3.92130899429321,B3,http://www.crtm.es,0,,Europe/Madrid,2
par_8_17535,17535,BÉLGICA-LUXEMBURGO,Calle de Bélgica SN,40.2785720825195,-3.92686438560486,B3,http://www.crtm.es,0,,Europe/Madrid,2
par_8_17536,17536,BÉLGICA-LUXEMBURGO,Calle de Bélgica SN,40.2782936096191,-3.9268958568573,B3,http://www.crtm.es,0,,Europe/Madrid,2
par_8_17793,17793,CASTILLA Y LEÓN-AV.CASTAÑERAS,Calle de Castilla-León 14,40.2742042541504,-3.92133545875549,B3,http://www.crtm.es,0,,Europe/Madrid,0
par_8_18286,18286,MIRASIERRA-EL ESCORIAL,Calle   Mirasierra 77,40.2615547180176,-3.85174512863159,B3,http://www.crtm.es,0,,Europe/Madrid,0
par_8_19156,19156,GRECIA-EST. FUENLABRADA CENTRAL,Calle de Grecia 2,40.2820014953613,-3.79961895942688,B2,http://www.crtm.es,0,,Europe/Madrid,0
par_8_19157,19157,LUIS SAUQUILLO-MULHACÉN,Calle   Luis Sauquillo 60,40.280933380127,-3.79871249198914,B2,http://www.crtm.es,0,,Europe/Madrid,0
par_8_20286,20286,B.PÉREZ GALDÓS-ZURBARÁN,Calle   Benito Pérez Galdós 7,40.2594757080078,-3.91070485115051,B3,http://www.crtm.es,0,,Europe/Madrid,0
par_8_20287,20287,B.PÉREZ GALDÓS-AV.MEDITERRÁNEO,Calle   Benito Pérez Galdós 7,40.2593307495117,-3.91070294380188,B3,http://www.crtm.es,0,,Europe/Madrid,0
par_8_20288,20288,B.PÉREZ GALDÓS-GOYA,Calle   Benito Pérez Galdós 18,40.2612152099609,-3.91299796104431,B3,http://www.crtm.es,0,,Europe/Madrid,0
par_8_20289,20289,B.PÉREZ GALDÓS-GOYA,Calle   Benito Pérez Galdós 18,40.2611694335938,-3.91315007209778,B3,http://www.crtm.es,0,,Europe/Madrid,0
par_8_07748,07748,LUIS SAUQUILLO-ESCORIAL,Calle   Luis Sauquillo 57,40.2817718873152,-3.79785655931728,B2,http://www.crtm.es,0,,Europe/Madrid,2
par_8_08146,08146,VERANO-MATADERO,Ctra   Fuenlabrada 10,40.3015308907833,-3.78835789459637,B1,http://www.crtm.es,0,,Europe/Madrid,2
par_8_17300,17300,PARLA-PARQUE POLVORANCA,Ctra   M-409 (Leganés- Fuenlabrada) 900,40.3113881586268,-3.7801875306857,B1,http://www.crtm.es,0,,Europe/Madrid,2
par_8_17301,17301,AV.RECOMBA-PARQUE IND.LA LAGUNA,Avda   Recomba 2,40.3076085590645,-3.77688436023956,B1,http://www.crtm.es,0,,Europe/Madrid,2
par_8_17303,17303,AV.RECOMBA-PARQUE IND.LA LAGUNA,Avda   Recomba 1,40.3075918854966,-3.77668411683797,B1,http://www.crtm.es,0,,Europe/Madrid,2
par_8_17304,17304,PRIMAVERA-C.C.ARROYOSUR,Calle de la Primavera 1,40.3012941459937,-3.77808282260726,B1,http://www.crtm.es,0,,Europe/Madrid,2
par_8_17305,17305,PRIMAVERA-C.C.ARROYOSUR,Calle de la Primavera 1,40.3013454259271,-3.7784952454798,B1,http://www.crtm.es,0,,Europe/Madrid,2
par_8_17324,17324,VERANO-PARQUE BOSQUESUR,Calle del Verano 1,40.2997588786584,-3.78397195354479,B1,http://www.crtm.es,0,,Europe/Madrid,2
par_8_17634,17634,AV.RECOMBA-ARROYO DEL SOTO,Avda   Recomba 14,40.3052817040818,-3.7759163094413,B1,http://www.crtm.es,0,,Europe/Madrid,2
par_8_17635,17635,AV.RECOMBA-ARROYO VALDEGRULLAS,Avda  Recomba SN,40.3053819011545,-3.7757527123658,B1,http://www.crtm.es,0,,Europe/Madrid,2
par_8_07749,07749,LUIS SAUQUILLO-GRECIA,Calle   Luis Sauquillo 44,40.2818177402852,-3.79773946535719,B2,http://www.crtm.es,0,,Europe/Madrid,2
par_8_08606,08606,AV.PORTUGAL-JUAN DE OCAÑA,Avda de Portugal 55,40.3249435424805,-3.86997413635254,B2,http://www.crtm.es,0,,Europe/Madrid,2
par_8_08622,08622,AV.PORTUGAL-PARQUE FINCA LIANA,Avda de Portugal 63,40.3238220214844,-3.87170171737671,B2,http://www.crtm.es,0,,Europe/Madrid,2
par_8_08976,08976,AV.PORTUGAL-CONCESIONARIO,Ctra de Extremadura (Antigua N-V) 22400,40.3059692382813,-3.90084409713745,B2,http://www.crtm.es,0,,Europe/Madrid,2
par_8_08977,08977,AV.PORTUGAL-CONCESIONARIO,Ctra de Extremadura (Antigua N-V) 22400,40.3058242797852,-3.90070104598999,B2,http://www.crtm.es,0,,Europe/Madrid,2
par_8_08988,08988,AV.PORTUGAL-AV.DOS DE MAYO,Avda de Portugal 90,40.318359375,-3.87844610214233,B2,http://www.crtm.es,0,,Europe/Madrid,2
par_8_11359,11359,AV.ABOGADOS ATOCHA-EST.MÓSTOLES EL SOTO,Avda de Abogados de Atocha 43,40.3296699523926,-3.88148856163025,B2,http://www.crtm.es,0,,Europe/Madrid,2
par_8_11360,11360,AV.ABOGADOS ATOCHA-EST.MÓSTOLES EL SOTO,Avda de Abogados de Atocha 43,40.3295440673828,-3.88119268417358,B2,http://www.crtm.es,0,,Europe/Madrid,2
par_8_12955,12955,GRANADA-JAEN,Calle  Granada 24,40.3257751464844,-3.87588214874268,B2,http://www.crtm.es,0,,Europe/Madrid,2
par_8_12956,12956,GRANADA-JAEN,Calle   Granada 22,40.3256645202637,-3.87611603736877,B2,http://www.crtm.es,0,,Europe/Madrid,2
par_8_16539,16539,AV.PORTUGAL-ORENSE,Avda de Portugal 71,40.3213691711426,-3.8743302822113,B2,http://www.crtm.es,0,,Europe/Madrid,2
par_8_16540,16540,AV.PORTUGAL-BENITO PEREZ GALDÓS,Avda de Portugal 71,40.3216323852539,-3.87443971633911,B2,http://www.crtm.es,0,,Europe/Madrid,2
par_8_17547,17547,MARBELLA-PARQUE,Calle de Marbella 21,40.2786521911621,-3.91680836677551,B3,http://www.crtm.es,0,,Europe/Madrid,2
par_8_17548,17548,ALGECIRAS-ALMERÍA,Calle de Algeciras 1,40.276237487793,-3.91459965705872,B3,http://www.crtm.es,0,,Europe/Madrid,2
par_8_17549,17549,MARBELLA-CARTAGENA,Calle de Marbella 9,40.2770195007324,-3.91488075256348,B3,http://www.crtm.es,0,,Europe/Madrid,2
par_8_17550,17550,MARBELLA-PARQUE,Calle de Marbella 38,40.2791023254395,-3.9160144329071,B3,http://www.crtm.es,0,,Europe/Madrid,2
par_8_18532,18532,AV.PORTUGAL-RIO DUERO,Avda del Dos de Mayo 83,40.3180618286133,-3.87840700149536,B2,http://www.crtm.es,0,,Europe/Madrid,0
par_8_18540,18540,GRANADA-MAESTROS,Calle  Granada 13,40.3269195556641,-3.87896919250488,B2,http://www.crtm.es,0,,Europe/Madrid,0
par_8_18541,18541,GRANADA-MAESTROS,Calle  Granada 13,40.3271560668945,-3.87898397445679,B2,http://www.crtm.es,0,,Europe/Madrid,0
par_8_19274,19274,AV.PORTUGAL-EST.MÓSTOLES CENTRAL,Avda de Portugal 30,40.3270797729492,-3.86382174491882,B2,http://www.crtm.es,0,,Europe/Madrid,0
par_8_19275,19275,AV.PORTUGAL-EST.MÓSTOLES CENTRAL,Avda de Portugal 26,40.326904296875,-3.86351323127747,B2,http://www.crtm.es,0,,Europe/Madrid,0
par_8_19305,19305,COMILLAS-AV.CANTÁBRICO,Calle de Comillas 3,40.2873687744141,-3.91651439666748,B3,http://www.crtm.es,0,,Europe/Madrid,0
par_8_19306,19306,COMILLAS-AV.CANTÁBRICO,Calle de Comillas 1,40.2874946594238,-3.91662192344666,B3,http://www.crtm.es,0,,Europe/Madrid,0
par_8_19307,19307,COMILLAS-PONTEVEDRA,Calle de Comillas 46,40.2874870300293,-3.91423368453979,B3,http://www.crtm.es,0,,Europe/Madrid,0
par_8_19308,19308,COMILLAS-PONTEVEDRA,Calle de Comillas 56,40.287670135498,-3.91351842880249,B3,http://www.crtm.es,0,,Europe/Madrid,0
par_8_19309,19309,AV.ATLÁNTICO-GUARDIA,Calle de la Coruña 6,40.2844314575195,-3.90971040725708,B3,http://www.crtm.es,0,,Europe/Madrid,0
par_8_19310,19310,LA CORUÑA-AYAMONTE,Calle de la Coruña 6,40.2840919494629,-3.91057634353638,B3,http://www.crtm.es,0,,Europe/Madrid,0
par_8_19311,19311,LA CORUÑA-AV.CANTÁBRICO,Calle de la Coruña 2,40.2846984863281,-3.91688990592957,B3,http://www.crtm.es,0,,Europe/Madrid,0
par_8_19312,19312,LA CORUÑA-AV.CANTÁBRICO,Calle de la Coruña 2,40.2847938537598,-3.91719722747803,B3,http://www.crtm.es,0,,Europe/Madrid,0
par_8_20278,20278,NORUEGA-INSTITUTO,Calle de Noruega 7,40.2850723266602,-3.91993021965027,B3,http://www.crtm.es,0,,Europe/Madrid,0
par_8_20279,20279,NORUEGA-INSTITUTO,Calle de Noruega 7,40.2848892211914,-3.9199275970459,B3,http://www.crtm.es,0,,Europe/Madrid,0
par_8_20280,20280,SUIZA-AV.ITALIA,Calle de Suiza 1,40.281608581543,-3.92127132415771,B3,http://www.crtm.es,0,,Europe/Madrid,0
par_8_20281,20281,SUIZA-AV.ITALIA,Calle de Suiza 1,40.2815208435059,-3.92129349708557,B3,http://www.crtm.es,0,,Europe/Madrid,0
par_8_20282,20282,ALICANTE-CULLERA,Calle de Alicante 18,40.2736968994141,-3.90895485877991,B3,http://www.crtm.es,0,,Europe/Madrid,0
par_8_20283,20283,ALICANTE-ALGECIRAS,Calle de Alicante 3,40.2729911804199,-3.90935707092285,B3,http://www.crtm.es,0,,Europe/Madrid,0
par_8_20284,20284,ALICANTE-BARCELONA,Calle de Alicante 15,40.2701606750488,-3.90741395950317,B3,http://www.crtm.es,0,,Europe/Madrid,0
par_8_20285,20285,ALICANTE-SAGUNTO,Calle de Alicante 15,40.2705154418945,-3.90690112113953,B3,http://www.crtm.es,0,,Europe/Madrid,0
par_8_20873,20873,ABOGADOS DE ATOCHA-UNIVERSIDAD,Avda de Abogados de Atocha SN,40.3337173461914,-3.87492537498474,B2,http://www.crtm.es,0,,Europe/Madrid,0
par_8_15403,15403,PUERTO DE SOMOSIERRA-CTRA.M413,Calle   Puerto de Somosierra S/N,40.2948722839355,-3.93587613105774,B3,http://www.crtm.es,0,,Europe/Madrid,2
par_8_15404,15404,PUERTO DE SOMOSIERRA-CTRA.M413,Calle   Puerto de Somosierra S/N,40.2943916320801,-3.93631649017334,B3,http://www.crtm.es,0,,Europe/Madrid,2
par_8_11243,11243,AV.VALLE-CTRA.COTORREDONDO,Avda del Valle 1,40.2486572265625,-3.92652678489685,B3,http://www.crtm.es,0,,Europe/Madrid,2
par_8_11244,11244,AV.VALLE-PALOMA,Avda del Valle 2,40.2471313476563,-3.92928075790405,B3,http://www.crtm.es,0,,Europe/Madrid,2
par_8_11245,11245,AV.VALLE-MILANO,Avda del Valle 19,40.2442321777344,-3.93247413635254,B3,http://www.crtm.es,0,,Europe/Madrid,2
par_8_11247,11247,ÁGUILA REAL-GACELA,Calle del Águila Real 15,40.2479515075684,-3.93937993049622,B3,http://www.crtm.es,0,,Europe/Madrid,2
par_8_11248,11248,AV.CUMBRE-AZOR,Avda de la Cumbre 23,40.2476615905762,-3.93396735191345,B3,http://www.crtm.es,0,,Europe/Madrid,2
par_8_11249,11249,AV.VALLE-CTRA.COTORREDONDO,Avda del Valle 1,40.2487030029297,-3.9263744354248,B3,http://www.crtm.es,0,,Europe/Madrid,2
par_8_11253,11253,MADRID-AV.DE LAS FLORES,Calle   Madrid 32,40.2714042663574,-3.91668677330017,B3,http://www.crtm.es,0,,Europe/Madrid,2
par_8_11254,11254,MADRID-URB.LA DEHESA,Calle   Madrid 21,40.2714729309082,-3.91674661636353,B3,http://www.crtm.es,0,,Europe/Madrid,2
par_8_11255,11255,AV.LAS FLORES-URB.LOS MONTEROS,Avda de las Flores 1,40.2691535949707,-3.91417479515076,B3,http://www.crtm.es,0,,Europe/Madrid,2
par_8_11258,11258,SERRANILLOS-INSTITUTO,Calle de Serranillos 35,40.2656059265137,-3.91733765602112,B3,http://www.crtm.es,0,,Europe/Madrid,2
par_8_12647,12647,BILBAO-SIERRA DE ALBARRACÍN,Calle   Sierra de Javalambre 1,40.2646293640137,-3.91999411582947,B3,http://www.crtm.es,0,,Europe/Madrid,2
par_8_12649,12649,AV.CASTAÑERAS-RÍO TAJO,Avda de las Castañeras 9,40.2740707397461,-3.92232155799866,B3,http://www.crtm.es,0,,Europe/Madrid,2
par_8_12884,12884,AV.CASTAÑERAS-COLEGIO,Avda de las Castañeras 3,40.272403717041,-3.92465138435364,B3,http://www.crtm.es,0,,Europe/Madrid,2
par_8_12885,12885,AV.CASTAÑERAS-COLEGIO,Avda de las Castañeras 22,40.272087097168,-3.92476463317871,B3,http://www.crtm.es,0,,Europe/Madrid,2
par_8_16224,16224,AV.VALLE-URB.COTORREDONDO,Avda del Valle 50,40.244556427002,-3.94120216369629,B3,http://www.crtm.es,0,,Europe/Madrid,2
par_8_16225,16225,AV.DEPORTIVA-AV.VALLE,Avda   Deportiva 8,40.2456932067871,-3.94862508773804,B3,http://www.crtm.es,0,,Europe/Madrid,2
par_8_16226,16226,ÁGUILA REAL-GAVILÁN,Calle del Águila Real 58,40.2482299804688,-3.94823718070984,B3,http://www.crtm.es,0,,Europe/Madrid,2
par_8_16227,16227,ÁGUILA REAL-LINCE,Calle del Águila Real 38,40.2481994628906,-3.94520330429077,B3,http://www.crtm.es,0,,Europe/Madrid,2
par_8_16228,16228,AV.VALLE-GACELA,Avda del Valle 26,40.2445373535156,-3.937087059021,B3,http://www.crtm.es,0,,Europe/Madrid,2
par_8_16627,16627,CTRA.COTORREDONDO-CLUB HÍPICO,Ctra   Cotorredondo SN,40.2574310302734,-3.9242947101593,B3,http://www.crtm.es,0,,Europe/Madrid,2
par_8_16628,16628,CTRA.COTORREDONDO-CLUB HÍPICO,Ctra   Cotorredondo SN,40.2573127746582,-3.92442226409912,B3,http://www.crtm.es,0,,Europe/Madrid,2
par_8_16647,16647,SEVILLA-FRESNO,Plaza del Acebo 11,40.2665328979492,-3.9148805141449,B3,http://www.crtm.es,0,,Europe/Madrid,2
par_8_17227,17227,BATRES-PZA.LOS ALMENDROS,Calle   Batres 50,40.2622947692871,-3.92319655418396,B3,http://www.crtm.es,0,,Europe/Madrid,2
par_8_17530,17530,AV.LAS FLORES-LA ROSA,Avda de las Flores 1,40.2687721252441,-3.9141697883606,B3,http://www.crtm.es,0,,Europe/Madrid,2
par_8_17537,17537,AV.FRANCIA-SUIZA,Avda de Francia 114,40.2818984985352,-3.92256903648376,B3,http://www.crtm.es,0,,Europe/Madrid,2
par_8_17538,17538,AV.FRANCIA-SUIZA,Avda de Francia 114,40.2820854187012,-3.9226188659668,B3,http://www.crtm.es,0,,Europe/Madrid,2
par_8_15606,15606,AV.MAR MEDITERRÁNEO-RÍO URBIÓN,Avda   Mar Mediterráneo 22,40.3360268716618,-3.77228921633641,B1,http://www.crtm.es,0,,Europe/Madrid,2
par_8_19224,19224,VIA LUSITANA-PZA ELIPTICA,Calle   Vía Lusitana 2,40.3845891359401,-3.71860299271734,A,http://www.crtm.es,0,,Europe/Madrid,0
par_8_3929,3929,VIA LUSITANA-PZA.ELIPTICA,Calle   Vía Lusitana 2,40.3849508621297,-3.71838299295669,A,http://www.crtm.es,0,,Europe/Madrid,0
par_8_50010,50010,AV.CIUDAD DE BARCELONA-EST. ATOCHA,Avda de la Ciudad de Barcelona 2 B,40.4077301025391,-3.69066452980042,A,http://www.crtm.es,0,,Europe/Madrid,0
par_8_50011,50011,AV.CIUDAD DE BARCELONA-EST. ATOCHA,Avda de la Ciudad de Barcelona 2 B,40.4073753356934,-3.69013047218323,A,http://www.crtm.es,0,,Europe/Madrid,0
par_8_11059,11059,EXTREMADURA-ARADOS,Calle de Extremadura 18,40.2801818847656,-3.79533934593201,B2,http://www.crtm.es,0,,Europe/Madrid,2
par_8_15595,15595,MÓSTOLES-ALCALDE MANUEL GÓMEZ CASADO,Calle de Móstoles 36,40.3138847351074,-3.78482484817505,B1,http://www.crtm.es,0,,Europe/Madrid,2
par_8_15596,15596,ALCALDE MANUEL GÓMEZ CASADO-MÓSTOLES,Calle de Móstoles 34,40.3141212463379,-3.7847216129303,B1,http://www.crtm.es,0,,Europe/Madrid,2
par_8_607,607,VIRGEN DEL PUERTO-CAMPO DEL MORO,Gta de San Vicente 1,40.4198150634766,-3.71996212005615,A,http://www.crtm.es,0,est_90_18,,0
par_8_07974,07974,AV.FRANCIA-POLONIA,Avda   Francia 37,40.3341217041016,-3.74372577667236,B1,http://www.crtm.es,0,,Europe/Madrid,2
par_8_07975,07975,AV.FRANCIA-ITALIA,Avda  Francia 35,40.334545135498,-3.74370694160461,B1,http://www.crtm.es,0,,Europe/Madrid,2
par_8_18293,18293,AV.REINA SOFÍA-BIBLIOTECA,Avda de la Reina Sofía 9,40.3424377441406,-3.75205898284912,B1,http://www.crtm.es,0,,Europe/Madrid,0
par_8_18294,18294,AV.REINA SOFÍA-TERESA CLARAMUNT,Avda de la Reina Sofía 13,40.3428192138672,-3.75146269798279,B1,http://www.crtm.es,0,,Europe/Madrid,0
par_8_18295,18295,AV.REINA SOFÍA-CENTRO COMERCIAL,Avda de la Reina Sofía 24,40.3425102233887,-3.74919867515564,B1,http://www.crtm.es,0,,Europe/Madrid,0
par_8_18296,18296,AV.REINA SOFÍA-CENTRO COMERCIAL,Avda de la Reina Sofía 23,40.3428421020508,-3.74946141242981,B1,http://www.crtm.es,0,,Europe/Madrid,0
par_8_18297,18297,AV.PUERTA DEL SOL-C.C.PLAZA NUEVA,Avda de la Puerta del Sol 2,40.3425407409668,-3.75972485542297,B1,http://www.crtm.es,0,,Europe/Madrid,0
par_8_18298,18298,AV.PUERTA DEL SOL-C.C.PLAZA NUEVA,Avda de la Puerta del Sol 2,40.3423843383789,-3.75873422622681,B1,http://www.crtm.es,0,,Europe/Madrid,0
par_8_18299,18299,PºERMITA-TANATORIO,Paseo de la Ermita 6,40.3397636413574,-3.76419115066528,B1,http://www.crtm.es,0,,Europe/Madrid,0
par_8_18300,18300,PºERMITA-TANATORIO,Paseo de la Ermita 6,40.3401107788086,-3.76374769210815,B1,http://www.crtm.es,0,,Europe/Madrid,0
par_8_18574,18574,AV.REINA SOFÍA-IRENE FERNÁNDEZ,Avda de la Reina Sofía 41,40.3429985046387,-3.74355244636536,B1,http://www.crtm.es,0,,Europe/Madrid,0
par_8_18575,18575,AV.REINA SOFÍA-IRENE FERNÁNDEZ,Avda de la Reina Sofía 32,40.3425903320313,-3.74355983734131,B1,http://www.crtm.es,0,,Europe/Madrid,0
par_8_20268,20268,MEDICINA-CEMENTERIO,Calle   Medicina 0,40.3421401977539,-3.76199269294739,B1,http://www.crtm.es,0,,Europe/Madrid,0
par_8_20273,20273,MEDICINA-CEMENTERIO,Calle   Medicina 2,40.3418884277344,-3.76195454597473,B1,http://www.crtm.es,0,,Europe/Madrid,0
par_8_20291,20291,MIGUEL DE CERVANTES-INSTITUTO,Calle   Miguel de Cervantes 104,40.2639846801758,-3.91610455513,B3,http://www.crtm.es,0,,Europe/Madrid,0
par_8_20293,20293,MIGUEL DE CERVANTES-PÍO BAROJA,Calle   Miguel de Cervantes 120,40.2630004882813,-3.9197838306427,B3,http://www.crtm.es,0,,Europe/Madrid,0
par_8_21029,21029,AV.ATLÁNTICO-LA CORUÑA,Avda del Atlántico SN,40.2844390869141,-3.90991044044495,B3,http://www.crtm.es,0,,Europe/Madrid,0
par_8_21030,21030,ALMERÍA-ISLA CRISTINA,Calle de Almería 141,40.2796592712402,-3.90825843811035,B3,http://www.crtm.es,0,,Europe/Madrid,0
par_8_20290,20290,EMILIA PARDO BAZÁN-INSTITUTO,Calle   Emilia Pardo Bazán 12,40.263671875,-3.91581797599792,B3,http://www.crtm.es,0,,Europe/Madrid,0
par_8_20292,20292,MIGUEL DE CERVANTES-PÍO BAROJA,Calle   Miguel de Cervantes 95,40.2631645202637,-3.9192099571228,B3,http://www.crtm.es,0,,Europe/Madrid,0
par_8_21031,21031,ALMERÍA-AYAMONTE,Calle de Almería SN,40.2797050476074,-3.90787076950073,B3,http://www.crtm.es,0,,Europe/Madrid,0
par_8_21032,21032,ALGECIRAS-ALMERÍA,Calle de Algeciras 1,40.2763671875,-3.9143660068512,B3,http://www.crtm.es,0,,Europe/Madrid,0
