stop_id,stop_code,stop_name,stop_desc,stop_lat,stop_lon,zone_id,stop_url,location_type,parent_station,stop_timezone,wheelchair_boarding
par_8_10140,10140,AV.JUAN CARLOS I-OLIVAR,Avda de Juan Carlos I 9,40.5017433166504,-4.23776292800903,C2,http://www.crtm.es,0,,Europe/Madrid,2
par_8_10141,10141,PZA.ESPAÑA-AYUNTAMIENTO,Trva   Dos de Mayo 15,40.5114631652832,-4.29539966583252,C2,http://www.crtm.es,0,,Europe/Madrid,2
par_8_10142,10142,PZA.ESPAÑA-AYUNTAMIENTO,Trva   Dos de Mayo 15,40.5113830566406,-4.29535102844238,C2,http://www.crtm.es,0,,Europe/Madrid,2
par_8_10143,10143,PºLOS ÁLAMOS-CONCEPCIÓN,Paseo de los Álamos 11,40.501293182373,-4.23668050765991,C2,http://www.crtm.es,0,,Europe/Madrid,2
par_8_10183,10183,AV.CONSTITUCIÓN-FRANCISCO VALIÑO,Avda de la Constitución 23,40.5827026367188,-4.12954473495483,C1,http://www.crtm.es,0,,Europe/Madrid,2
par_8_10185,10185,EST. DE AUTOBUSES DE S.L.DE EL ESCORIAL,Calle  Cañada Nueva 19,40.592399597168,-4.14380598068237,C1,http://www.crtm.es,0,,Europe/Madrid,2
par_8_10187,10187,AV.CONSTITUCIÓN-QUITERIO LÓPEZ,Avda de la Constitución 22,40.5825958251953,-4.12963724136353,C1,http://www.crtm.es,0,,Europe/Madrid,2
par_8_10206,10206,CTRA.M600-URB.MONTE ESCORIAL,Ctra de M-600 (Guadarrama) 65,40.6031265258789,-4.12220573425293,C1,http://www.crtm.es,0,,Europe/Madrid,2
par_8_10207,10207,JUAN DE TOLEDO-BIBLIOTECA,Calle   Juan de Toledo 90,40.5970344543457,-4.13604974746704,C1,http://www.crtm.es,0,,Europe/Madrid,2
par_8_10208,10208,JUAN DE TOLEDO-VELÁZQUEZ,Calle   Juan de Toledo 21,40.5943374633789,-4.14187717437744,C1,http://www.crtm.es,0,,Europe/Madrid,2
par_8_10212,10212,JUAN DE TOLEDO-CODOLOSA,Calle   Juan de Toledo 28,40.5943031311035,-4.14178228378296,C1,http://www.crtm.es,0,,Europe/Madrid,2
par_8_10213,10213,JUAN DE TOLEDO-BIBLIOTECA,Calle   Juan de Toledo 92,40.5971145629883,-4.13553094863892,C1,http://www.crtm.es,0,,Europe/Madrid,2
par_8_10214,10214,CTRA.M600-URB.MONTE ESCORIAL,Ctra de Guadarrama 7000,40.6026153564453,-4.12291812896729,C1,http://www.crtm.es,0,,Europe/Madrid,2
par_8_10443,10443,POZAS-CENTRO COMERCIAL,Calle las Pozas 183,40.6023597717285,-4.12770080566406,C1,http://www.crtm.es,0,,Europe/Madrid,2
par_8_11026,11026,HOSPITAL EL ESCORIAL,Cmno del Hospital sn,40.6072311401367,-4.11969757080078,C1,http://www.crtm.es,0,,Europe/Madrid,2
par_8_11468,11468,CTRA.M512-G.ADOLFO BÉCQUER,Paseo de la Antigua 17,40.5047988891602,-4.23581266403198,C2,http://www.crtm.es,0,,Europe/Madrid,2
par_8_11469,11469,CTRA.VALDEMAQUEDA-AV.CONSTITUCIÓN,Ctra   M-537 (Valdemaqueda) 4,40.4989433288574,-4.23941087722778,C2,http://www.crtm.es,0,,Europe/Madrid,2
par_8_11470,11470,CTRA.M537-COLONIA DEL RÍO,Ctra de M-537 (Robledo) 3800,40.5080757141113,-4.27761888504028,C2,http://www.crtm.es,0,,Europe/Madrid,2
par_8_11471,11471,TRVA.DOS DE MAYO-COLONIA SANTA ANA,Trva   Dos de Mayo 4800,40.5097579956055,-4.28913497924805,C2,http://www.crtm.es,0,,Europe/Madrid,2
par_8_11472,11472,TRVA.DOS DE MAYO-ERMITA,Calle   Gobernador 1,40.5119972229004,-4.30079221725464,C2,http://www.crtm.es,0,,Europe/Madrid,2
par_8_11473,11473,TRVA.DOS DE MAYO-ERMITA,Trva   Dos de Mayo 5800,40.511890411377,-4.30060148239136,C2,http://www.crtm.es,0,,Europe/Madrid,2
par_8_11474,11474,TRVA.DOS DE MAYO-COLONIA SANTA ANA,Trva   Dos de Mayo 5,40.5098419189453,-4.28976202011108,C2,http://www.crtm.es,0,,Europe/Madrid,2
par_8_11475,11475,CTRA.M537-COLONIA DEL RÍO,Col del Río 3600,40.5073165893555,-4.27538537979126,C2,http://www.crtm.es,0,,Europe/Madrid,2
par_8_11476,11476,CTRA.VALDEMAQUEDA-AV.CONSTITUCIÓN,Ctra   M-537 (Valdemaqueda) 3,40.4988212585449,-4.23956203460693,C2,http://www.crtm.es,0,,Europe/Madrid,2
par_8_11477,11477,CTRA.M512-G.ADOLFO BÉCQUER,Paseo de la Antigua 42,40.5046768188477,-4.23558616638184,C2,http://www.crtm.es,0,,Europe/Madrid,2
par_8_11525,11525,AV.CONSTITUCIÓN-MADRID,Avda de la Constitución 61,40.5823173522949,-4.12287425994873,C1,http://www.crtm.es,0,,Europe/Madrid,2
par_8_11526,11526,AV.CONSTITUCIÓN-ALFONSO XIII,Avda de la Constitución 72,40.5822296142578,-4.12284898757935,C1,http://www.crtm.es,0,,Europe/Madrid,2
par_8_11529,11529,JUAN DE TOLEDO-ESTACIÓN DE AUTOBUSES,Calle   Juan de Toledo 8,40.5917778015137,-4.1438307762146,C1,http://www.crtm.es,0,,Europe/Madrid,2
par_8_11530,11530,CTRA.M600-URB.JARDÍN DE REYES,Ctra de Guadarram SN,40.5996398925781,-4.12943983078003,C1,http://www.crtm.es,0,,Europe/Madrid,2
par_8_11531,11531,CTRA.M600-URB.JARDÍN DE REYES,Ctra de M-600 (Guadarrama) 39,40.5994262695313,-4.13042879104614,C1,http://www.crtm.es,0,,Europe/Madrid,2
par_8_11540,11540,CTRA.M512-FÉLIX BONET,Ctra   M-512 (El Escorial) 6500,40.5179862976074,-4.24617099761963,C2,http://www.crtm.es,0,,Europe/Madrid,2
par_8_11541,11541,CTRA.M512-FÉLIX BONET,Ctra   M-512 (El Escorial) 6500,40.5181121826172,-4.24592590332031,C2,http://www.crtm.es,0,,Europe/Madrid,2
par_8_11923,11923,AV.REYES CATÓLICOS-PADRE WIGFRIDO,Avda de los Reyes Católicos 18,40.5895576477051,-4.1396689414978,C1,http://www.crtm.es,0,,Europe/Madrid,2
par_8_11924,11924,AV.REYES CATÓLICOS-PADRE WIGFRIDO,Avda de los Reyes Católicos 16,40.5893020629883,-4.13923931121826,C1,http://www.crtm.es,0,,Europe/Madrid,2
par_8_11942,11942,CTRA.M512-URB.LA SALETA,Ctra   M-512 (El Escorial) 7800,40.5129051208496,-4.23931360244751,C2,http://www.crtm.es,0,,Europe/Madrid,2
par_8_11943,11943,CTRA.M512-URB.LA SALETA,Ctra   M-512 (El Escorial) 7700,40.5131416320801,-4.23927068710327,C2,http://www.crtm.es,0,,Europe/Madrid,2
par_8_11944,11944,CTRA.M512-URB.CERRILLO DEL CARMEN,Calle de los Sauces 1,40.5076904296875,-4.23501586914063,C2,http://www.crtm.es,0,,Europe/Madrid,2
par_8_11945,11945,CTRA.M512-URB.CERRILLO DEL CARMEN,Calle del Doctor Pérez Suárez 4,40.507511138916,-4.23480033874512,C2,http://www.crtm.es,0,,Europe/Madrid,2
par_8_12597,12597,CTRA.M512-ALMOJÓN,Ctra   M-512 (El Escorial) 8700,40.5098876953125,-4.23768854141235,C2,http://www.crtm.es,0,,Europe/Madrid,2
par_8_12598,12598,CTRA.M512-ALMOJÓN,Ctra   M-512 (El Escorial) 8700,40.5098419189453,-4.23693227767944,C2,http://www.crtm.es,0,,Europe/Madrid,2
par_8_13111,13111,CTRA.M512-URB.LA SUIZA ESPAÑOLA,Ctra   M-512 (El Escorial) 8200,40.5100975036621,-4.2409496307373,C2,http://www.crtm.es,0,,Europe/Madrid,2
par_8_18122,18122,CTRA.M505-PUERTO DE LA CRUZ VERDE,Ctra   Hoya 1 B,40.5595207214355,-4.19631624221802,C2,http://www.crtm.es,0,,Europe/Madrid,0
par_8_18124,18124,CTRA.M512-PUERTO DE LA CRUZ VERDE,Ctra   M-512 (El Escorial) 100,40.5587425231934,-4.19743633270264,C2,http://www.crtm.es,0,,Europe/Madrid,0
par_8_18772,18772,TRVA.DOS DE MAYO-PILAS,Trva   Dos de Mayo 136,40.5122032165527,-4.30319213867188,C2,http://www.crtm.es,0,,Europe/Madrid,0
par_8_18773,18773,TRVA.DOS DE MAYO-AV.DEL PINAR,Calle   San Guillermo 15,40.5121002197266,-4.3036150932312,C2,http://www.crtm.es,0,,Europe/Madrid,0
par_8_12749,12749,FCO.QUEVEDO-EST.ROBLEDO DE CHAVELA,Calle de Francisco Quevedo 22,40.5202102661133,-4.24630689620972,C2,http://www.crtm.es,0,,Europe/Madrid,2
par_8_18562,18562,MIGUEL CERVANTES-LUIS GÓNGORA,Calle de Miguel de Cervantes 40,40.520923614502,-4.25360345840454,C2,http://www.crtm.es,0,,Europe/Madrid,0
par_8_18563,18563,NAVAS-ARROYO,Calle   Navas 103,40.5207366943359,-4.25563049316406,C2,http://www.crtm.es,0,,Europe/Madrid,0
par_8_18564,18564,NAVAS-PINOS,Calle los Pinos 169,40.5186157226563,-4.25962829589844,C2,http://www.crtm.es,0,,Europe/Madrid,0
par_8_18565,18565,AMISTAD-AV.CENTRAL,Calle de la Amistad 180,40.5158920288086,-4.25990772247314,C2,http://www.crtm.es,0,,Europe/Madrid,0
par_8_18566,18566,AV.CENTRAL-FUENTE ÁGUILA,Avda   Central 374,40.5118255615234,-4.25169897079468,C2,http://www.crtm.es,0,,Europe/Madrid,0
par_8_18567,18567,AV.CENTRAL-ALMENARA,Avda   Central 204,40.5092887878418,-4.24570322036743,C2,http://www.crtm.es,0,,Europe/Madrid,0
par_8_21110,21110,AV.VIRGEN DE NAVAHONDA-CANOPUS,Avda de Virgen de Navahonda 32,40.4956474304199,-4.23414611816406,C2,http://www.crtm.es,0,,Europe/Madrid,0
par_8_06002,06002,INTERCAMBIADOR MONCLOA,Calle de la Princesa 89,40.4343032836914,-3.71930313110352,A,http://www.crtm.es,0,est_90_14,,2
par_8_06149,06149,CTRA.M505-BURGOCENTRO,Ctra del Escorial 1300,40.4909934997559,-3.87664604187012,B2,http://www.crtm.es,0,,Europe/Madrid,2
par_8_06164,06164,CTRA.M505-BURGOCENTRO,Calle de la Comunidad de Madrid 41,40.4915809631348,-3.87868332862854,B2,http://www.crtm.es,0,,Europe/Madrid,2
par_8_06196,06196,CTRA.M509-AV.LOS PINOS,Ctra  M-509 (Majadahonda-Valdemorillo) 1,40.4855422973633,-3.97330236434937,B3,http://www.crtm.es,0,,Europe/Madrid,2
par_8_06198,06198,CTRA.M509-LOS PINOS,Ctra   M-509 (Majadahonda-Valdemorillo) 7400,40.4854278564453,-3.9729585647583,B3,http://www.crtm.es,0,,Europe/Madrid,2
par_8_06199,06199,AV.MADRID-RECAUDACIÓN,Avda de Madrid 14,40.4890594482422,-3.96325278282166,B3,http://www.crtm.es,0,,Europe/Madrid,2
par_8_06200,06200,AV.MADRID-ADOLFO SUÁREZ,Calle   Adolfo Suárez 13,40.4892120361328,-3.96344375610352,B3,http://www.crtm.es,0,,Europe/Madrid,2
par_8_09330,09330,REAL-IGLESIA,Calle del Real 68,40.488151550293,-4.17017507553101,C2,http://www.crtm.es,0,,Europe/Madrid,2
par_8_09331,09331,REAL-IGLESIA,Calle del Real 68,40.4881057739258,-4.17009162902832,C2,http://www.crtm.es,0,,Europe/Madrid,2
par_8_09854,09854,SOLANA-CTRA.M510,Plaza del Dos de Mayo 4,40.4684562683105,-4.12398338317871,C2,http://www.crtm.es,0,,Europe/Madrid,2
par_8_09858,09858,CTRA.CERRO ALARCÓN-URB.LOS PAJARILLOS,Ctra   Cerro Alarcón 11 B,40.4985198974609,-4.07088422775269,C1,http://www.crtm.es,0,,Europe/Madrid,2
par_8_09874,09874,CTRA.CERRO ALARCÓN-URB.LOS PAJARILLOS,Ctra   Cerro Alarcón 13,40.498291015625,-4.07089281082153,C1,http://www.crtm.es,0,,Europe/Madrid,2
par_8_09956,09956,CTRA.M510-SOLANA,Avda de la Constitución 33,40.4683151245117,-4.12376832962036,C2,http://www.crtm.es,0,,Europe/Madrid,2
par_8_11467,11467,CTRA.M521-LAS UMBRÍAS,Ctra   M-521 (Fresnedillas) 25700,40.505298614502,-4.2055139541626,C2,http://www.crtm.es,0,,Europe/Madrid,2
par_8_11478,11478,CTRA.M521-LA SAMBRÍA,Extrr   Finca Montealegre,40.5029373168945,-4.20584917068481,C2,http://www.crtm.es,0,,Europe/Madrid,2
par_8_11946,11946,CTRA.M521-CAPILLA,Ctra   M-521 (Fresnedillas) 5,40.5069313049316,-4.23363304138184,C2,http://www.crtm.es,0,,Europe/Madrid,2
par_8_11947,11947,CTRA.M521-CAPILLA,Ctra   M-521 (Fresnedillas) 14,40.5070838928223,-4.23277425765991,C2,http://www.crtm.es,0,,Europe/Madrid,2
par_8_12514,12514,CTRA.M521-CEMENTERIO,Ctra de Navalagamella 33,40.4886817932129,-4.16669178009033,C2,http://www.crtm.es,0,,Europe/Madrid,2
par_8_12515,12515,CTRA.M521-CEMENTERIO,Ctra de Navalagamella 18,40.488452911377,-4.16684150695801,C2,http://www.crtm.es,0,,Europe/Madrid,2
par_8_12516,12516,CTRA.M521-CAÑADA,Ctra de Navalagamella 21100,40.4868927001953,-4.15732765197754,C2,http://www.crtm.es,0,,Europe/Madrid,2
par_8_12517,12517,CTRA.M521-CºDEGOLLADOS,Ctra de Navalagamella 20900,40.4845237731934,-4.15624904632568,C2,http://www.crtm.es,0,,Europe/Madrid,2
par_8_12599,12599,CTRA.M521-TALLER DE ARTESANÍA,Ctra de Robledo de Chavela 24900,40.4997329711914,-4.20287704467773,C2,http://www.crtm.es,0,,Europe/Madrid,2
par_8_12600,12600,CTRA.M521-TALLER DE ARTESANÍA,Ctra   M-521 (Fresnedillas) 25100,40.5001068115234,-4.20333194732666,C2,http://www.crtm.es,0,,Europe/Madrid,2
par_8_12949,12949,SAN JUAN-CTRA.M510,Calle   San Juan 93,40.4998893737793,-4.05713415145874,C1,http://www.crtm.es,0,,Europe/Madrid,2
par_8_12950,12950,SAN JUAN-CTRA.M510,Calle   San Juan SN,40.4997024536133,-4.05762672424316,C1,http://www.crtm.es,0,,Europe/Madrid,2
par_8_15347,15347,CTRA.M509-SAN JOSÉ CALASANZ,Avda de Madrid 6700,40.4880905151367,-3.96625971794128,B3,http://www.crtm.es,0,,Europe/Madrid,2
par_8_15348,15348,CTRA.M509-SANTO TOMÁS,Calle   Santo Tomás 2,40.4879913330078,-3.96601033210754,B3,http://www.crtm.es,0,,Europe/Madrid,2
par_8_16196,16196,CTRA.M521-DÁMASO GONZÁLEZ,Ctra de Robledo de Chavela 51,40.4900169372559,-4.17708683013916,C2,http://www.crtm.es,0,,Europe/Madrid,2
par_8_16197,16197,CTRA.M521-DÁMASO GONZÁLEZ,Ctra de Robledo de Chavela 51,40.4900245666504,-4.1772403717041,C2,http://www.crtm.es,0,,Europe/Madrid,2
par_8_18137,18137,CºROBLEDO CHAVELA-POL.IND.LA GAZUELA,Cmno   Robledo de Chavela 24,40.4970893859863,-4.06833648681641,C1,http://www.crtm.es,0,,Europe/Madrid,0
par_8_18138,18138,CºROBLEDO CHAVELA-PLAZA DE TOROS,Cmno   Robledo de Chavela 117,40.497142791748,-4.06969404220581,C1,http://www.crtm.es,0,,Europe/Madrid,0
par_8_18139,18139,ERAS CERRADAS-CEMENTERIO,Calle   Eras Cerradas 15,40.4980316162109,-4.06313514709473,C1,http://www.crtm.es,0,,Europe/Madrid,0
par_8_18140,18140,ERAS CERRADAS-CEMENTERIO,Calle   Eras Cerradas 9,40.4975280761719,-4.06388235092163,C1,http://www.crtm.es,0,,Europe/Madrid,0
par_8_18884,18884,PARQUE LA NAVA,Ctra   M-510 (Navalagamella) 5,40.5008659362793,-4.07142925262451,C1,http://www.crtm.es,0,,Europe/Madrid,0
par_8_18885,18885,ERAS CERRADAS-ALTOS DE SANTA ANA,Calle   Eras Cerradas 33,40.499137878418,-4.0605092048645,C1,http://www.crtm.es,0,,Europe/Madrid,0
par_8_18886,18886,ERAS CERRADAS-ALTO DE SANTA ANA,Calle   Eras Cerradas 33,40.4990997314453,-4.06036710739136,C1,http://www.crtm.es,0,,Europe/Madrid,0
par_8_18912,18912,EST.DE AUTOBUSES DE CEBREROS,Acces  Estación Autobuses SN,40.4567718505859,-4.46220588684082,SZ,http://www.crtm.es,0,,Europe/Madrid,0
par_8_19090,19090,CEBREROS-EL MANCHO,CTRA-V502 SN,40.461784362793,-4.46332883834839,SZ,http://www.crtm.es,0,,Europe/Madrid,0
par_8_19091,19091,CEBREROS-EL MANCHO,CTRA-V502 SN,40.4616394042969,-4.4633846282959,SZ,http://www.crtm.es,0,,Europe/Madrid,0
par_8_19092,19092,HOYO DE PINARES-PZA CASTILLA LEON,Plaza castilla leon sn,40.5014801025391,-4.42478656768799,SZ,http://www.crtm.es,0,,Europe/Madrid,0
par_8_19093,19093,HOYO DE PINARES-AV CONSTITUCION,av constitución sn,40.4997520446777,-4.42543458938599,SZ,http://www.crtm.es,0,,Europe/Madrid,0
par_8_19094,19094,HOYO DE PINARES-AV CONSTITUCION,av constitución sn,40.4995727539063,-4.42534828186035,SZ,http://www.crtm.es,0,,Europe/Madrid,0
par_8_23,23,ESCUELA UNIVERSITARIA DE ESTADISTICA,Avda de Puerta de Hierro 5400,40.4483261108398,-3.73622155189514,A,http://www.crtm.es,0,,Europe/Madrid,0
est_90_14,14,Intercambiador de Moncloa,Plaza de la Moncloa 1,40.43523,-3.71919,A,http://www.crtm.es,1,,Europe/Madrid,0
par_8_06405,06405,AV.JUAN CARLOS I-PLANETOCIO,Avda   Juan Carlos I 49,40.6363372802734,-4.01648759841919,B3,http://www.crtm.es,0,,Europe/Madrid,2
par_8_06516,06516,AV.JUAN CARLOS I-ZOCO,Avda   Juan Carlos I 33,40.6331748962402,-4.00513505935669,B3,http://www.crtm.es,0,,Europe/Madrid,2
par_8_09228,09228,AV.REINA VICTORIA-SANTA ANA,Avda de la Reina Victoria 12,40.6396853200719,-4.02786987953721,C1,http://www.crtm.es,0,,Europe/Madrid,2
par_8_09237,09237,AV.REINA VICTORIA-SANTA ANA,Avda de la Reina Victoria 16,40.6396453347204,-4.02730162848556,C1,http://www.crtm.es,0,,Europe/Madrid,2
par_8_09238,09238,CTRA.NVI-URB.GRANDES VALLES,Ctra de la Coruña 43400,40.6450769016047,-4.03743764517603,C1,http://www.crtm.es,0,,Europe/Madrid,2
par_8_09247,09247,CTRA.NVI-MIRAVALLE,Ctra de la Coruña 44500,40.6498178567386,-4.04813223250912,C1,http://www.crtm.es,0,,Europe/Madrid,2
par_8_09248,09248,CTRA.NVI-MIRAVALLE,Ctra de la Coruña 44600,40.6505179293012,-4.04940875078131,C1,http://www.crtm.es,0,,Europe/Madrid,2
par_8_09249,09249,CTRA.NVI-EL TOMILLAR,Ctra de la Coruña 45600,40.6561216707878,-4.0582379556466,C1,http://www.crtm.es,0,,Europe/Madrid,2
par_8_09250,09250,CTRA.NVI-EL TOMILLAR,Ctra de la Coruña 45900,40.6570743305349,-4.062404934967,C1,http://www.crtm.es,0,,Europe/Madrid,2
par_8_09251,09251,HOSPITAL GUADARRAMA-URB.FRESNOS JAROSA,Paseo   Molino del Rey 48000,40.668322196037,-4.08315724350501,C1,http://www.crtm.es,0,,Europe/Madrid,2
par_8_09252,09252,HOSPITAL GUADARRAMA-URB.FRESNOS JAROSA,Calle   Río Duero 54,40.6681070258496,-4.08304728461605,C1,http://www.crtm.es,0,,Europe/Madrid,2
par_8_09303,09303,CTRA.NVI-URB.GRANDES VALLES,Ctra de la Coruña 43500,40.6449919047663,-4.03787391766402,C1,http://www.crtm.es,0,,Europe/Madrid,2
par_8_10200,10200,ESCORIALES-HOSPITAL GUADARRAMA,Calle   General Moscardó 13,40.6699905395508,-4.08694505691528,C1,http://www.crtm.es,0,,Europe/Madrid,2
par_8_10201,10201,CTRA.M600-VALLE DE CUELGAMUROS,Ctra de M-600 (Guadarrama) 1300,40.6495323181152,-4.10229635238647,C1,http://www.crtm.es,0,,Europe/Madrid,2
par_8_10202,10202,CTRA.M600-CºCALZADA DEL CAMPILLO,Ctra de M-600 (Guadarrama) 4100,40.6291847229004,-4.10948181152344,C1,http://www.crtm.es,0,,Europe/Madrid,2
par_8_10204,10204,CTRA.M600-URB.LA PIZARRA,Ctra de M-600 (Guadarrama) 5700,40.615364074707,-4.11441898345947,C1,http://www.crtm.es,0,,Europe/Madrid,2
par_8_10205,10205,CTRA.M600-HOSPITAL EL ESCORIAL,Ctra de M-600 (Guadarrama) 65,40.6057357788086,-4.11710786819458,C1,http://www.crtm.es,0,,Europe/Madrid,2
par_8_10215,10215,CTRA.M600-HOSPITAL EL ESCORIAL,Ctra de Guadarrama 6700,40.6049728393555,-4.11747312545776,C1,http://www.crtm.es,0,,Europe/Madrid,2
par_8_10216,10216,CTRA.M600-URB.LA PIZARRA,Ctra de M-600 (Guadarrama) 5600,40.6157989501953,-4.11419010162354,C1,http://www.crtm.es,0,,Europe/Madrid,2
par_8_10218,10218,CTRA.M600-CºCALZADA DEL CAMPILLO,Ctra de M-600 (Guadarrama) 4000,40.6296577453613,-4.10906410217285,C1,http://www.crtm.es,0,,Europe/Madrid,2
par_8_10219,10219,CTRA.M600-VALLE DE CUELGAMUROS,Ctra de M-600 (Guadarrama) 1100,40.6508979797363,-4.10063934326172,C1,http://www.crtm.es,0,,Europe/Madrid,2
par_8_10220,10220,ESCORIALES-HOSPITAL GUADARRAMA,Calle los Escoriales 9400,40.6700286865234,-4.08670902252197,C1,http://www.crtm.es,0,,Europe/Madrid,2
par_8_15193,15193,AV.REINA VICTORIA-EST.LOS NEGRALES,Avda de la Reina Victoria 28,40.6385335467569,-4.02366595286598,C1,http://www.crtm.es,0,,Europe/Madrid,2
par_8_15194,15194,AV.REINA VICTORIA-EST.LOS NEGRALES,Avda de la Reina Victoria 28 A,40.6382588279551,-4.0231532577275,C1,http://www.crtm.es,0,,Europe/Madrid,2
par_8_19197,19197,CTRA.NVI-CABEZA LÍJAR,Ctra de la Coruña 300,40.6406425513876,-4.03064001270749,C1,http://www.crtm.es,0,,Europe/Madrid,0
par_8_19198,19198,AV.REINA VICTORIA-CABEZA LÍJAR,Avda de la Reina Victoria 2,40.6402617813978,-4.02990095040299,C1,http://www.crtm.es,0,,Europe/Madrid,0
par_8_20123,20123,AV.JUAN CARLOS I-PLANETOCIO,Avda   Juan Carlos I 49,40.6364669799805,-4.01614665985107,B3,http://www.crtm.es,0,,Europe/Madrid,0
par_8_06026,06026,AV.PADRE HUIDOBRO-URB.CASAQUEMADA,Ctra de la Coruña 15100,40.4760856628418,-3.83847689628601,B1,http://www.crtm.es,0,,Europe/Madrid,2
par_8_06150,06150,CTRA.M505-URB.LA CHOPERA,Ctra del Escorial 5,40.5038261413574,-3.9063892364502,B2,http://www.crtm.es,0,,Europe/Madrid,2
par_8_06152,06152,CAMINO REAL-URB.MOLINO DE LA HOZ,Calle  Camino Real 2 B,40.530460357666,-3.94281768798828,B2,http://www.crtm.es,0,,Europe/Madrid,2
par_8_06153,06153,CTRA.M505-URB.RONCESVALLES,Ctra del Escorial 14000,40.562816619873,-3.96974325180054,B3,http://www.crtm.es,0,,Europe/Madrid,2
par_8_06154,06154,CTRA.M505-URB.LOS GAMOS,Ctra del Escorial 16400,40.5706748962402,-3.99056625366211,B3,http://www.crtm.es,0,,Europe/Madrid,2
par_8_06155,06155,CTRA.M505-PZA.CRUZ ROJA,Ctra del Escorial 17800,40.5738487243652,-4.00495576858521,B3,http://www.crtm.es,0,,Europe/Madrid,2
par_8_06156,06156,CTRA.M505-URB.VISTANEVADA,Ctra del Escorial 19400,40.5776252746582,-4.0208797454834,B3,http://www.crtm.es,0,,Europe/Madrid,2
par_8_06157,06157,CTRA.M505-URB.VISTANEVADA,Ctra del Escorial 19400,40.5773696899414,-4.02046203613281,B3,http://www.crtm.es,0,,Europe/Madrid,2
par_8_06158,06158,CTRA.EL ESCORIAL-PZA.CRUZ ROJA,Ctra del Escorial 73,40.5743217468262,-4.00717210769653,B3,http://www.crtm.es,0,,Europe/Madrid,2
par_8_06159,06159,CTRA.M505-URB.LOS GAMOS,Ctra del Escorial 16200,40.570182800293,-3.98878693580627,B3,http://www.crtm.es,0,,Europe/Madrid,2
par_8_06160,06160,CTRA.M505-URB.RONCESVALLES,Ctra del Escorial 14000,40.5625267028809,-3.96964454650879,B3,http://www.crtm.es,0,,Europe/Madrid,2
par_8_06161,06161,CTRA.M505-URB.MOLINO DE LA HOZ,Ctra del Escorial 8700,40.5295829772949,-3.94347834587097,B2,http://www.crtm.es,0,,Europe/Madrid,2
par_8_06163,06163,CTRA.M505-URB.LA CHOPERA,Ctra del Escorial 4100,40.5035820007324,-3.90659832954407,B2,http://www.crtm.es,0,,Europe/Madrid,2
par_8_06166,06166,CTRA.EL ESCORIAL-QUINTA DEL SOL,Ctra del Escorial 5,40.4859046936035,-3.8656895160675,B2,http://www.crtm.es,0,,Europe/Madrid,2
par_8_06268,06268,AV.PADRE HUIDOBRO-PºERMITA,Avda del Padre Huidobro 9700,40.4628105163574,-3.77879428863525,B1,http://www.crtm.es,0,,Europe/Madrid,2
par_8_10181,10181,CTRA.M505-EMBALSE VALMAYOR,Ctra   M-505 (Madrid) 21900,40.5772399902344,-4.05186414718628,C1,http://www.crtm.es,0,,Europe/Madrid,2
par_8_10184,10184,JULIANA-URB.LOS ESCORIALES,Calle de Juliana 23,40.5911064147949,-4.13442468643188,C1,http://www.crtm.es,0,,Europe/Madrid,2
par_8_10186,10186,JULIANA-URB.LOS ESCORIALES,Calle de Juliana 23,40.5906677246094,-4.13400363922119,C1,http://www.crtm.es,0,,Europe/Madrid,2
par_8_10189,10189,CTRA.M505-EMBALSE VALMAYOR,Ctra   M-505 (Madrid) 21900,40.577033996582,-4.05163669586182,C1,http://www.crtm.es,0,,Europe/Madrid,2
par_8_11089,11089,CTRA.EL ESCORIAL-QUINTA DEL SOL,Rtda   Cruz Roja Española 1,40.4864311218262,-3.86651039123535,B2,http://www.crtm.es,0,,Europe/Madrid,2
par_8_11094,11094,CTRA.M505-COLEGIO,Ctra del Escorial 16900,40.5715827941895,-3.99612021446228,B3,http://www.crtm.es,0,,Europe/Madrid,2
par_8_11095,11095,CTRA.M505-COLEGIO,Ctra del Escorial 16900,40.5713768005371,-3.99588108062744,B3,http://www.crtm.es,0,,Europe/Madrid,2
par_8_11527,11527,SAN SEBASTIÁN-CARDENAL CISNEROS,Calle de San Sebastián 26,40.5874061584473,-4.12957668304443,C1,http://www.crtm.es,0,,Europe/Madrid,2
par_8_11528,11528,SAN SEBASTIÁN-CONDE DE CHINCHÓN,Calle de San Sebastián 27,40.5871353149414,-4.1297492980957,C1,http://www.crtm.es,0,,Europe/Madrid,2
par_8_12305,12305,CTRA.M505-CRUCE CTRA.GUADARRAMA,Ctra del Escorial 93,40.575065612793,-4.00984144210815,B3,http://www.crtm.es,0,,Europe/Madrid,2
par_8_12306,12306,CTRA.M505-CRUCE CTRA.GUADARRAMA,Ctra del Escorial 96,40.5753402709961,-4.01022386550903,B3,http://www.crtm.es,0,,Europe/Madrid,2
par_8_1333,1333,AV.PUERTA DE HIERRO-AGRONOMOS,Avda de Puerta de Hierro 4500,40.4416770935059,-3.73012351989746,A,http://www.crtm.es,0,,Europe/Madrid,0
par_8_1338,1338,FACULTAD DE VETERINARIA,Avda de Puerta de Hierro 5600,40.4493637084961,-3.73689317703247,A,http://www.crtm.es,0,,Europe/Madrid,0
par_8_15525,15525,PºMORET-MONCLOA,Paseo de Moret 1,40.4344520568848,-3.72050714492798,A,http://www.crtm.es,0,est_90_14,,2
par_8_18484,18484,AV.M.MORATIEL IBAN-PABLO MAYORAL,Calle   Pablo Mayoral 3,40.5942306518555,-4.13008117675781,C1,http://www.crtm.es,0,,Europe/Madrid,0
par_8_18485,18485,AV.M.MORATIEL IBAN-PABLO MAYORAL,Avda   Manuel Moratiel Iban SN,40.5943794250488,-4.13030862808228,C1,http://www.crtm.es,0,,Europe/Madrid,0
par_8_11383,11383,PRINCIPAL-VEINTICUATRO,Calle   Principal 45,40.5928077697754,-4.04596328735352,C1,http://www.crtm.es,0,,Europe/Madrid,2
par_8_11387,11387,PRINCIPAL-VEINTICUATRO,Calle   Principal 45,40.5929260253906,-4.04576396942139,C1,http://www.crtm.es,0,,Europe/Madrid,2
par_8_11388,11388,PRINCIPAL-PARQUE INFANTIL,Calle  Principal 72,40.6012573242188,-4.05792570114136,C1,http://www.crtm.es,0,,Europe/Madrid,2
par_8_11389,11389,PRINCIPAL-PARQUE INFANTIL,Calle   Principal 72,40.6013107299805,-4.05779647827148,C1,http://www.crtm.es,0,,Europe/Madrid,2
par_8_11390,11390,EST.LAS ZORRERAS,Calle de la Estación 42,40.6087493896484,-4.04713344573975,C1,http://www.crtm.es,0,,Europe/Madrid,2
par_8_11391,11391,EST.LAS ZORRERAS,Calle de la Estación 29,40.60888671875,-4.04695844650269,C1,http://www.crtm.es,0,,Europe/Madrid,2
par_8_11392,11392,ALCUDIA-COLONIA ESPAÑA,Calle de Alcudia 19,40.618350982666,-4.0375657081604,B3,http://www.crtm.es,0,,Europe/Madrid,2
par_8_12070,12070,PRINCIPAL-QUINCE,Calle   Principal 46,40.5969772338867,-4.05473804473877,C1,http://www.crtm.es,0,,Europe/Madrid,2
par_8_12071,12071,PRINCIPAL-QUINCE,Calle   Principal 46,40.5967636108398,-4.05475854873657,C1,http://www.crtm.es,0,,Europe/Madrid,2
par_8_12072,12072,ESTACIÓN-NUEVE,Calle de la Estación 9 A,40.6047973632813,-4.05363178253174,C1,http://www.crtm.es,0,,Europe/Madrid,2
par_8_12073,12073,ESTACIÓN-NUEVE,Calle de la Estación 24,40.6046562194824,-4.05351161956787,C1,http://www.crtm.es,0,,Europe/Madrid,2
par_8_12074,12074,PRINCIPAL-CATORCE,Calle   Principal 22,40.5954704284668,-4.04930210113525,C1,http://www.crtm.es,0,,Europe/Madrid,2
par_8_12075,12075,PRINCIPAL-CATORCE,Calle   Principal 22,40.5953598022461,-4.04946565628052,C1,http://www.crtm.es,0,,Europe/Madrid,2
par_8_15715,15715,PRINCIPAL-EMBALSE VALMAYOR,Calle   Principal 3,40.5862159729004,-4.04551792144775,C1,http://www.crtm.es,0,,Europe/Madrid,2
par_8_15716,15716,PRINCIPAL-EMBALSE VALMAYOR,Calle   Principal 2 D,40.5860290527344,-4.04539680480957,C1,http://www.crtm.es,0,,Europe/Madrid,2
par_8_18628,18628,CTRA.M505-COLONIA PTO.GALAPAGAR,Calle   Puerto de Navacerrada 45,40.5575065612793,-3.96465849876404,B3,http://www.crtm.es,0,,Europe/Madrid,0
par_8_18629,18629,CTRA.M505-COLONIA PTO.GALAPAGAR,Ctra del Escorial 13200,40.5572052001953,-3.9641580581665,B3,http://www.crtm.es,0,,Europe/Madrid,0
par_8_11552,11552,CAMINO REAL-HOTEL,Calle   Camino Real 2,40.5314445495605,-3.94389414787292,B2,http://www.crtm.es,0,,Europe/Madrid,2
par_8_11553,11553,CAMINO REAL-HOTEL,Calle   Camino Real 2 A,40.5312385559082,-3.94372582435608,B2,http://www.crtm.es,0,,Europe/Madrid,2
par_8_11554,11554,CºREAL-RESIDENCIAL MONTESA,Cmno  Real 1,40.5338134765625,-3.9426167011261,B2,http://www.crtm.es,0,,Europe/Madrid,2
par_8_11555,11555,CºREAL-RESIDENCIAL MONTESA,Cmno  Real 1,40.5337333679199,-3.94252109527588,B2,http://www.crtm.es,0,,Europe/Madrid,2
par_8_11556,11556,CºREAL-ZONA ESCOLAR,Cmno  Real 6,40.5375518798828,-3.94067358970642,B2,http://www.crtm.es,0,,Europe/Madrid,2
par_8_11557,11557,CºREAL-ZONA ESCOLAR,Cmno  Real 6,40.5375366210938,-3.94050788879395,B2,http://www.crtm.es,0,,Europe/Madrid,2
par_8_11558,11558,CºREAL-CETRERÍA,Cmno  Real 28,40.5398178100586,-3.93548583984375,B2,http://www.crtm.es,0,,Europe/Madrid,2
par_8_11559,11559,CºREAL-CETRERÍA,Cmno  Real 26,40.5398292541504,-3.93628907203674,B2,http://www.crtm.es,0,,Europe/Madrid,2
par_8_11560,11560,CºREAL-ÁGUILA REAL,Cmno   Real 38,40.5399589538574,-3.93280744552612,B2,http://www.crtm.es,0,,Europe/Madrid,2
par_8_18010,18010,GERIFALTE-BORNI,Calle  Gerifalte 52,40.5447044372559,-3.9281849861145,B2,http://www.crtm.es,0,,Europe/Madrid,0
par_8_18011,18011,GERIFALTE-MILOCA,Calle  Gerifalte 164,40.5444221496582,-3.93459343910217,B2,http://www.crtm.es,0,,Europe/Madrid,0
par_8_19503,19503,GERIFALTE Nº106,Calle   Gerifalte 106,40.5481491088867,-3.93132662773132,B2,http://www.crtm.es,0,,Europe/Madrid,0
par_8_06094,06094,CTRA.A6-AV.TORRELODONES,Paseo de Emilia Alarcos 25,40.5774345397949,-3.93849086761475,B3,http://www.crtm.es,0,,Europe/Madrid,2
par_8_12563,12563,AV.JUAN CARLOS I-CTRA.M601,Avda   Juan Carlos I 26,40.6335067749023,-4.00637006759644,B3,http://www.crtm.es,0,,Europe/Madrid,2
par_8_10222,10222,CTRA.M505-PUERTO DE LA CRUZ VERDE,Ctra   Hoya 34700,40.5602378845215,-4.19825458526611,C2,http://www.crtm.es,0,,Europe/Madrid,2
par_8_10223,10223,ROBLEDONDO-AV.CARDENAL CISNEROS,Calle   General Prim 5,40.5769500732422,-4.20436525344849,C2,http://www.crtm.es,0,,Europe/Madrid,2
par_8_10224,10224,CTRA.M535-AYUNTAMIENTO,Avda   Rey Don Juan Carlos I 7,40.5952339172363,-4.25867795944214,C2,http://www.crtm.es,0,,Europe/Madrid,2
par_8_10225,10225,CTRA.M535-NAVASANTERO,Avda   Rey Don Juan Carlos I 47,40.5995407104492,-4.25841617584229,C2,http://www.crtm.es,0,,Europe/Madrid,2
par_8_10984,10984,CTRA.M535-AYUNTAMIENTO,Avda   Rey Don Juan Carlos I 9200,40.5950813293457,-4.25855684280396,C2,http://www.crtm.es,0,,Europe/Madrid,2
par_8_10985,10985,ROBLEDONDO-AV.CARDENAL CISNEROS,Avda   Cardenal Cisneros 23,40.5766258239746,-4.20607280731201,C2,http://www.crtm.es,0,,Europe/Madrid,2
par_8_11595,11595,BUENAVISTA-EST.STA.MARÍA DE LA ALAMEDA,Calle   Buenavista 19,40.5697441101074,-4.26824140548706,C2,http://www.crtm.es,0,,Europe/Madrid,2
par_8_11596,11596,NAVALESPINO-TIRSO DE MOLINA,Calle   Tirso de Molina 1,40.590030670166,-4.26503229141235,C2,http://www.crtm.es,0,,Europe/Madrid,2
par_8_11825,11825,CTRA.M505-LA PARADILLA,Ctra de Ventolera Finca Cruce Carretera Ávila 38900,40.560718536377,-4.24321889877319,C2,http://www.crtm.es,0,,Europe/Madrid,2
par_8_11826,11826,CTRA.M505-LA PARADILLA,Ctra de Ventolera Finca Cruce Carretera Ávila 38900,40.5603675842285,-4.24317693710327,C2,http://www.crtm.es,0,,Europe/Madrid,2
par_8_12160,12160,TRAFALGAR-EST.STA.MARÍA DE LA ALAMEDA,Avda   Santa María 16,40.569953918457,-4.26773738861084,C2,http://www.crtm.es,0,,Europe/Madrid,2
par_8_17692,17692,ROBLEDONDO-CºREAJOS,Ctra   M-535 (Puerto de la Cruz Verde al Límite) 900,40.572151184082,-4.20380687713623,C2,http://www.crtm.es,0,,Europe/Madrid,2
par_8_17693,17693,ROBLEDONDO-CºREAJOS,Cmno   Hiruela 1,40.5723915100098,-4.20355129241943,C2,http://www.crtm.es,0,,Europe/Madrid,2
par_8_17694,17694,CTRA.M535-NAVASANTERO,Avda   Rey Don Juan Carlos I 47,40.5996131896973,-4.25855922698975,C2,http://www.crtm.es,0,,Europe/Madrid,2
par_8_18227,18227,PEGUERINOS-CRUCE HOYO DEL GUIJA,Ctra   M-535 3,40.6207962036133,-4.24900197982788,SZ,http://www.crtm.es,0,,Europe/Madrid,0
par_8_18238,18238,PEGUERINOS-CRUCE HOYO DE LA GUIJA,Ctra  M-535 3,40.620777130127,-4.24914360046387,SZ,http://www.crtm.es,0,,Europe/Madrid,0
par_8_18251,18251,CTRA.M535-CRUCE LA HOYA,Ctra   Hoya 300,40.5665512084961,-4.20973110198975,C2,http://www.crtm.es,0,,Europe/Madrid,0
par_8_18252,18252,CTRA.M535-CRUCE LA HOYA,Ctra   M-535 (Puerto de la Cruz Verde al Límite) 100,40.5668144226074,-4.20939302444458,C2,http://www.crtm.es,0,,Europe/Madrid,0
par_8_19445,19445,NAVALESPINO-CALDERÓN DE LA BARCA,Calle   Calderón de la Barca 17,40.5892639160156,-4.26486444473267,C2,http://www.crtm.es,0,,Europe/Madrid,0
par_8_99976,99976,PEGUERINOS-PZA.AYUNTAMIENTO,Ctra   M-535 SN,40.6264991760254,-4.23292207717896,SZ,http://www.crtm.es,0,,Europe/Madrid,2
par_8_10264,10264,CTRA.M533-MOLINO,Avda de la Cruz Verde 9,40.5479354858398,-4.17944669723511,C2,http://www.crtm.es,0,,Europe/Madrid,2
par_8_11532,11532,CTRA.M533-PERALEJO,Ctra   M-533 (Zarzalejo) 1100,40.5389099121094,-4.12532520294189,C1,http://www.crtm.es,0,,Europe/Madrid,2
par_8_11533,11533,CTRA.M533-PERALEJO,Ctra   M-533 (Zarzalejo) 1200,40.5392303466797,-4.12564945220947,C1,http://www.crtm.es,0,,Europe/Madrid,2
par_8_12158,12158,CTRA.M533-CASA DE LA CULTURA,Avda de la Estación 63 A,40.5396194458008,-4.16263961791992,C2,http://www.crtm.es,0,,Europe/Madrid,2
par_8_12159,12159,CTRA.M533-CASA DE LA CULTURA,Avda de la Estación 4000,40.5397262573242,-4.16386938095093,C2,http://www.crtm.es,0,,Europe/Madrid,2
par_8_12163,12163,CTRA.M600-URB.PINOSOL,Ctra de M-600 (Valdemorillo) 12500,40.5573120117188,-4.11825132369995,C1,http://www.crtm.es,0,,Europe/Madrid,2
par_8_12164,12164,CTRA.M600-URB.PINOSOL,Ctra de M-600 (Valdemorillo) 12400,40.5573120117188,-4.11797952651978,C1,http://www.crtm.es,0,,Europe/Madrid,2
par_8_12639,12639,CTRA.M533-URB.EL ALCOR,Ctra   M-533 (Zarzalejo) 100,40.5440788269043,-4.11263418197632,C1,http://www.crtm.es,0,,Europe/Madrid,2
par_8_12982,12982,CTRA.M533-URB.EL ALCOR,Ctra   M-533 (Zarzalejo) 1,40.5438270568848,-4.11319732666016,C1,http://www.crtm.es,0,,Europe/Madrid,2
par_8_15598,15598,CTRA.M533-EST.ZARZALEJO,Avda de la Estación 8,40.5397033691406,-4.15892124176025,C2,http://www.crtm.es,0,,Europe/Madrid,2
par_8_15599,15599,CTRA.M533-EST.ZARZALEJO,Avda de la Estación 39,40.5395278930664,-4.15927267074585,C2,http://www.crtm.es,0,,Europe/Madrid,2
par_8_15600,15600,CTRA.M533-PZA.LAS ERAS,Avda de la Estación 102,40.540641784668,-4.16756916046143,C2,http://www.crtm.es,0,,Europe/Madrid,2
par_8_15601,15601,CTRA.M533-PZA.LAS ERAS,Avda de la Estación 99,40.5404281616211,-4.16741228103638,C2,http://www.crtm.es,0,,Europe/Madrid,2
par_8_16299,16299,CTRA.M533-FELIPE PRECIADO,Avda de la Cruz Verde 12,40.5476684570313,-4.17842626571655,C2,http://www.crtm.es,0,,Europe/Madrid,2
par_8_18123,18123,CTRA.M533-PUERTO DE LA CRUZ VERDE,Ctra al M-533 (Puerto de la Cruz Verde) 10300,40.5583801269531,-4.19656753540039,C2,http://www.crtm.es,0,,Europe/Madrid,0
par_8_18208,18208,CTRA.M505-URB.UMBRÍA LOS GALLEGOS,Ctra   M-505 (De Las Rozas de Madrid a Ávila) 40600,40.5584831237793,-4.26139116287231,C2,http://www.crtm.es,0,,Europe/Madrid,0
par_8_18209,18209,CTRA.M505-URB.UMBRÍA LOS GALLEGOS,Ctra   M-505 (De Las Rozas de Madrid a Ávila) 40500,40.5589370727539,-4.26033639907837,C2,http://www.crtm.es,0,,Europe/Madrid,0
par_8_18210,18210,CTRA.M533-PISCINA MUNICIPAL,Avda de la Estación 4800,40.5443534851074,-4.17291259765625,C2,http://www.crtm.es,0,,Europe/Madrid,0
par_8_18211,18211,CTRA.M533-PISCINA MUNICIPAL,Avda de la Estación 4700,40.5433807373047,-4.1721043586731,C2,http://www.crtm.es,0,,Europe/Madrid,0
par_8_18558,18558,CTRA.M533-FLOR,Avda de la Cruz Verde 6800,40.5488471984863,-4.18278121948242,C2,http://www.crtm.es,0,,Europe/Madrid,0
par_8_18560,18560,CTRA.M533-CAÑO NUEVO,Avda de la Cruz Verde 60 A,40.5489349365234,-4.18325519561768,C2,http://www.crtm.es,0,,Europe/Madrid,0
par_8_19085,19085,AV.ALEJANDRO MÁS-AV.NAVALPERAL,Avda de Alejandro Más 2,40.6021194458008,-4.33544254302979,SZ,http://www.crtm.es,0,,Europe/Madrid,0
par_8_19086,19086,GARCÍA DEL REAL-TRVA.SAUCO,Calle de García del Real 16,40.603385925293,-4.33349370956421,SZ,http://www.crtm.es,0,,Europe/Madrid,0
par_8_19087,19087,PZA.DE LA VILLA-AYUNTAMIENTO,Plaza de la Villa 1,40.6039886474609,-4.32810401916504,SZ,http://www.crtm.es,0,,Europe/Madrid,0
par_8_19088,19088,GRACIA-TRES CRUCES,Calle de la Gracia 6,40.6022338867188,-4.33394336700439,SZ,http://www.crtm.es,0,,Europe/Madrid,0
par_8_19089,19089,SAN JUAN-CºMIMBRES,Calle de San Juan 1,40.6028442382813,-4.33100080490112,SZ,http://www.crtm.es,0,,Europe/Madrid,0
par_8_19446,19446,CTRA.M538-LA PARADILLA,Ctra de Ventolera Finca Cruce Carretera Ávila 38900,40.5606689453125,-4.24361991882324,C2,http://www.crtm.es,0,,Europe/Madrid,0
par_8_99926,99926,AV.ANICETO MARINAS-TURISMO,Avda de Anicero Marinas s/n,40.5984764099121,-4.33787536621094,SZ,http://www.crtm.es,0,,Europe/Madrid,2
par_8_99927,99927,AV.ALEJANDRO MÁS-CARTAGENA,Avda de Alejandro Más 24,40.599739074707,-4.33697891235352,SZ,http://www.crtm.es,0,,Europe/Madrid,2
par_8_08798,08798,CTRA.M503-CENTRO EDUC.ESPECIAL,Cmno   Finca Virgen de Lourdes 2,40.4551311770343,-3.87985149102773,B2,http://www.crtm.es,0,,Europe/Madrid,2
par_8_17685,17685,MANUEL FALLA-URG.HOSPITAL PTA.DE HIERRO,Calle   Manuel de Falla 35,40.4516058224865,-3.87429825570177,B2,http://www.crtm.es,0,,Europe/Madrid,2
par_8_17923,17923,J.RODRIGO-HOSPITAL PUERTA DE HIERRO,Calle   Joaquín Rodrigo 1,40.4488069361189,-3.87511102971141,B2,http://www.crtm.es,0,,Europe/Madrid,0
par_8_17925,17925,RUPERTO CHAPÍ-JOAQUIN RODRIGO,Calle   Ruperto Chapí SN,40.4488580337486,-3.86953391122009,B2,http://www.crtm.es,0,,Europe/Madrid,0
par_8_06197,06197,EMPEDRADA-REAL,Calle   Empedrada 4,40.4480857849121,-4.00458908081055,B3,http://www.crtm.es,0,,Europe/Madrid,2
par_8_09859,09859,NAVA-PZA.CRISTO,Calle   Nava 9,40.5011825561523,-4.0693097114563,C1,http://www.crtm.es,0,,Europe/Madrid,2
par_8_09860,09860,SAN JUAN-FÁBRICA HARINAS,Calle   Huertos del Molino 65,40.4994735717773,-4.06296920776367,C1,http://www.crtm.es,0,,Europe/Madrid,2
par_8_09872,09872,CTRA.M600-URB.PUENTELASIERRA,Ctra   Escorial-Brunete (M-600) 23600,40.4896507263184,-4.0484185218811,C1,http://www.crtm.es,0,,Europe/Madrid,2
par_8_09965,09965,EMPEDRADA-REAL,Calle   Empedrada 1,40.4481658935547,-4.00483798980713,B3,http://www.crtm.es,0,,Europe/Madrid,2
par_8_10152,10152,CTRA.M600-URB.LA ESPERANZA,Calle   Sevilla 2,40.5308876037598,-4.09308862686157,C1,http://www.crtm.es,0,,Europe/Madrid,2
par_8_10153,10153,CTRA.M600-URB.LA PIZARRERA,Cmno   Cañada de Valmayor 1,40.5414352416992,-4.10356903076172,C1,http://www.crtm.es,0,,Europe/Madrid,2
par_8_10154,10154,CTRA.M600-URB.EL ALCOR,Ctra   Escorial-Brunete (M-600) 14200,40.5442276000977,-4.11117267608643,C1,http://www.crtm.es,0,,Europe/Madrid,2
par_8_10158,10158,CTRA.M600-URB.EL ALCOR,Ctra de Valdemorillo SN,40.5439910888672,-4.11128664016724,C1,http://www.crtm.es,0,,Europe/Madrid,2
par_8_10159,10159,CTRA.M600-URB.LA PIZARRERA,Ctra   Escorial-Brunete (M-600) 15200,40.5417518615723,-4.10438871383667,C1,http://www.crtm.es,0,,Europe/Madrid,2
par_8_10160,10160,CTRA.M600-URB.LA ESPERANZA,Cmno de La Ermita de Valmayor 1,40.5323371887207,-4.09409189224243,C1,http://www.crtm.es,0,,Europe/Madrid,2
par_8_10161,10161,CTRA.M600-POLIDEPORTIVO LA DEHESA,Ctra   Escorial-Brunete (M-600) 18500,40.5180244445801,-4.0824089050293,C1,http://www.crtm.es,0,,Europe/Madrid,2
par_8_10162,10162,CTRA.M600-POLIDEPORTIVO LA DEHESA,Ctra   Escorial-Brunete (M-600) 18500,40.5181427001953,-4.08216285705566,C1,http://www.crtm.es,0,,Europe/Madrid,2
par_8_11048,11048,AV.UNIVERSIDAD-UNIVERSIDAD,Avda  Universidad 1,40.4502563476563,-3.98398423194885,B3,http://www.crtm.es,0,,Europe/Madrid,2
par_8_11165,11165,CRISTO-AV.GAUDI,Calle   Cristo 29,40.4483337402344,-3.99913311004639,B3,http://www.crtm.es,0,,Europe/Madrid,2
par_8_11166,11166,CRISTO-AV.GAUDI,Calle  Cristo 32,40.4482536315918,-3.99883699417114,B3,http://www.crtm.es,0,,Europe/Madrid,2
par_8_11810,11810,RAMÓN GAMONAL-CENTRO DE SALUD,Calle   Ramón Gamonal 20,40.5007858276367,-4.06632947921753,C1,http://www.crtm.es,0,,Europe/Madrid,2
par_8_12658,12658,REAL-LARRA,Calle   Real 1 B,40.4521102905273,-4.00706672668457,B3,http://www.crtm.es,0,,Europe/Madrid,2
par_8_12659,12659,REAL-LARRA,Calle   Real 1 B,40.4520835876465,-4.00719594955444,B3,http://www.crtm.es,0,,Europe/Madrid,2
par_8_12812,12812,CTRA.M600-URB.MOJADILLAS,Ctra   Escorial-Brunete (M-600) 15800,40.537841796875,-4.10149097442627,C1,http://www.crtm.es,0,,Europe/Madrid,2
par_8_17011,17011,AV.ESPAÑA-PQUE.ACUÁTICO,Avda de España 1,40.4564056396484,-3.99260091781616,B3,http://www.crtm.es,0,,Europe/Madrid,2
par_8_19347,19347,NAVARREDONDA-URB.PUENTELASIERRA,Calle   Navarredonda 2,40.4890975952148,-4.04786729812622,C1,http://www.crtm.es,0,,Europe/Madrid,0
par_8_20645,20645,AV.MADRID-BRASIL,Avda de Madrid 16,40.4476356506348,-3.99419355392456,B3,http://www.crtm.es,0,,Europe/Madrid,0
par_8_20646,20646,AV.MADRID-BRASIL,Avda de Madrid 1,40.4479370117188,-3.9940447807312,B3,http://www.crtm.es,0,,Europe/Madrid,0
par_8_20874,20874,SAN JUAN-FÁBRICA DE HARINAS,Calle   San Juan 75,40.4996299743652,-4.06164979934692,C1,http://www.crtm.es,0,,Europe/Madrid,0
par_8_20875,20875,LA PAZ-CENTRO DE SALUD,Calle   La Paz 53,40.5006484985352,-4.06558418273926,C1,http://www.crtm.es,0,,Europe/Madrid,0
par_8_20876,20876,NAVA-PZA.CRISTO,Calle   Nava 8,40.5013236999512,-4.06937122344971,C1,http://www.crtm.es,0,,Europe/Madrid,0
par_8_09328,09328,CTRA.M532-BIBLIOTECA,Calle del Real 54,40.4872932434082,-4.17104530334473,C2,http://www.crtm.es,0,,Europe/Madrid,2
par_8_12804,12804,CTRA.M532-FUENTELÁMPARAS,Ctra   M-532 (Zarzalejo) 3.250,40.5139312744141,-4.15874862670898,C2,http://www.crtm.es,0,,Europe/Madrid,2
par_8_12805,12805,CTRA.M532-FUENTELÁMPARAS,Ctra   M-532 (Zarzalejo) 3700,40.5132637023926,-4.15873718261719,C2,http://www.crtm.es,0,,Europe/Madrid,2
par_8_12806,12806,CTRA.M532-DEPÓSITOS,Ctra de Zarzalejo 6400,40.4924240112305,-4.1697301864624,C2,http://www.crtm.es,0,,Europe/Madrid,2
par_8_12807,12807,CTRA.M532-DEPÓSITOS,Ctra de Zarzalejo 17,40.4919090270996,-4.169921875,C2,http://www.crtm.es,0,,Europe/Madrid,2
par_8_16589,16589,CTRA.M532-URB.PEÑA ROSAL,Ctra de M-532 (Fresnedillas) 1400,40.5312423706055,-4.15470218658447,C2,http://www.crtm.es,0,,Europe/Madrid,2
par_8_16590,16590,CTRA.M532-URB.PEÑA ROSAL,Ctra   M-532 (Zarzalejo) 1500,40.5310897827148,-4.15466403961182,C2,http://www.crtm.es,0,,Europe/Madrid,2
par_8_20510,20510,CAÑOS-HOYUELAS,Calle de los Caños 1,40.4849433898926,-4.16995429992676,C2,http://www.crtm.es,0,,Europe/Madrid,0
par_8_20511,20511,CAÑOS-HOYUELAS,Calle de los Caños 1,40.4849243164063,-4.17007207870483,C2,http://www.crtm.es,0,,Europe/Madrid,0
par_8_20512,20512,REAL-PZA.CENTENARIO ADRIANA DE LA PEÑA,Calle del Real 47,40.4872932434082,-4.17099809646606,C2,http://www.crtm.es,0,,Europe/Madrid,0
par_8_20513,20513,ADOLFO SUÁREZ-VÍCTIMAS DEL TERRORISMO,Calle de la Fuente la Zorra 13,40.4871788024902,-4.16825866699219,C2,http://www.crtm.es,0,,Europe/Madrid,0
par_8_20514,20514,ADOLFO SUÁREZ-CTRA.DE NAVALAGAMELLA,Calle de la Fuente la Zorra 12,40.4880294799805,-4.1677188873291,C2,http://www.crtm.es,0,,Europe/Madrid,0
par_8_10221,10221,JUAN DE TOLEDO-ESTACIÓN DE AUTOBUSES,Calle   Juan de Toledo 3,40.5918769836426,-4.1439151763916,C1,http://www.crtm.es,0,,Europe/Madrid,2
par_8_10442,10442,EST.EL ESCORIAL,Calle   Estación Renfe 5,40.5851898193359,-4.13250494003296,C1,http://www.crtm.es,0,,Europe/Madrid,2
par_8_15225,15225,AMBOTO-MENDIOLA,Calle   Amboto 14,40.6180152893066,-4.11497163772583,C1,http://www.crtm.es,0,,Europe/Madrid,2
par_8_15302,15302,PABLO PICASSO-LUQUETTO,Calle  Pablo Picasso 1,40.6141319274902,-4.1159234046936,C1,http://www.crtm.es,0,,Europe/Madrid,2
par_8_18472,18472,FCO.DE GOYA-FCO.DE RIBERA,Calle   Francisco de Goya 13,40.6148071289063,-4.11801528930664,C1,http://www.crtm.es,0,,Europe/Madrid,0
par_8_18473,18473,PABLO PICASSO-FCO.DE GOYA,Calle   Pablo Picasso 44,40.6133995056152,-4.12001323699951,C1,http://www.crtm.es,0,,Europe/Madrid,0
par_8_18482,18482,QUINTAMORA-CTRA.ESTACIÓN,Calle   Quinta Mora 28,40.5900764465332,-4.14015054702759,C1,http://www.crtm.es,0,,Europe/Madrid,0
par_8_18483,18483,QUINTAMORA-URB.LOS ESCORIALES,Calle de Quinta Mora 44,40.5915222167969,-4.1370906829834,C1,http://www.crtm.es,0,,Europe/Madrid,0
par_8_18486,18486,QUINTAMORA-URB.LOS ESCORIALES,Calle de Quintamora 39,40.591423034668,-4.13799905776978,C1,http://www.crtm.es,0,,Europe/Madrid,0
par_8_18487,18487,QUINTAMORA-CTRA.ESTACIÓN,Calle   Quinta Mora 2,40.5899467468262,-4.14056205749512,C1,http://www.crtm.es,0,,Europe/Madrid,0
par_8_18488,18488,UDALA-AMBOTO,Calle   Udala 1,40.6198768615723,-4.11528635025024,C1,http://www.crtm.es,0,,Europe/Madrid,0
par_8_18489,18489,UDALA-BARRASQUI,Calle   Udala 10,40.6202163696289,-4.11836576461792,C1,http://www.crtm.es,0,,Europe/Madrid,0
par_8_18490,18490,UDALA-ALOÑA,Calle   Udala 19,40.6213111877441,-4.11870336532593,C1,http://www.crtm.es,0,,Europe/Madrid,0
par_8_18491,18491,UDALA-BARRASQUI,Calle   Udala 10,40.6201286315918,-4.11821031570435,C1,http://www.crtm.es,0,,Europe/Madrid,0
par_8_18492,18492,UDALA-AMBOTO,Calle   Udala 1,40.6197776794434,-4.11532020568848,C1,http://www.crtm.es,0,,Europe/Madrid,0
par_8_15227,15227,MONTE DEL FRAILE-URB.MONTE ESCORIAL,Calle   Monte del Fraile 4,40.6047859191895,-4.12475109100342,C1,http://www.crtm.es,0,,Europe/Madrid,2
par_8_15228,15228,MONTE DEL FRAILE-COLEGIO,Calle   Monte del Fraile 6,40.6038970947266,-4.1264500617981,C1,http://www.crtm.es,0,,Europe/Madrid,2
par_8_15229,15229,MONTE DEL FRAILE-CENTRO COMERCIAL,Calle   Monte del Fraile 8,40.6027641296387,-4.12801504135132,C1,http://www.crtm.es,0,,Europe/Madrid,2
par_8_15230,15230,POZAS-ESCRITORES,Calle las Pozas 128,40.600341796875,-4.13417911529541,C1,http://www.crtm.es,0,,Europe/Madrid,2
par_8_15231,15231,POZAS-URB.ALTOS DE LAS CEBADILLAS,Calle las Pozas 118,40.5989990234375,-4.13696908950806,C1,http://www.crtm.es,0,,Europe/Madrid,2
par_8_15232,15232,POZAS-SANTA RITA,Calle las Pozas 115,40.5977020263672,-4.14070558547974,C1,http://www.crtm.es,0,,Europe/Madrid,2
par_8_15233,15233,POZAS-ALBERGUE JUVENIL,Calle las Pozas 73,40.5958976745605,-4.14448022842407,C1,http://www.crtm.es,0,,Europe/Madrid,2
par_8_15234,15234,POZAS-CAÑADA NUEVA,Calle las Pozas 40,40.5944328308105,-4.14619255065918,C1,http://www.crtm.es,0,,Europe/Madrid,2
par_8_15236,15236,PINAR-CESÁREO PONTÓN,Calle   Pinar 25,40.5954132080078,-4.14983749389648,C1,http://www.crtm.es,0,,Europe/Madrid,2
par_8_15237,15237,AV.CARLOS RUÍZ-PINAR,Avda   Carlos Ruiz 9,40.5928192138672,-4.15266466140747,C1,http://www.crtm.es,0,,Europe/Madrid,2
par_8_15238,15238,ALARCÓN-CENTRO DE SALUD,Calle   Alarcón 9,40.591667175293,-4.14977312088013,C1,http://www.crtm.es,0,,Europe/Madrid,2
par_8_15239,15239,FLORIDABLANCA-AYUNTAMIENTO,Calle   Floridablanca 32,40.5911903381348,-4.14958763122559,C1,http://www.crtm.es,0,,Europe/Madrid,2
par_8_15240,15240,LEANDRO RUBIO-SAN ALBERTO,Calle   Leandro Rubio 8,40.5903091430664,-4.15130996704102,C1,http://www.crtm.es,0,,Europe/Madrid,2
par_8_15241,15241,PZA.SAN ANTONIO ABAD-PºCARLOS III,Plaza  San Antonio Abad 8,40.5880165100098,-4.15176677703857,C1,http://www.crtm.es,0,,Europe/Madrid,2
par_8_15683,15683,LEPANTO-RESIDENCIAL LEPANTO,Calle   Lepanto 46,40.5972518920898,-4.14522409439087,C1,http://www.crtm.es,0,,Europe/Madrid,2
par_8_16031,16031,LEPANTO-RESIDENCIAL LEPANTO,Calle   Lepanto 22,40.5970153808594,-4.14527940750122,C1,http://www.crtm.es,0,,Europe/Madrid,2
par_8_16032,16032,LEPANTO-COOPERATIVA SAN LORENZO,Calle   Lepanto 199,40.5992774963379,-4.14363956451416,C1,http://www.crtm.es,0,,Europe/Madrid,2
par_8_18474,18474,JUAN DE VILLANUEVA-JUAN ESTEBAN,Calle   Juan de Villanueva 4,40.6015167236328,-4.1338677406311,C1,http://www.crtm.es,0,,Europe/Madrid,0
par_8_18475,18475,LUIS CERVERA VERA-JUAN ESTEBAN,Calle   Luis Cervera Vera 1,40.6040420532227,-4.13157033920288,C1,http://www.crtm.es,0,,Europe/Madrid,0
par_8_18476,18476,PºMIGUEL UNAMUNO-NIEVES,Paseo de Miguel de Unamuno 5,40.5949096679688,-4.14702796936035,C1,http://www.crtm.es,0,,Europe/Madrid,0
par_8_18477,18477,PºMIGUEL UNAMUNO-CERBUNAL,Paseo de Miguel de Unamuno 18,40.5959777832031,-4.1466326713562,C1,http://www.crtm.es,0,,Europe/Madrid,0
par_8_18478,18478,PºMIGUEL UNAMUNO-CEMENTERIO,Paseo de Miguel de Unamuno 38,40.5985374450684,-4.14531707763672,C1,http://www.crtm.es,0,,Europe/Madrid,0
par_8_18479,18479,PºMIGUEL UNAMUNO-FRAY LUIS DE LEÓN,Paseo de Miguel de Unamuno 43,40.6005554199219,-4.14276313781738,C1,http://www.crtm.es,0,,Europe/Madrid,0
par_8_18480,18480,PºMIGUEL UNAMUNO-CEBADILLAS,Paseo de Miguel de Unamuno 35,40.5985374450684,-4.14541149139404,C1,http://www.crtm.es,0,,Europe/Madrid,0
par_8_18481,18481,CEBADILLAS-CAÑADA NUEVA,Calle las Cebadillas 1,40.5952224731445,-4.14814424514771,C1,http://www.crtm.es,0,,Europe/Madrid,0
par_8_18556,18556,RESIDENCIA-LEPANTO,Calle   Residencia 6,40.5955848693848,-4.14628314971924,C1,http://www.crtm.es,0,,Europe/Madrid,0
par_8_18774,18774,AV.J.DE BORBÓN Y BATTENBERG-MONASTERIO,Avda   Juan de Borbón y Battenberg 14,40.5901222229004,-4.14941596984863,C1,http://www.crtm.es,0,,Europe/Madrid,0
par_8_18775,18775,LEPANTO-PARQUE,Calle   Lepanto 71,40.5981140136719,-4.14467191696167,C1,http://www.crtm.es,0,,Europe/Madrid,0
par_8_20021,20021,FRAY LUIS DE LEÓN-PºMIGUEL UNAMUNO,Calle   Fray Luis de León 31,40.6003265380859,-4.14398860931396,C1,http://www.crtm.es,0,,Europe/Madrid,0
