id;fechaActualizacion;nombre;email;telefono;web;direccion;codigo_postal;localidad;pais;latitud;longitud;categoria;subcategoria;imagen
105932;2025-01-07;Brach Madrid;booking@brachmadrid.com;+34 915 463 639;https://www.esmadrid.com/alojamientos/brach-madrid;Gran Vía, 20;28004;Madrid;Spain;40.4200581;-3.7000627;Hoteles;5 estrellas;https://estaticos.esmadrid.com/cdn/farfuture/88nc9tEiGVC2nAvqAQ2FWynsDLsDmfe73n7Mw1KUqU8/mtime:1734090596/sites/default/files/recursosturisticos/alojamientos/brach_madrid.png
105834;2025-01-07;El Autor Hotel Madrid, Autograph Collection;;+34 91-7360105;https://www.esmadrid.com/alojamientos/autor-hotel-madrid-autograph-collection;de Zorrilla 19,;28014;Madrid;Spain;40.4169768;-3.6963031;Hoteles;5 estrellas;https://estaticos.esmadrid.com/cdn/farfuture/H5wMFsoyG9-CoHna74xt9sOMBD8fiqq6S6qCmVuh8QM/mtime:1732531025/sites/default/files/recursosturisticos/alojamientos/el_autor_hotel_madrid_autograph_collection.jpg
105680;2024-11-14;"The Loft Hostel Madrid Lavapi&eacute;s";madridlavapies@thelofthostels.com;+ 34 900264222;https://www.esmadrid.com/alojamientos/loft-hostel-madrid-lavapies;de la Esperanza, 4,;28012;Madrid;Spain;40.4100651;-3.7005546;Albergues;;https://estaticos.esmadrid.com/cdn/farfuture/wre4t0MuxSer3IJmxQMiMNTa3u5V0n1JSIvgzkfWfVQ/mtime:1730377679/sites/default/files/recursosturisticos/alojamientos/the_loft_house.png
105300;2024-09-12;"INNSiDE by Meli&aacute; Madrid Valdebebas";Innside.valdebebas@melia.com;+34 91 335 82 48;https://www.esmadrid.com/alojamientos/innside-melia-madrid-valdebebas;de José Antonio Fernández Ordóñez, 55;28055;;Spain;40.4913941;-3.6082354;Hoteles;4 estrellas;https://estaticos.esmadrid.com/cdn/farfuture/UaFnl3CRnRD3iP1YcYegZCdhWMtD4dXdiz5NUzTdLv8/mtime:1725526103/sites/default/files/recursosturisticos/alojamientos/innside_madrid_valdebebas.jpg
105137;2024-09-19;Ibis Madrid Aeropuerto Barajas;H3753@accor.com;(+34) 91 301 09 99;https://www.esmadrid.com/alojamientos/ibis-madrid-aeropuerto-barajas-0;General, 49;28042;;Spain;40.4699429;-3.5806809;Hostales;2 estrellas;https://estaticos.esmadrid.com/cdn/farfuture/uHooBFoPyyDMZ6mlygQ-f6_B3tVo4Ye462HRBWPoZEo/mtime:1722245762/sites/default/files/recursosturisticos/alojamientos/ibis_barajas_2.jpg
104961;2024-07-29;Ibis Styles Madrid Centro Maravillas;h3318@accor.com;+34 911 08 58 00;https://www.esmadrid.com/alojamientos/ibis-styles-madrid-centro-maravillas; Manuela Malasaña ,6;28004;Madrid;Spain;40.428541;-3.7029288;Hoteles;2 estrellas;https://estaticos.esmadrid.com/cdn/farfuture/iaTGbcE0JSE0s4RMkXPXXdtwwVVGj7TDBqiB8LyED3k/mtime:1718956334/sites/default/files/recursosturisticos/alojamientos/ibis_style_centro_maravillas_4.png
104940;2024-09-17;"Casa de las Artes Meli&aacute; Collection";casadelasartes@melia.com;+34 913 30 05 00;https://www.esmadrid.com/alojamientos/casa-artes-melia-collection;de Atocha, 83;28012;Madrid;Spain;40.4119597;-3.6974657;Hoteles;4 estrellas;https://estaticos.esmadrid.com/cdn/farfuture/Jh5IPYx8FCAmyWXJXyDYrsmx7EejjOCajpA0MndE7Qo/mtime:1724921985/sites/default/files/recursosturisticos/alojamientos/casa_de_las_artes_1_0.png
104734;2024-07-29;Exe Convention Plaza Madrid;reservas@execonventionplazamadrid.com ;+34 911 86 49 89;https://www.esmadrid.com/alojamientos/exe-convention-plaza-madrid;Fuencarral a Alcobendas, Km 8, Fuencarral-El Pardo ;28050;Madrid;Spain;40.5146275;-3.6733518;Hoteles;4 estrellas;https://estaticos.esmadrid.com/cdn/farfuture/Q23mfSLlaYlcg053jjhSwMi77JKhOJaY8uHKuNsYU4U/mtime:1716449724/sites/default/files/recursosturisticos/alojamientos/exe_convention_plaza.png
104422;2024-04-22;Hotel Pinar Plaza;reservas@miradordechamartin.com;+34 910 78 66 99;https://www.esmadrid.com/alojamientos/hotel-pinar-plaza;Caleruega, 67;28033;Madrid;Spain;40.4824925;-3.6706515;Hoteles;4 estrellas;https://estaticos.esmadrid.com/cdn/farfuture/LK6iPdMdhedlilwrRH6In_9XG3-vdhjMNy1Pt6H_DX0/mtime:1712836088/sites/default/files/recursosturisticos/alojamientos/hotel_pinar_plaza.png
104063;2024-03-12;Sercotel Convention Plaza Madrid;reservas@sercotel.com;+34 911 86 49 89;https://www.esmadrid.com/alojamientos/sercotel-convention-plaza-madrid;Fuencarral a Alcobendas, Km 8;28050;Madrid;Spain;40.5146275;-3.6733518;Hoteles;4 estrellas;https://estaticos.esmadrid.com/cdn/farfuture/fdYeKjkR1Q2vtpm6b9Ac8BrkGwewGjZCqZYs1ZCxt9s/mtime:1708603841/sites/default/files/recursosturisticos/alojamientos/convention_plaza_madrid_-_9.jpg.png
103671;2023-12-28;Crosstown by Pillow;crosstown@bypillow.com;915 99 69 01;https://www.esmadrid.com/alojamientos/crosstown-pillow;de Jesús y María, 12;28012;Madrid;Spain;40.4114759;-3.704084;Hoteles;3 estrellas;https://estaticos.esmadrid.com/cdn/farfuture/zOYWFt-xi_sM9zE68FUDfF17BxTCDNa8iRkawtOSR1w/mtime:1703247959/sites/default/files/recursosturisticos/alojamientos/crosstown_by_pillow.png
103281;2024-01-09;"Avani Alonso Mart&iacute;nez";alonsomartinez@avani-hotels.com;+34 915940213;https://www.esmadrid.com/alojamientos/avani-alonso-martinez;de Santa Engracia, 5;2810;Madrid;Spain;40.4286632;-3.6962607;Hoteles;4 estrellas;https://estaticos.esmadrid.com/cdn/farfuture/aDQWa2t4_Cth-Y91A9fqs2O5lH-4UpQYaVbBaAvAjpk/mtime:1697789706/sites/default/files/recursosturisticos/alojamientos/avanialonsomartinez.png
103276;2023-10-26;"Soho Boutique &Oacute;pera";sohomadridopera@sohohoteles.com;(+34) 913 83 09 90;https://www.esmadrid.com/alojamientos/soho-boutique-opera;de las Veneras, 2;28013;Madrid;Spain;40.419249;-3.7072663;Hoteles;4 estrellas;https://estaticos.esmadrid.com/cdn/farfuture/8uo8O7v5qjb0Lv9bH6FSq79b5LqZPkdSUag1HETVpyE/mtime:1697716081/sites/default/files/recursosturisticos/alojamientos/sb-opera-fachada-8-640x480-1.png
103274;2023-10-26;Soho Boutique Congreso;sohomadridcongreso@sohohoteles.com;(+34) 917 37 01 11;https://www.esmadrid.com/alojamientos/soho-boutique-congreso;de Zorrilla, 7;28014;Madrid;Spain;40.4169967;-3.6974696;Hoteles;4 estrellas;https://estaticos.esmadrid.com/cdn/farfuture/8qkAY3ozC_TNNa3wuQbkMfCwszXpLSz6wg9ml84WfXw/mtime:1697711573/sites/default/files/recursosturisticos/alojamientos/soho-boutique-congreso-recepcion-10-6400x4300-1.png
102466;2023-06-23;Catalonia El Retiro;elretiro@cataloniahotels.com ;+34 914 34 11 20;https://www.esmadrid.com/alojamientos/catalonia-retiro;de la Ciudad de Barcelona, 113;28007;;Spain;40.3991047;-3.6699694;Hoteles;4 estrellas;https://estaticos.esmadrid.com/cdn/farfuture/bseqhVirs1a2i2qIkoUgjoVOwKu9_nADdOt7XZ8JfZk/mtime:1686227042/sites/default/files/recursosturisticos/alojamientos/cataloniaelretiro_hab-doble-1_0.png
102465;2023-06-23;La Troupe Prado;helloprado@latroupe.com;+34 688 65 43 41;https://www.esmadrid.com/alojamientos/troupe-prado;de Méndez Álvaro, 2;28045;Madrid;Spain;40.4069994;-3.6929088;Albergues;;https://estaticos.esmadrid.com/cdn/farfuture/qcimf8CDLqfZ5Tqp12FxWt_esz-VfTQ9rRtTFgn9Tbc/mtime:1686221480/sites/default/files/recursosturisticos/alojamientos/la_troupe_prado.png
102125;2024-11-25;Hotel Montera Madrid, Curio Collection by Hilton;info@hotelmonteramadrid.com;+34 915 21 29 35;https://www.esmadrid.com/alojamientos/hotel-montera-madrid-curio-collection-hilton;Montera, 47;28013;Madrid;Spain;40.419738;-3.7018893;Hoteles;5 estrellas;https://estaticos.esmadrid.com/cdn/farfuture/Th180zenA8uY0bVYb41PiA49h7e71imhI3h6UYhaG0E/mtime:1682600892/sites/default/files/recursosturisticos/alojamientos/hotel_montera_curio_collection_12.png
101557;2024-11-25;JW Marriott Madrid;;+34 914 18 97 70;https://www.esmadrid.com/alojamientos/jw-marriott-madrid;Sevilla, 2;28014;Madrid;Spain;40.4168018;-3.700126;Hoteles;5 estrellas;https://estaticos.esmadrid.com/cdn/farfuture/LrTXQnh7o4raOVZ0Cwwnhzq55utfbg_lHZi4Ae2tnVY/mtime:1676033730/sites/default/files/recursosturisticos/alojamientos/jw_marriott_madrid_1.png
100999;2024-11-25;UMusic Hotel Madrid;Socialmedia@umusic-hotels.com;+34 911 231 099;https://www.esmadrid.com/alojamientos/umusic-hotel-madrid;La Paz, 11,;28012;Madrid;Spain;40.4153449;-3.7041017;Hoteles;5 estrellas;https://estaticos.esmadrid.com/cdn/farfuture/7isEF2rLFmf3El9tFfkcHe11ke5j64dWCWw1JW1eXck/mtime:1695627040/sites/default/files/recursosturisticos/alojamientos/umusic_albeniz_3.jpg
100952;2024-06-21;Radisson RED Madrid;info.madrid@radissonred.com;+34 912 98 48 00;https://www.esmadrid.com/alojamientos/radisson-red-madrid;de Atocha,  123;28012;Madrid;Spain;40.4100382;-3.6937437;Hoteles;4 estrellas;https://estaticos.esmadrid.com/cdn/farfuture/cRBRUTXjIw5pZQwQD74FSycBW1h4P7JwbP5iofDyyck/mtime:1666782411/sites/default/files/recursosturisticos/alojamientos/radisson_red_9.jpg
100602;2024-04-29;Akeah;reservas@akeah.com;+34 919 994 177;https://www.esmadrid.com/alojamientos/akeah;San Bernardo, 48 ;28015;Madrid;Spain;40.4248841;-3.7073275;Hoteles;4 estrellas;https://estaticos.esmadrid.com/cdn/farfuture/C7tEXCe1DgSy_aFRXfigeOWo4KtXvCEihze1tzngdxE/mtime:1661938220/sites/default/files/recursosturisticos/alojamientos/hotel_akeah.png
100590;2024-11-25;Thompson Madrid;thompsonmadrid@thompsonhotels.com;+34 910 62 12 34;https://www.esmadrid.com/alojamientos/thompson-madrid;del Carmen, s/n. ;28013;Madrid;Spain;40.41858;-3.7034151;Hoteles;5 estrellas Gran Lujo;https://estaticos.esmadrid.com/cdn/farfuture/G2hV6B2LGJrkpq3g5H7LairmokB_I_uUBcSf1GNU7C0/mtime:1664188577/sites/default/files/recursosturisticos/alojamientos/thompson-madrid-king-suite-city-view-two.jpg
99267;2024-01-25;Zleep Hotel Madrid Airport;reservations@zleep-madrid.com;;https://www.esmadrid.com/alojamientos/zleep-hotel-madrid-airport;de Aragón, 402;28022;Madrid;Spain;40.4477153;-3.5488606;Hoteles;2 estrellas;https://estaticos.esmadrid.com/cdn/farfuture/FrITt09NtVzE5_6byU5T9FemWSGU9UCEfUqL6yGWkis/mtime:1646996393/sites/default/files/recursosturisticos/alojamientos/zleep_hotel_madrid_airport.jpg
98931;2023-02-07;Ocean Drive Madrid;odmadrid@od-hotels.com;(+34) 97 139 1214;https://www.esmadrid.com/alojamientos/ocean-drive-madrid;de Isabel II, 7;28013;Madrid;Spain;40.4183043;-3.7088071;Hoteles;4 estrellas;https://estaticos.esmadrid.com/cdn/farfuture/NeE0Sn20kLH5bUNx0mDYp99LJXAYM7xnD0UdLAI0hOM/mtime:1643715602/sites/default/files/recursosturisticos/alojamientos/ocean_drive_madrid_1_0.jpg
98185;2024-12-17;The Madrid Edition;;(+34) 919 54 54 20;https://www.esmadrid.com/alojamientos/madrid-edition;de las Descalzas, s/n;28013;Madrid;Spain;40.4182739;-3.7064681;Hoteles;5 estrellas Gran Lujo;https://estaticos.esmadrid.com/cdn/farfuture/5l4oAIlwbJET3BWfq3bfU1RCezTaYvn8bRVau-IOiCQ/mtime:1656927667/sites/default/files/recursosturisticos/alojamientos/pool_deck_sunbeds_the_madrid_edition.jpg
97833;2024-03-22;Oxygen Hostel;oxygenmadrid19@gmail.com;+34 686 81 12 61;https://www.esmadrid.com/alojamientos/oxygen-hostel;Rafael Riego, 19;28045;Madrid;Spain;40.4035288;-3.6920844;Hostales;;https://estaticos.esmadrid.com/cdn/farfuture/C0clIalss8FYwxW50bTpY3fcJ-OCSmGHaj-5iQrLstA/mtime:1711112892/sites/default/files/recursosturisticos/alojamientos/oxigen_hostel_2.png
97799;2024-03-21;Canopy by Hilton Madrid Castellana ;info@canopymadrid.com;+34 911 44 04 45;https://www.esmadrid.com/alojamientos/canopy-hilton-madrid-castellana;Carlos Trías Bertrán, 4;28020;Madrid;Spain;40.4513816;-3.6935854;Hoteles;4 estrellas;https://estaticos.esmadrid.com/cdn/farfuture/7WwR-wXMnTXtU2ggAsSbSQBmNNK9ynA75OX2YnOMwX8/mtime:1711026072/sites/default/files/recursosturisticos/alojamientos/canopy_by_hilton_11.png
97373;2024-03-07;Atocha Hotel Madrid, Tapestry Collection by Hilton;tapestryatocha@hilton.com;+34 610 44 01 15;https://www.esmadrid.com/alojamientos/atocha-hotel-madrid-tapestry-collection-hilton;Atocha, 107;28012;Madrid;Spain;40.4106059;-3.6953011;Hoteles;4 estrellas;https://estaticos.esmadrid.com/cdn/farfuture/gSSjVsG_H34s5fj9E0JfxCfI3OZ0M178c9-XnmpeMUs/mtime:1709821776/sites/default/files/recursosturisticos/alojamientos/atocha_hotel_madrid_tapestry_collection_by_hilton_2.png
97242;2024-05-07;Hard Rock Hotel Madrid;reservations@hrhmadrid.com;;https://www.esmadrid.com/alojamientos/hard-rock-hotel-madrid;Ronda de Atocha, 17;28012;Madrid;Spain;40.4065219;-3.6955275;Hoteles;4 estrellas;https://estaticos.esmadrid.com/cdn/farfuture/Hy_hYedD7yfJX6mx_81wRxWEYNu0FrOAIgDmxhiDaTc/mtime:1656416927/sites/default/files/recursosturisticos/alojamientos/piscina_hardrockhotel.jpg
97202;2024-04-11;Hotel Novotel Madrid City Las Ventas ;H0843@ACCOR.COM;(+34)91 724 76 00;https://www.esmadrid.com/alojamientos/hotel-novotel-madrid-city-ventas;Albacete, 1, Esquina Avenida de Badajoz;28027;Madrid;Spain;40.4413089;-3.6575597;Hoteles;4 estrellas;https://estaticos.esmadrid.com/cdn/farfuture/QUTriUZyb42Q3gI84nEc1c4FiwN4v2oXYeg0GKuuozs/mtime:1633430137/sites/default/files/recursosturisticos/alojamientos/5978-78.jpg
97116;2023-10-17;"Pestana CR7 Gran V&iacute;a Madrid";guest@pestana.com;917 71 02 40;https://www.esmadrid.com/alojamientos/pestana-cr7-gran-madrid;Gran Vía, 29 ;28013;Madrid;Spain;40.4199556;-3.7032848;Hoteles;4 estrellas;https://estaticos.esmadrid.com/cdn/farfuture/extRLMXgrJ7SAgVSdDzC1yfGxTpCy7oKrXXay3qaa3I/mtime:1622712394/sites/default/files/recursosturisticos/alojamientos/grand-via-madrid-hotel_0.jpg
95433;2024-05-06;Four Seasons Hotel Madrid;;(+ 34) 910 88 33 33;https://www.esmadrid.com/alojamientos/four-seasons-hotel-madrid; de Sevilla, 3, ;28014;Madrid;Spain;40.4170089;-3.700388;Hoteles;5 estrellas Gran Lujo;https://estaticos.esmadrid.com/cdn/farfuture/x1KXT23qzU-m7v3Qwh0hkj1cc8_I-FxNdWwhEgK1RDQ/mtime:1671197783/sites/default/files/recursosturisticos/alojamientos/canalejas.jpg
94628;2023-07-03;Hotel Las Gacelas;reservas@hotel-lasgacelas.com;(34) 918 538 000;https://www.esmadrid.com/alojamientos/hotel-gacelas;de San Sebastián, 53;28490;Becerril de la Sierra;Spain;40.7109995;-3.994158;Hoteles;3 estrellas;https://estaticos.esmadrid.com/cdn/farfuture/jBBCuMVg8T4xZH0-CUkcxgp4eQhi3wNtEHXCfOJTq5A/mtime:1587572060/sites/default/files/recursosturisticos/alojamientos/las_gacelas.jpg
94627;2023-07-03;Apartamentos Plaza de Santiago;reservas@apartamentosplazadesantiago.com;(+34) 91 691 55 00;https://www.esmadrid.com/alojamientos/apartamentos-plaza-santiago;de Santiago, 3;28320;;Spain;40.2455186;-3.7004174;Apartahoteles;;https://estaticos.esmadrid.com/cdn/farfuture/DlToZp5fVkXkQZpJ7--LQp0tVCt4j-mETwLgfjDJljY/mtime:1587572020/sites/default/files/recursosturisticos/alojamientos/apartamentos_plaza_santiago.jpg
94626;2023-07-03;Apartahotel TH Las Rozas;reservas@thlasrozashotel.com;(34) 916 37 09 00;https://www.esmadrid.com/alojamientos/apartahotel-th-rozas;Camino Viejo de Madrid, 38;28230;Las Rozas;Spain;40.4841211;-3.8566628;Apartahoteles;3 llaves;https://estaticos.esmadrid.com/cdn/farfuture/8lEXwheLkVGm9N9K3fA3e8QNAMStROw9jox_4st0hJ0/mtime:1587569809/sites/default/files/recursosturisticos/alojamientos/th_las_rozas_2.png
94625;2020-04-23;Apartamentos Suites Florida;info@apartamentossuitesflorida.es;(34) 91 748 20 21 ;https://www.esmadrid.com/alojamientos/apartamentos-suites-florida;Campezo, 2. Pol. Ind. Las Mercedes ;28022;Madrid;Spain;40.4490623;-3.5826533;;;https://estaticos.esmadrid.com/cdn/farfuture/TNImZrfTbiAPkauxF4zp-avfsjBee99gwzMYZKfA0HA/mtime:1587566834/sites/default/files/recursosturisticos/alojamientos/apartamentos_suites_florida.png
94624;2020-04-23;Apartamentos Suites Aeropuerto;info@apartamentossuitesaeropuerto.es;(34) 917 48 067;https://www.esmadrid.com/alojamientos/apartamentos-suites-aeropuerto;Campezo, 8. Pol. Ind. Las Mercedes ;28022;Madrid;Spain;40.446415;-3.5834443;;;https://estaticos.esmadrid.com/cdn/farfuture/9VsImq7cmYPJpgj2fHCWxh-76VxJkcQgFnUVZF9pvu8/mtime:1587564858/sites/default/files/recursosturisticos/alojamientos/apartamentos_suites_aeropuerto_2_0.png
94622;2023-06-01;"Madrid Airport Suites Affiliated by Meli&aacute;";madrid.airport.suites@melia.com;(34) 913 29 70 50;https://www.esmadrid.com/alojamientos/madrid-airport-suites-affiliated-melia;Lola Flores, 4 - 17;28022;Madrid;Spain;40.4455692;-3.5436074;Apartahoteles;2 llaves;https://estaticos.esmadrid.com/cdn/farfuture/tIOElc6M8nzgxPCYHk9ieSVrdo3ANvWuPsdH8tuVGaQ/mtime:1587560911/sites/default/files/recursosturisticos/alojamientos/tryp3.png
94085;2023-07-03; Room Mate Macarena;macarena@room-matehotels.com.;(+34) 900 818 320;https://www.esmadrid.com/alojamientos/room-mate-macarena;Gran Vía, 43 ;28013;Madrid;Spain;40.420589;-3.706897;Hoteles;4 estrellas;https://estaticos.esmadrid.com/cdn/farfuture/RWfWMB2BCyJ6PSv0Lq1cuPtY6MuOWGiGjRaW4423s4o/mtime:1688383885/sites/default/files/recursosturisticos/alojamientos/macarena_room_mate_01.png
92607;2024-04-29;"Hotel Riu Plaza Espa&ntilde;a";reservations.madrid@riu.com;(+34) 91 919 33 93;https://www.esmadrid.com/alojamientos/hotel-riu-plaza-espana;Gran Vía, 84;28013;;Spain;40.423924002208;-3.711015474118;Hoteles;4 estrellas;https://estaticos.esmadrid.com/cdn/farfuture/13V9TDPlyRGLL_coK6S8i3CwHKQZWsN98ccsXFdTjpA/mtime:1566559596/sites/default/files/editorial/360_hotelriuplazaespana.jpg
91946;2023-06-27;"room007 Gran V&iacute;a Hostels ";granvia@room007.com;(+34) 91 005 29 79;https://www.esmadrid.com/alojamientos/room007-gran-hostels;Gran Vía, 6;28013;;Spain;40.4195167;-3.6978802;Albergues;;https://estaticos.esmadrid.com/cdn/farfuture/bdezTRWlFwQXLBzBiUGH0ObLOaz0FAP-1L0skqsON3c/mtime:1687864476/sites/default/files/recursosturisticos/alojamientos/blueshock_gran_via.png
91932;2024-03-05;"Aloft Gran V&iacute;a Madrid";;(+34) 91 454 95 95;https://www.esmadrid.com/alojamientos/aloft-gran-madrid;de Jacometrezo, 4;28013;;Spain;40.4203078;-3.7071387;Hoteles;4 estrellas;https://estaticos.esmadrid.com/cdn/farfuture/ommpuZRGEES323FcaB4EEEFherJd9OIDqc-kImjez5o/mtime:1558954086/sites/default/files/recursosturisticos/alojamientos/aloft_2.jpeg
91856;2024-05-31;Pestana Plaza Mayor;reservas.plazamayor@pestana.com;(+34) 91 005 28 22;https://www.esmadrid.com/alojamientos/pestana-plaza-mayor;Imperial, 8;28012;;Spain;40.4147668;-3.7070536;Hoteles;4 estrellas;https://estaticos.esmadrid.com/cdn/farfuture/KMPCSFVrel_YaPZylwrXKM83lCyYrrogP89-OZIEyIE/mtime:1709301312/sites/default/files/recursosturisticos/alojamientos/pmayor-rooftop-6.png
90190;2024-08-14;"B&amp;B Hotel Madrid Centro Puerta del Sol";hotel.puertadelsol@hotelbb.com;(+34) 914 890 591;https://www.esmadrid.com/alojamientos/bb-hotel-madrid-centro-puerta-sol;de la Montera, 10 - 12;28013;;Spain;40.4175643;-3.7025579;Hoteles;3 estrellas;https://estaticos.esmadrid.com/cdn/farfuture/rKoh8FhksEMj73RHZdTeOF3_L24m35_GMokwClYnQKE/mtime:1542794439/sites/default/files/recursosturisticos/alojamientos/bb_hotel_madrid_centro_puerta_del_sol.jpg
89775;2024-05-06;CoolRooms Palacio de Atocha;reservations.atocha@coolrooms.com;(+34) 91 088 77 80;https://www.esmadrid.com/alojamientos/coolrooms-atocha;de Atocha, 34;28012;;Spain;40.4132142;-3.7010951;Hoteles;4 estrellas;https://estaticos.esmadrid.com/cdn/farfuture/RqFz6GTnJoESp1lacJTJW9a_IhO684H5o9ZN3p9dKRo/mtime:1714473181/sites/default/files/recursosturisticos/alojamientos/cool_rooms_palacio_de_atocha.png
89653;2024-01-15;Heritage Madrid Hotel;info@heritagemadridhotel.com;(+34) 910 887 070;https://www.esmadrid.com/alojamientos/heritage-madrid-hotel;de Diego de León, 43;28006;;Spain;40.434877;-3.6789438;Hoteles;5 estrellas;https://estaticos.esmadrid.com/cdn/farfuture/Z6hFj4sFc1sjJUZcVs-McbSOeT8JXNUeWvoKukrIfac/mtime:1539084114/sites/default/files/recursosturisticos/alojamientos/heritage.jpg
89532;2024-10-03;Generator Hostel Madrid;ask.madrid@generatorhostels.com;(+34) 91 047 98 00;https://www.esmadrid.com/alojamientos/generator-hostel-madrid;de San Bernardo, 2;28013;;Spain;40.4207987;-3.7081019;Hostales;1 estrella;https://estaticos.esmadrid.com/cdn/farfuture/rREN6f_BBUt7I4dfuVDnjg_w0GxRq7qgyEmeRPGRWjc/mtime:1673962873/sites/default/files/recursosturisticos/alojamientos/generator_1.png
89204;2024-10-03;Icon Casona 1900;hellocasona1900@iconhotels.com;(+34) 91 156 71 71;https://www.esmadrid.com/alojamientos/icon-casona-1900;de Don Ramón de la Cruz, 10;28001;;Spain;40.429130941737;-3.685861538827;Hoteles;4 estrellas;https://estaticos.esmadrid.com/cdn/farfuture/N9c-gPzPWVtWv0Zh1LvSOgxTrBRa5LZ0fmIBM0qw0Ag/mtime:1673966381/sites/default/files/recursosturisticos/alojamientos/icon-casona-1900-1.png
87984;2024-08-12;Poshtel LaNave;reservas@lanavehostel.com;(+34) 911 376 329;https://www.esmadrid.com/alojamientos/poshtel-lanave;de Cadarso, 19;28008;;Spain;40.4219147;-3.7153576;Hostales;2 estrellas;https://estaticos.esmadrid.com/cdn/farfuture/_a7A_oslwmtQVAbsQEcKtWUo3hwwIPn-afVeqSyu884/mtime:1524832470/sites/default/files/recursosturisticos/alojamientos/phostel_lanave.jpg
87832;2024-01-16;"NH Collection Madrid Gran V&iacute;a"; nhcollectiongranvia@nh-hotels.com;(+34) 91 712 83 05;https://www.esmadrid.com/alojamientos/nh-collection-madrid-gran;Gran Vía, 21;28013;;Spain;40.4198131;-3.7012777;Hoteles;4 estrellas;https://estaticos.esmadrid.com/cdn/farfuture/ttLGo9SGdcQuVgsxVUhrUU_dTgvI-OrqU3QOZtyp0wI/mtime:1705407931/sites/default/files/recursosturisticos/alojamientos/nh_collection_gran_via_room.jpg
87809;2024-02-22;"Barcel&oacute; Imagine";imagine@barcelo.com;(+34) 91 732 70 19;https://www.esmadrid.com/alojamientos/barcelo-imagine;de Agustín de Foxá, 32;28036;;Spain;40.470196157478;-3.68523851037;Hoteles;5 estrellas;https://estaticos.esmadrid.com/cdn/farfuture/iZX0jc5cR4FkA2VETZLUh1fIqjW-nEodtlzTkiQR8_g/mtime:1708607378/sites/default/files/recursosturisticos/alojamientos/barcelo_imagine_5.png
87788;2023-07-07;"Plaza Espa&ntilde;a Skyline";recepcion@peskyline.com;(+34) 919198582;https://www.esmadrid.com/alojamientos/plaza-espana-skyline;de Cadarso, 18;28008;;Spain;40.4224687;-3.715398;Apartahoteles;;https://estaticos.esmadrid.com/cdn/farfuture/Gc_C_TDQVGWp1mVzKVQuXdFuTYBQiq4zgzg2cNJCVg8/mtime:1637833669/sites/default/files/recursosturisticos/alojamientos/plaza_de_espana_skylline_11.jpeg
87606;2024-05-06;"Gran Hotel Ingl&eacute;s";welcome@granhotelingles.com;(+34) 91 360 00 01;https://www.esmadrid.com/alojamientos/gran-hotel-ingles;Echegaray, 8;28014;;Spain;40.4159625;-3.699661;Hoteles;5 estrellas Gran Lujo;https://estaticos.esmadrid.com/cdn/farfuture/VpTitEiFRvpjJU_8Cq2_KVomEkAx2lb_Grfw3wUgSBg/mtime:1642680640/sites/default/files/recursosturisticos/alojamientos/gran_hotel_ingles_room_1_high.jpg
87565;2024-02-29;"VP Plaza Espa&ntilde;a Design";vp-plaza@vphoteles.com;(+34) 91 595 55 10 ;https://www.esmadrid.com/alojamientos/vp-plaza-espana-design;de España, 5;28008;;Spain;40.422704185855;-3.711751553711;Hoteles;5 estrellas;https://estaticos.esmadrid.com/cdn/farfuture/tUMd7amRRtCq3kJjhwVQwOvwSoqNP6JR5ZNhlIOE8ZQ/mtime:1619172283/sites/default/files/recursosturisticos/alojamientos/the_waterfall.jpg
87277;2024-08-12;Vitium Urban Suites;info@vitium.es;(+34) 911 164 144;https://www.esmadrid.com/alojamientos/vitium-urban-suites;Gran Vía, 61, 5ª;28013;;Spain;40.4224173;-3.7096428;Hostales;3 estrellas;https://estaticos.esmadrid.com/cdn/farfuture/n6lZO-H-EEE5D2dI8TfXCT5I2Bwk3OQUOUoFIihRsOo/mtime:1723457356/sites/default/files/recursosturisticos/alojamientos/hostal-vitium-17.png
86954;2024-08-12;Bungalows Camping Alpha Madrid;info@campingalpha.com;(+34) 916958069;https://www.esmadrid.com/alojamientos/bungalows-camping-alpha-madrid;de la Calidad N.º 1;28906;Getafe;Spain;40.317133566771;-3.688960075378;Camping;;https://estaticos.esmadrid.com/cdn/farfuture/up3L10cv5AG7oiefvhltyAvV_fH1Z7sBS2vO0nEXtkg/mtime:1524832470/sites/default/files/recursosturisticos/alojamientos/camping_alpha_2.jpg
86753;2024-11-25;"Hyatt Centric Gran V&iacute;a Madrid";info.centricmadrid@hyatt.com;(+34) 918 37 12 34;https://www.esmadrid.com/alojamientos/hyatt-centric-gran-madrid;Gran Vía, 31;28013;;Spain;40.4199886;-3.7037561;Hoteles;5 estrellas;https://estaticos.esmadrid.com/cdn/farfuture/ofAMamzKmFHrZGlCDlpV9Mr0d4XJs4fzSSGOlaJEOjA/mtime:1653987782/sites/default/files/recursosturisticos/alojamientos/hyatt-centric-gran-via-madrid-p003-facane-entrance.16x9.jpg
86464;2017-12-20;La Casa de los Horrores; info@casadeloshorrores.com;(+34) 91 891 59 23;https://www.esmadrid.com/alojamientos/casa-horrores;de Villamejor;28300;Aranjuez;Spain;39.93872304833;-3.786463737488;;;https://estaticos.esmadrid.com/cdn/farfuture/egB6UuDO4Ts7mDqGT2eOHUP3lnCw6irUoC-fNydUgxA/mtime:1524832518/sites/default/files/recursosturisticos/restaurantes/la_casa_de_los_horrores.jpeg
85114;2024-04-05;Axel Hotel Madrid;madrid@axelhotels.com;+ 34 910 88 33 80;https://www.esmadrid.com/alojamientos/axel-hotel-madrid;Atocha, 49;28012;;Spain;40.413361264672;-3.700584769249;Hoteles;4 estrellas;https://estaticos.esmadrid.com/cdn/farfuture/YNIQg57dlPYCXjJ8psL4l3OSPoP5DcClAtXIKYhbQTw/mtime:1712237463/sites/default/files/recursosturisticos/alojamientos/hotel_axel_3.png
84730;2024-06-13;"Hotel C&iacute;rculo Gran V&iacute;a, Autograph Collection";circulogranvia@circulogranvia.com;+ 34 91 521 03 00;https://www.esmadrid.com/alojamientos/hotel-circulo-gran-autograph-collection;Gran Vía, 24;28013;;Spain;40.4201097;-3.7008322;Hoteles;4 estrellas;https://estaticos.esmadrid.com/cdn/farfuture/vxqRkoH-yyE4BDfe-Q3-Qm_2dFByUQn7JT-ae30Xmo0/mtime:1718267062/sites/default/files/recursosturisticos/alojamientos/madkv-standard-8551-hor-wide.png
82787;2023-08-30;"Barcel&oacute; Torre de Madrid";torredemadrid@barcelo.com;(+34) 91 524 23 99;https://www.esmadrid.com/alojamientos/barcelo-torre-madrid;de España, 18;28008;;Spain;40.4243696;-3.7123262;Hoteles;5 estrellas;https://estaticos.esmadrid.com/cdn/farfuture/aGF61-HxaT5qGcAb82-ROz3-hETxV2ky2DnsZPje9GY/mtime:1524832473/sites/default/files/recursosturisticos/alojamientos/barcelo-torre.jpg
82675;2024-03-01;Ibis Madrid Centro Las Ventas;h7438@accor.com;(+34 )91 080 37 10;https://www.esmadrid.com/alojamientos/ibis-madrid-centro-ventas;Julio Camba, 1;28028;;Spain;40.43061563739;-3.664230108261;Hoteles;2 estrellas;https://estaticos.esmadrid.com/cdn/farfuture/vATQxVmhaA0hngMfBIcfAiddVGcfAHxAJiR1Er1RuN4/mtime:1524832475/sites/default/files/recursosturisticos/alojamientos/ventas.jpg
82647;2024-08-14;The Walt Madrid;info@thewaltmadrid.es;(+34) 91 531 71 11;https://www.esmadrid.com/alojamientos/walt-madrid;del Barco, 3;28004;;Spain;40.421159972462;-3.702924996615;Hostales;3 estrellas;https://estaticos.esmadrid.com/cdn/farfuture/WOD30_q1lf5pK-v4nds5tXtOyfA1sdE2hNVwDATMrRM/mtime:1530087094/sites/default/files/recursosturisticos/alojamientos/_dsc6329.jpg
80541;2024-04-17;DoubleTree by Hilton Madrid - Prado;madridprado@hilton.com ;(+34) 91 360 08 20;https://www.esmadrid.com/alojamientos/doubletree-hilton-madrid-prado;San Agustín, 3;28014;;Spain;40.4151702;-3.6967946;Hoteles;4 estrellas;https://estaticos.esmadrid.com/cdn/farfuture/4aCBI24SpZkHkIiSLlI6gPFfgoxZMr0OSoF2VvmNKzU/mtime:1713351142/sites/default/files/recursosturisticos/alojamientos/doubletree_by_hilton_5.jpg
79522;2024-03-13;"T&oacute;tem Madrid";info@totem-madrid.com;(+34) 91 426 00 35;https://www.esmadrid.com/alojamientos/totem-madrid;Hermosilla, 23;28001;Madrid;Spain;40.426438239124;-3.685430288315;Hoteles;4 estrellas;https://estaticos.esmadrid.com/cdn/farfuture/aQ1qA2mBocqtif8CLmOz9n6rUEDYc4rSVaubDq15GSI/mtime:1709198963/sites/default/files/recursosturisticos/alojamientos/totem-juniorsuiteatico.png
78018;2024-08-12;Vincci The Mint;themint@vinccihoteles.com;(+34) 91 203 06 50;https://www.esmadrid.com/alojamientos/vincci-mint;Gran Vía, 10;28013;;Spain;40.4195785;-3.6985626;Hoteles;4 estrellas;https://estaticos.esmadrid.com/cdn/farfuture/bxt89ZwGs9AWqgqyqV6Duep7yKLy0usuO9IJO31QEyk/mtime:1524832476/sites/default/files/recursosturisticos/alojamientos/mint3.jpg
77420;2024-05-06;Only You Hotel Atocha;atocha@onlyyouhotels.com;+34 914 09 78 76;https://www.esmadrid.com/alojamientos/only-you-hotel-atocha;de la Infanta Isabel, 13;28014;;Spain;40.40729;-3.68812;Hoteles;4 estrellas;https://estaticos.esmadrid.com/cdn/farfuture/vtvoUmxYyxCkh2koE-wH6SemczH5A6_jllR_3VFSUJc/mtime:1669375507/sites/default/files/recursosturisticos/alojamientos/img-05-oy-atocha-lobby539.jpg
76684;2024-09-05;Eurostars Central;reservas@eurostarscentral.com;(+34) 91 396 71 80;https://www.esmadrid.com/alojamientos/eurostars-central;Mejia Lequerica, 10;28004;;Spain;40.4270735;-3.6985333;Hoteles;4 estrellas;https://estaticos.esmadrid.com/cdn/farfuture/SuUrmceLc_3yub1wTIMcv0ooYcxksJpWnVtx5CRdUPU/mtime:1720437683/sites/default/files/recursosturisticos/alojamientos/eurostar_central_4.png
76363;2024-09-05;Novotel Madrid Center;info@novotelmadridcenter.com;(+34) 91 221 40 60;https://www.esmadrid.com/alojamientos/novotel-madrid-center;O´Donnell, 53;28009;;Spain;40.422072723627;-3.672437667847;Hoteles;4 estrellas;https://estaticos.esmadrid.com/cdn/farfuture/zWp0L6HlW9lHtKJsNZbLkdoaNV64cHJXXe-Z1o5JxCU/mtime:1669379952/sites/default/files/recursosturisticos/alojamientos/novotel_1.png
74876;2024-04-23;Dear Hotel;reservas@dearhotel.com;(+34) 91 412 32 00;https://www.esmadrid.com/alojamientos/dear-hotel;Gran Vía, 80;28013;;Spain;40.423357088519;-3.710468709469;Hoteles;4 estrellas;https://estaticos.esmadrid.com/cdn/farfuture/lp4kJJVpKWXh5eVS1xp0nZzm9rCh8op-aOIDXaETuJ8/mtime:1713879597/sites/default/files/recursosturisticos/alojamientos/dear_hotel.png
67867;2024-07-08;Castilla II;info@hostalcastilla.com;(+34) 91 532 57 38;https://www.esmadrid.com/alojamientos/castilla-ii;Marqués Viudo de Pontejos, 2;28012;;Spain;40.415797564532;-3.704983592033;Hostales;2 estrellas;https://estaticos.esmadrid.com/cdn/farfuture/W0U2Rl4d-q5V7W4Y5XU8Cml1GY46ygEIILB8Q8jmLFc/mtime:1669382545/sites/default/files/recursosturisticos/alojamientos/2018_hostal-castilla_-30.jpg
67866;2024-07-08;DormirDcine;info@dormirdcine.com;(+34) 91 411 08 09;https://www.esmadrid.com/alojamientos/dormirdcine;Príncipe de Vergara, 87;28006;;Spain;40.4363201;-3.6793719;Hoteles;4 estrellas;https://estaticos.esmadrid.com/cdn/farfuture/KP0TrPOd2dn9MueAvG5mS3Jn5kpB1hsKu-NmJ_laq68/mtime:1669384149/sites/default/files/recursosturisticos/alojamientos/4955.jpg-c98e7b2f73b1efae723e4e0b852ad370.jpg
67864;2022-12-05;The Hat;info@thehatmadrid.com;(+34) 91 772 85 72;https://www.esmadrid.com/alojamientos/the-hat;Imperial, 9;28005;;Spain;40.414312922895;-3.707070350647;Albergues;;https://estaticos.esmadrid.com/cdn/farfuture/P9JziYJEhQT7btX1Rd3qIhf0EQHYE9mFD8FTIosuDXA/mtime:1524832475/sites/default/files/recursosturisticos/alojamientos/portada_1416304744.971.jpg
67863;2024-05-06;"URSO Hotel &amp; Spa Madrid";info@hotelurso.com;(+34) 91 444 44 58;https://www.esmadrid.com/alojamientos/urso-hotel-spa-madrid;Mejía Lequerica, 8;28004;;Spain;40.427005857836;-3.698079586029;Hoteles;5 estrellas;https://estaticos.esmadrid.com/cdn/farfuture/NjD8HvcK910R2YZbcmnpW0ch_IFQCx-e9GjoDQUv29o/mtime:1679041534/sites/default/files/recursosturisticos/alojamientos/hotel_urso_6.png
67862;2024-07-05;One Shot Recoletos 04;recoletos04@oneshothotels.com;(+34) 91 182 00 70;https://www.esmadrid.com/alojamientos/one-shot-recoletos-04;Salustiano Olózaga, 4;28001;;Spain;40.420925146334;-3.691336512566;Hoteles;4 estrellas;https://estaticos.esmadrid.com/cdn/farfuture/YDn03zlO_6mL4saayKpe2Spj9pfV__J0EW9TEVVuA1g/mtime:1668776884/sites/default/files/recursosturisticos/alojamientos/hotel_boutique_madrid_recoletos_08.jpg
67861;2024-01-16;Hotel Indigo;info@indigomadrid.com;(+34) 91 200 85 85;https://www.esmadrid.com/alojamientos/hotel-indigo;de Silva, 6;28013;;Spain;40.420706655201;-3.707402944565;Hoteles;4 estrellas;https://estaticos.esmadrid.com/cdn/farfuture/Dz4S0TLfccRbm4GRQN7tA2awUVyTQRHtW6HecM6pA00/mtime:1635242502/sites/default/files/recursosturisticos/alojamientos/hotel_indigo_gran_via_6.png
67860;2024-07-05;One Shot Luchana 22;luchana22@oneshothotels.com;(+34) 91 292 29 40;https://www.esmadrid.com/alojamientos/one-shot-luchana;Luchana, 22;28010;;Spain;40.430221592821;-3.700126111507;Hoteles;4 estrellas;https://estaticos.esmadrid.com/cdn/farfuture/UKuPLQgTgfYCW2huUOQQbetwdTx_ekoELZoqGcNhDNY/mtime:1668780235/sites/default/files/recursosturisticos/alojamientos/one_shot_luchana_galeria_de_fotos_003.jpg
67859;2024-07-11;One Shot Prado 23;prado23@oneshothotels.com;(+34) 914 20 40 01;https://www.esmadrid.com/alojamientos/one-shot-prado-23;del Prado, 23;28014;;Spain;40.415108;-3.6981334;Hoteles;3 estrellas;https://estaticos.esmadrid.com/cdn/farfuture/L5D84iqgMND7fwC7UkNBQI_rUEOUcdNoB4pimTMrSm4/mtime:1720695038/sites/default/files/recursosturisticos/alojamientos/hotel_boutique_madrid_prado_16.png
67858;2024-07-08;Safestay Madrid;reception.madct@safestay.com;+34 91445 03 00;https://www.esmadrid.com/alojamientos/safestay-madrid;Sagasta, 22;28004;;Spain;40.428008366952;-3.698248565197;Hostales;2 estrellas;https://estaticos.esmadrid.com/cdn/farfuture/4v3r4JiGw8qfzebvvBGyiqi9JrRmrpwtxW4Azyo_Y68/mtime:1669369905/sites/default/files/recursosturisticos/alojamientos/safestay-madrid-dorm-room-5.png
67857;2024-09-12;"La Posada de El Chafl&aacute;n";posada@laposadadeelchaflan.com;(+34) 664 266 862;https://www.esmadrid.com/alojamientos/la-posada-de-el-chaflan;de Pío XII, 34;28016;;Spain;40.4668724;-3.6744664;Casa de huéspedes;;https://estaticos.esmadrid.com/cdn/farfuture/VcW-AMR747NVgfaMEwuEv3nmlXK7Ayj9ztjXYMe_0FQ/mtime:1720428173/sites/default/files/recursosturisticos/alojamientos/la_posada_del_chaflan.jpg
67856;2024-08-14;Senator Barajas;reservas@playasenator.com;(+34) 91 747 13 55;https://www.esmadrid.com/alojamientos/senator-barajas;del Galeón, 27;28042;;Spain;40.458780778228;-3.582505881786;Hoteles;4 estrellas;https://estaticos.esmadrid.com/cdn/farfuture/Ji3JHQU5H2unNIsogpyDYL_RnThX3Nt4vkUMIiovujI/mtime:1671183035/sites/default/files/recursosturisticos/alojamientos/senator_barajas.png
67855;2024-06-07;NH Collection Madrid Suecia;nhcollectionsuecia@nh-hotels.com;(+34) 91 200 05 70;https://www.esmadrid.com/alojamientos/nh-collection-madrid-suecia;Marqués de Casa Riera, 4;28014;;Spain;40.417817196366;-3.696282505989;Hoteles;5 estrellas;https://estaticos.esmadrid.com/cdn/farfuture/lWuEl7IkKDojxxUsoIGfgS06b7ct2IhSwv4y4pBWBuw/mtime:1717761770/sites/default/files/recursosturisticos/alojamientos/nh_collection-suecia_.png
67854;2024-09-12;Exe Moncloa;reservas@hotelexemoncloa.com; (+34) 91 745 92 99;https://www.esmadrid.com/alojamientos/exe-moncloa;Arcipreste de Hita, 10;28015;;Spain;40.4337317;-3.7175435;Hoteles;4 estrellas;https://estaticos.esmadrid.com/cdn/farfuture/DKAQhbpT54EXgp95Jyxl5uVFwx_m59VrKUbGwzO872I/mtime:1726128814/sites/default/files/recursosturisticos/alojamientos/exe_moncloa_7.png
67853;2024-05-06;Only You Boutique Hotel Madrid;madrid@onlyyouhotels.com;(+34) 91 005 22 22;https://www.esmadrid.com/alojamientos/only-you-boutique-hotel-madrid;Barquillo, 21;28004;;Spain;40.4222209;-3.6957045;Hoteles;4 estrellas;https://estaticos.esmadrid.com/cdn/farfuture/Ssl8yoaOAccRfL0HLZCq481K09EsLl1dYaMOich-Igk/mtime:1714992148/sites/default/files/recursosturisticos/alojamientos/only_you_boutique_hotel_madrid_1.png
67852;2024-07-29;Travelodge Madrid Metropolitano;reservas@travelodge.co.uk;(+34) 91 264 8245;https://www.esmadrid.com/alojamientos/travelodge-madrid-metropolitano;Santa Leonor,  34;28037;Madrid;Spain;40.4370752;-3.631172;Hoteles;1 estrella;https://estaticos.esmadrid.com/cdn/farfuture/2tvhLj7Cesc-77RktTN2b70x3kfXJKCw8L6bgdcugao/mtime:1716461656/sites/default/files/recursosturisticos/alojamientos/travelodge_madrid_metropolitano_2.jpg
67850;2024-04-04;"Hotel Elba Madrid Alcal&aacute;";madrid@hoteleselba.com; + 34 913 75 68 00;https://www.esmadrid.com/alojamientos/hotel-elba-madrid-alcala;Alcalá, 476;28027;;Spain;40.4393478;-3.6320806;Hoteles;4 estrellas;https://estaticos.esmadrid.com/cdn/farfuture/jzLta43lP3B0pYGCJ6ZUis8j-34UcG3ahgH6mxSWtCs/mtime:1712222503/sites/default/files/recursosturisticos/alojamientos/hotel_elba_1.png
67849;2024-07-05;Eurostars Plaza Mayor;reservas@eurostarsplazamayor.com;(+34) 91 330 86 60 ;https://www.esmadrid.com/alojamientos/eurostars-plaza-mayor;Doctor Cortezo , 10;28012;;Spain;40.4130309;-3.7039463;Hoteles;4 estrellas;https://estaticos.esmadrid.com/cdn/farfuture/I5P2u6GfYvyxi0WvqrhxoQvLJ3RcITvOocQx3zI8ULw/mtime:1668765982/sites/default/files/recursosturisticos/alojamientos/eurostars_plaza_mayor.png
67251;2024-07-12;Script;spain@numastays.com;+34 932 71 31 07;https://www.esmadrid.com/alojamientos/script;de las Cortes , 4-7º Drch.;28014;;Spain;40.415828196408;-3.695585131645;Hostales;3 estrellas;https://estaticos.esmadrid.com/cdn/farfuture/YyEBtO88BEBpGS1PLdtR2U5kFRY1uVdPS85s50nqmSI/mtime:1668770106/sites/default/files/recursosturisticos/alojamientos/numa_script_2.jpg
67762;2023-06-01;"Artistic B&amp;B";info@artisticbandb.com;(+34) 654 368 611;https://www.esmadrid.com/alojamientos/artistic-bb;Lope de Vega, 11, 3º;28014;;Spain;40.413876407516;-3.698247894645;Hostales;3 estrellas;https://estaticos.esmadrid.com/cdn/farfuture/lU5ZOZkEz_TZ4aDK527uhexcVKNLF7FDtkZe09aZC-o/mtime:1524832477/sites/default/files/recursosturisticos/alojamientos/430285751_192201314015_adj.jpg
67761;2024-07-05;Hotel Sardinero Madrid;madrid-reservas@sardinerohoteles.com;(34) 91 206 21 60 ;https://www.esmadrid.com/alojamientos/hotel-sardinero-madrid;Alonso Martínez, 3;28004;;Spain;40.4278989;-3.6957495;Hoteles;4 estrellas;https://estaticos.esmadrid.com/cdn/farfuture/NZe4qYvqcdTsNq3JM7O4ZNdYr11EkvKfZf3L45vxd1M/mtime:1668771922/sites/default/files/recursosturisticos/alojamientos/fotos_eventos_sala_de_reuniones_grande_01.jpg
67250;2024-07-05;Artrip Hotel;info@artriphotel.com;(+34) 91 539 32 82;https://www.esmadrid.com/alojamientos/artrip-hotel;Valencia, 11;28012;;Spain;40.4071916;-3.7000359;Hoteles;2 estrellas;https://estaticos.esmadrid.com/cdn/farfuture/jAEItoEsU_3PG5Z7FBHkpVorM4ZBxia69BzU-QfBrJs/mtime:1720175006/sites/default/files/recursosturisticos/alojamientos/artrip_5_0.png
67847;2024-09-05;Hotel Petit Palace Lealtad Plaza;lealtad@petitpalace.com;(+34) 91 522 45 47;https://www.esmadrid.com/alojamientos/hotel-petit-palace-lealtad-plaza;Antonio Maura, 5;28014;;Spain;40.416787988123;-3.691036105156;Hoteles;4 estrellas;https://estaticos.esmadrid.com/cdn/farfuture/pohUv_nqBlJmyAqovqLsGtTrCO38VWT1Vx0lFbcBgFE/mtime:1719830479/sites/default/files/recursosturisticos/alojamientos/petit-palace-lealtad-23.png
67760;2024-09-12;Hotel Petit Palace Savoy Alfonso XII;alfonsoxii@petitpalace.com;(+34) 91 522 19 20;https://www.esmadrid.com/alojamientos/hotel-petit-palace-savoy-alfonso-xii;Alfonso XII, 18;28014;;Spain;40.417167816808;-3.689335584641;Hoteles;4 estrellas;https://estaticos.esmadrid.com/cdn/farfuture/QzrS8hrVg_mzdlvZLrmMA2L5gzBGJ_tl-wDvFRQ9nvo/mtime:1673880129/sites/default/files/recursosturisticos/alojamientos/33-petit-palace-savoy-alfonso-xii-corner.png
67759;2024-07-01;"Hotel Petit Palace Santa B&aacute;rbara";santabarbara@petitpalace.com;(+34) 91 391 44 21;https://www.esmadrid.com/alojamientos/hotel-petit-palace-santa-barbara;Santa Bárbara, 10;28004;;Spain;40.426438239124;-3.696341514587;Hoteles;4 estrellas;https://estaticos.esmadrid.com/cdn/farfuture/zN9huiZ9W2pvWtnnsEDIF0J24ZWNsed8DbLGgxzvVeY/mtime:1719823745/sites/default/files/recursosturisticos/alojamientos/petit_palace_santa_barbara_5.jpg.png
67758;2024-02-16;"La Posada del Drag&oacute;n";info@posadadeldragon.com;(+34) 91 119 14 24;https://www.esmadrid.com/alojamientos/la-posada-del-dragon;Cava Baja, 14;28005;;Spain;40.4131248;-3.7085705;Hoteles;4 estrellas;https://estaticos.esmadrid.com/cdn/farfuture/CEEJlAqfYJAKvJgMaNz3Idi1GQb5ArhKxdT_GXPTDK4/mtime:1617618192/sites/default/files/recursosturisticos/alojamientos/a90_historiafachada-tif.jpg
67846;2024-09-02;Catalonia Plaza Mayor;plazamayor@cataloniahotels.com;(+34) 91 369 44 09;https://www.esmadrid.com/alojamientos/catalonia-plaza-mayor;Atocha, 36;28012;;Spain;40.4131289;-3.7007687;Hoteles;4 estrellas;https://estaticos.esmadrid.com/cdn/farfuture/jbTwllYB4UHUSN_aILq2amy1vNnuIXGwmfJ8EkgGNwk/mtime:1720165417/sites/default/files/recursosturisticos/alojamientos/cataloniaplazamayor-.png
67802;2024-06-27;Catalonia Atocha;atocha@cataloniahotels.com;(+34) 91 420 37 70;https://www.esmadrid.com/alojamientos/catalonia-atocha;Atocha, 81;28012;;Spain;40.411858189077;-3.697924017906;Hoteles;4 estrellas;https://estaticos.esmadrid.com/cdn/farfuture/C15K0VRmId_5OXFtelZ6SFu6xqY5IGnB6qFuc-x5vHI/mtime:1719489795/sites/default/files/recursosturisticos/alojamientos/cataloniaatocha-piscina-rooftop-03_0_0.png
67757;2023-09-28;Hotel NH Ribera del Manzanares;nhriberadelmanzanares@nh-hotels.com;(+34) 91 600 81 46;https://www.esmadrid.com/alojamientos/hotel-nh-ribera-del-manzanares;Virgen del Puerto, 57;28005;;Spain;40.406323477313;-3.721554279327;Hoteles;4 estrellas;https://estaticos.esmadrid.com/cdn/farfuture/1echqkV7xl7sSH8BnNAHKbw7MfWb2sByTXB_8JXMkG8/mtime:1668688408/sites/default/files/recursosturisticos/alojamientos/f_nh_ribera-del-manzanares_032.jpg
67249;2023-06-28;"Posada del Le&oacute;n de Oro";info@posadadelleondeoro.com;(+34) 91 119 14 94;https://www.esmadrid.com/alojamientos/posada-del-leon-de-oro;de la Cava Baja, 12;28005;;Spain;40.4131907408;-3.708535507321;Hoteles;3 estrellas;https://estaticos.esmadrid.com/cdn/farfuture/jtqSQwbyaX28Wh62bZlzxGjF82fDghx8KBTbad11f2o/mtime:1687945050/sites/default/files/recursosturisticos/alojamientos/posada_del_leon.png
67801;2023-09-28;Hotel NH Collection Madrid Palacio de Tepa;nhcollectionpalaciodetepa@nh-hotels.com;(+34) 91 389 64 90 ;https://www.esmadrid.com/alojamientos/nh-palacio-de-tepa;San Sebastián , 2;28012;;Spain;40.4138368;-3.7015799;Hoteles;5 estrellas;https://estaticos.esmadrid.com/cdn/farfuture/D6g65SR8SdGeKYRWjlYPZsdAdZHbBnvNA4uG-g-5LTA/mtime:1524832474/sites/default/files/recursosturisticos/alojamientos/NHPalaciodeTepa2_1404810310.468.png
67800;2024-07-01;Exe Suites 33;reservas@exesuites33.com;(+34) 91 758 38 50;https://www.esmadrid.com/alojamientos/exe-suites-33-0;Leganitos, 33;28013;;Spain;40.4221354;-3.710495;Hoteles;3 estrellas;https://estaticos.esmadrid.com/cdn/farfuture/zv1SgNo9nbTfjsmkdKt9DBHVOjW75iT9qR7MVr5Z9yw/mtime:1719835803/sites/default/files/recursosturisticos/alojamientos/exe_suites_33.png
67799;2024-07-01;SHS Aeropuerto;aeropuerto@shshoteles.com;(+34) 91 746 70 80;https://www.esmadrid.com/alojamientos/shs-aeropuerto;del Aeropuerto, 22;28042;;Spain;40.449258;-3.548333;Hoteles;3 estrellas;https://estaticos.esmadrid.com/cdn/farfuture/hbC-EPI5NHlIN3NyidVCpKhSm8B4PLZ_iUAmbk7s_c4/mtime:1719832365/sites/default/files/recursosturisticos/alojamientos/shs-hotel-aeropuerto_2_0.png
67248;2024-08-14;Barajas Plaza;hotelbarajasplaza@hotmail.com;(+34) 91 301 00 81;https://www.esmadrid.com/alojamientos/barajas-plaza;Camarillas , 5-7;28042;;Spain;40.4730629;-3.5771394;Hoteles;3 estrellas;https://estaticos.esmadrid.com/cdn/farfuture/pLYBfwpqxGx3YS_LYOgJWP2H-Bw4ru-l4-Fv9G9xtmw/mtime:1723633299/sites/default/files/recursosturisticos/alojamientos/barajas_0.png
67798;2024-09-05;"t&auml;CH Hotel Madrid Airport";info@tach-hotel.es;(+34) 91 301 07 21;https://www.esmadrid.com/alojamientos/tach-by-clement-hoteles;Timón, 35;28042;;Spain;40.4729058;-3.5853692;Hoteles;4 estrellas;https://estaticos.esmadrid.com/cdn/farfuture/GhouDunXRtHuZqnXtT3KHqUbZ2lIXETeMX7mNMWkaJM/mtime:1720440681/sites/default/files/recursosturisticos/alojamientos/tach_hotel_airport.png
67845;2024-06-21;Crowne Plaza Madrid Airport;recepcion@cpmadridairport.com;(+34) 91 206 34 10 ;https://www.esmadrid.com/alojamientos/crowne-plaza-madrid-airport;de Lola Flores, 1;28022;;Spain;40.447240988852;-3.542017936707;Hoteles;4 estrellas;https://estaticos.esmadrid.com/cdn/farfuture/COWGuZlPydlDXDKw6IyboWYAF7BwDtfpYixsLbavteU/mtime:1718961501/sites/default/files/recursosturisticos/alojamientos/crowne_plaza_madrid_-_aeropuerto.png
67626;2024-07-04;Hotel  Nuevo Boston;info@hotelnuevoboston.com;(+34) 91 748 16 13;https://www.esmadrid.com/alojamientos/hotel-nuevo-boston;Aragón, 332;28022;;Spain;40.449094346471;-3.576800823212;Hoteles;4 estrellas;https://estaticos.esmadrid.com/cdn/farfuture/MMavHNSFqXg0ViDQ6b7A3v-EywoZ12SY-0psOprE4GY/mtime:1720090812/sites/default/files/recursosturisticos/alojamientos/hotel_nuevo_boston_7.png
67797;2024-07-04;Agora Juan de Austria;info@agorahoteles.com;(+34) 902 886 386;https://www.esmadrid.com/alojamientos/agora-juan-de-austria;de Juan de Austria, 5;28010;;Spain;40.4321094;-3.6992414;Hoteles;4 estrellas;https://estaticos.esmadrid.com/cdn/farfuture/7-aXFb2A_DZzvA3viXlYoiDJx3VPd8maIGA2hpwLVT0/mtime:1720087760/sites/default/files/recursosturisticos/alojamientos/agora_juan_de_austria.png
67844;2024-09-05;AC Hotel Atocha;acatocha@ac-hotels.com;(+34) 91 506 22 21;https://www.esmadrid.com/alojamientos/ac-hotel-atocha;Delicias, 42;28045;;Spain;40.4038598;-3.6900702;Hoteles;4 estrellas;https://estaticos.esmadrid.com/cdn/farfuture/XMq3RZq9hHEy57DvDvXpgXbSQYrttTRR_mwy9kPN-uE/mtime:1720784380/sites/default/files/recursosturisticos/alojamientos/hotel_ac_atocha.png
67756;2024-03-26;Hotel Santo Domingo;reserva@hotelsantodomingo.es;(+34) 91 547 98 00;https://www.esmadrid.com/alojamientos/hotel-santo-domingo;San Bernardo, 1;28013;;Spain;40.4206788;-3.7083569;Hoteles;4 estrellas;https://estaticos.esmadrid.com/cdn/farfuture/lOWefhlOWjBDxkUNrm6S5hh66EeMI3Fpp7p-OVImuAY/mtime:1711454605/sites/default/files/recursosturisticos/alojamientos/hotel_santo_domingo.png
67619;2024-06-27;Hostal Gala;info@hostalgala.com;(+34) 91 032 51 19;https://www.esmadrid.com/alojamientos/hostal-gala;Costanilla de los Ángeles, 15;28013;;Spain;40.419616230899;-3.708194196224;Hostales;3 estrellas;https://estaticos.esmadrid.com/cdn/farfuture/WA50vD-E3zVA6R_zxuMpW4rb5LFu60J8KY-6Hi2EecU/mtime:1524832474/sites/default/files/recursosturisticos/alojamientos/754337038_1032010102331_adj.jpg
67247;2024-06-27;"Espahotel Gran V&iacute;a";granvia@espahotel.es;(+34) 91 541 31 70;https://www.esmadrid.com/alojamientos/espahotel-gran-via;Gran Vía, 65;28013;;Spain;40.422617918079;-3.709979206324;Apartahoteles;3 llaves;https://estaticos.esmadrid.com/cdn/farfuture/X7HFV44QdT_R8AagwF94l9EbxZLEDl7Rm2wDDCwdgdA/mtime:1719475508/sites/default/files/recursosturisticos/alojamientos/espahotel_gran_via.png
67755;2024-09-10;The Principal Madrid Hotel;info@theprincipalmadridhotel.com;(+34) 91 521 87 43;https://www.esmadrid.com/alojamientos/principal-madrid-hotel;Marqués de Valdeiglesias, 1;28004;;Spain;40.4193576;-3.6971889;Hoteles;5 estrellas;https://estaticos.esmadrid.com/cdn/farfuture/i1k6f8nnBH2hMKEwl4l8omV9L-QpB9JScNjBYu5Abrc/mtime:1710336761/sites/default/files/recursosturisticos/alojamientos/the_principal_6.png
67843;2024-06-21;Radisson Blu Hotel, Madrid Prado;info.madrid@radissonblu.com;(+34) 91 524 26 26;https://www.esmadrid.com/alojamientos/radisson-blu-hotel-madrid-prado;de Moratín, 52;28014;;Spain;40.412519873231;-3.694168925285;Hoteles;4 estrellas;https://estaticos.esmadrid.com/cdn/farfuture/UPtuNueEwZiD_Uzgk5yBFC9iuTuqx1zXLSYZioyWmjE/mtime:1688372960/sites/default/files/recursosturisticos/alojamientos/raddisson_blu_hotel.png
67842;2024-06-24;Mayerling;recepcion@mayerlinghotel.com ;(+34) 91 420 15 80;https://www.esmadrid.com/alojamientos/mayerling;Conde de Romanones, 6;28012;;Spain;40.4134493;-3.7049429;Hoteles;2 estrellas;https://estaticos.esmadrid.com/cdn/farfuture/en3bVhfm-6DL50cDda7WhldP9u6HohQvmqKsplODgd0/mtime:1719225585/sites/default/files/recursosturisticos/alojamientos/hotel_mayerling_madrid_1.png
67841;2024-06-24;Urban Sea Atocha 113;recepcionatocha@blueseahotels.es;(+34) 91 369 28 95;https://www.esmadrid.com/alojamientos/urban-sea-atocha-113;Atocha , 113;28012;;Spain;40.410375502812;-3.694608807564;Hoteles;1 estrella;https://estaticos.esmadrid.com/cdn/farfuture/yY3X6LByzXEbGLdOjLXAkf96ZagcSGU0uTm4xe1mj1w/mtime:1719229804/sites/default/files/recursosturisticos/alojamientos/urban_sea_atocha_1.png
67246;2023-07-03;Axor Barajas Plus;info@axorhoteles.com;(+34) 91 312 19 60;https://www.esmadrid.com/alojamientos/axor-barajas-plus;Campezo, 4;28022;;Spain;40.447820678887;-3.58301281929;Hoteles;4 estrellas;https://estaticos.esmadrid.com/cdn/farfuture/CM9tyFoVpf7lwEuF313nGwDTCR49pqy-BV9GOoyQvF0/mtime:1524832475/sites/default/files/recursosturisticos/alojamientos/717456787_6102009123723_adj.jpg
67245;2023-07-03;Axor Feria;info@axorhoteles.com;(+34) 91 312 23 79;https://www.esmadrid.com/alojamientos/axor-feria;Campezo, 4;28022;;Spain;40.447461434947;-3.583130836487;Hoteles;3 estrellas;https://estaticos.esmadrid.com/cdn/farfuture/TnjkVNnjJ5SvcjavBkHOpKtODMqn8Vw4otU3bYW3M9M/mtime:1688385180/sites/default/files/recursosturisticos/alojamientos/axor_feria.png
67754;2024-06-21;Hostal Andrea;pensionoxummadrid@gmail.com;(+34) 91 521 71 79;https://www.esmadrid.com/alojamientos/hostal-andrea;Hortaleza, 31, 3 Ext.;28004;;Spain;40.4220201;-3.6999146;Hostales;3 estrellas;https://estaticos.esmadrid.com/cdn/farfuture/NF67mmSaqGGxRIRfkMj4IR-0f8gw8WBMNrlsDtUZcQs/mtime:1718960104/sites/default/files/recursosturisticos/alojamientos/hostal_andrea_1.png
67840;2024-06-20;"Mirador de Chamart&iacute;n";reservas@miradordechamartin.com;(+34) 91 768 01 41;https://www.esmadrid.com/alojamientos/mirador-de-chamartin;del Arte, 14;28033;;Spain;40.482964227116;-3.671085834503;Hoteles;4 estrellas;https://estaticos.esmadrid.com/cdn/farfuture/fXAox4leUqtiWunwGc5lSfTRY6KyedD4hbxgvD1QXoQ/mtime:1668087630/sites/default/files/recursosturisticos/alojamientos/hfkq0vuyseatahmoiqth_large.jpg
67244;2024-10-10;Apartosuites Jardines de Sabatini;reservas@jardinesdesabatini.com;(+34) 91 542 59 00;https://www.esmadrid.com/alojamientos/apartosuite-jardines-de-sabatini;Cuesta de San Vicente, 16;28008;;Spain;40.420970069657;-3.714907765389;Apartahoteles;3 llaves;https://estaticos.esmadrid.com/cdn/farfuture/uU_OVN3GCO8qDiQQcqaNOI0vD0kp2QWufkf0RCdDGuQ/mtime:1674036579/sites/default/files/recursosturisticos/alojamientos/apartosuites_jardines_de_sabatini_1.png
67747;2024-06-20;"&Aacute;rtico";hostalartico@gmail.com;(+34) 91 543 15 12;https://www.esmadrid.com/alojamientos/artico;Donoso Cortés, 69;28015;;Spain;40.4364387;-3.7156101;Hostales;3 estrellas;https://estaticos.esmadrid.com/cdn/farfuture/h9uAJOwHroU-bRXdVpp6wbNY3S-JOiqsA3RHUhpavaQ/mtime:1718873003/sites/default/files/recursosturisticos/alojamientos/hostal_artico.png
67748;2024-06-21;"Los &Aacute;ngeles";;(+34) 91 533 03 75;https://www.esmadrid.com/alojamientos/angeles;Artistas, 18;28020;;Spain;40.447333;-3.7020558;Hostales;3 estrellas;https://estaticos.esmadrid.com/cdn/farfuture/NeZfnLgtVg6V7KNN2znZyFIaXghgryvWlLYN_9XIWik/mtime:1718958871/sites/default/files/recursosturisticos/alojamientos/hostal_los_angeles_1.png
67753;2024-07-04;Suites Barrio de Salamanca;info@hotelbarriodesalamanca.es;(+34) 91 825 59 00;https://www.esmadrid.com/alojamientos/suites-barrio-de-salamanca;General Oraa, 17;28006;Madrid;Spain;40.436356584452;-3.685717284679;Hoteles;4 estrellas;https://estaticos.esmadrid.com/cdn/farfuture/u_dIMxhLfzWdMjsN99aK9gGSLyZSqdINjotm_v0JZLQ/mtime:1668170414/sites/default/files/recursosturisticos/alojamientos/galeria_hotel_barrio_salamanca_015.jpg
67751;2024-06-20;Splendid;hostalsplendid@hotmail.com ;(+34) 91 522 47 37 ;https://www.esmadrid.com/alojamientos/splendid;Gran Vía, 15-5º A;28013;;Spain;40.4197578;-3.7002318;Hostales;2 estrellas;https://estaticos.esmadrid.com/cdn/farfuture/KcvhQEvFXTTVfcBN2dA767bnP2Xi9xhxeUVvN1ou9Ys/mtime:1668158817/sites/default/files/recursosturisticos/alojamientos/hostal_splendid_2_0.png
67795;2024-01-12;Aparthotel Encasa;recepcion@aparthotelencasa.es;(+34) 91 371 63 83;https://www.esmadrid.com/alojamientos/aparthotel-encasa;de Vicálvaro a estación de O'Donnell, 20;28032;;Spain;40.404695;-3.5913581;Apartahoteles;1 llave;https://estaticos.esmadrid.com/cdn/farfuture/8VrM1fA_MjPxNb0Vt5ky2l51MQIUdjQDEnZkO448ujg/mtime:1524832468/sites/default/files/recursosturisticos/alojamientos/hos1_1414757542.228.jpg
67796;2024-09-30;"Hotel &Uacute;nico";info@unicohotelmadrid.com;(+34) 91 781 01 73;https://www.esmadrid.com/alojamientos/hotel-unico;Claudio Coello, 67;28001;;Spain;40.4284616;-3.6862108;Hoteles;5 estrellas;https://estaticos.esmadrid.com/cdn/farfuture/0L9T6l2oP2MHMPwidG2uecH7Oc2FlPg62uSsVusdfJo/mtime:1712580114/sites/default/files/recursosturisticos/alojamientos/hotel_unico_9_0.png
67793;2024-06-14;Matheu;reservas@hostalmatheu.com;(+34) 91 521 49 43;https://www.esmadrid.com/alojamientos/matheu;de la Victoria, 6;28012;;Spain;40.4159737;-3.7019949;Hostales;2 estrellas;https://estaticos.esmadrid.com/cdn/farfuture/QeuEWIj11vAVqGRio5VYRw1TcuZGNoFeS61mc4-Mg2U/mtime:1718351794/sites/default/files/recursosturisticos/alojamientos/matheu_4.png
67790;2024-06-20;Patria;hostal_patria_madrid@yahoo.es;(+34) 91 366 21 87;https://www.esmadrid.com/alojamientos/patria;Mayor, 10 - 4º;28013;;Spain;40.416534767809;-3.705974668264;Hostales;1 estrella;https://estaticos.esmadrid.com/cdn/farfuture/GDC1Cn_0dTYPZEYy6lDrXor4cZtCPPW4SZUHfUNENio/mtime:1718882805/sites/default/files/recursosturisticos/alojamientos/patria.png
67744;2024-06-17;Rofer;hostalrofer@hostalrofer.com;(+34) 91 366 39 69;https://www.esmadrid.com/alojamientos/rofer;Toledo, 94;28005;;Spain;40.408386282875;-3.71092736721;Hostales;1 estrella;https://estaticos.esmadrid.com/cdn/farfuture/WHTo9X4xCREnGpT6X7SLvseLPPjM80lCj50FUsBFEDw/mtime:1718626819/sites/default/files/recursosturisticos/alojamientos/hostal_rofer.png
67746;2024-06-13;Hostal Charlotte;charlotte@granvia44madrid.com ;(+34) 915 31 14 84;https://www.esmadrid.com/alojamientos/hostal-charlotte;Gran Vía , 44, 9º;28013;;Spain;40.4202353;-3.7053482;Hostales;3 estrellas;https://estaticos.esmadrid.com/cdn/farfuture/J2Hxz2Ac1RMAuefCPif5rHIpp1Ek0_tV8SS6obQ5DIU/mtime:1667917717/sites/default/files/recursosturisticos/alojamientos/hostal-charlotte-madrid-habitacion-doble-terraza-vistas-5.jpg
67745;2024-06-13;"Santa B&aacute;rbara";santabarbara_h@yahoo.es;(+34) 91 446 23 45;https://www.esmadrid.com/alojamientos/santa-barbara;Santa Bárbara, 4-3º;28004;;Spain;40.427418297204;-3.696502447128;Hostales;2 estrellas;https://estaticos.esmadrid.com/cdn/farfuture/sSiMDu17Esr9i5ow4S7lAwe8zC6UC-akILgNQv2lgFA/mtime:1718277502/sites/default/files/recursosturisticos/alojamientos/hostal-santa-barbara-madrid-1.png
67743;2017-11-10;Rico;hostal.rico@hotmail.com;(+34) 91 531 09 28;https://www.esmadrid.com/alojamientos/rico;de Fuencarral, 22-1º D;28004;;Spain;40.421998192956;-3.700819462538;Hostales;2 estrellas;https://estaticos.esmadrid.com/cdn/farfuture/Mr5bUYjHmVGBp2WkffOIx79YdYaswJqvBZ_J3U8NIA0/mtime:1524832472/sites/default/files/recursosturisticos/alojamientos/hostal_rico_2.jpg
67742;2024-06-17;Playa;info@madridplayarooms.com;+34 657 20 20 20;https://www.esmadrid.com/alojamientos/playa;de la Victoria, 2-4º Izq.;28012;;Spain;40.4164924;-3.7031724;Hostales;2 estrellas;https://estaticos.esmadrid.com/cdn/farfuture/yE3oO7V_YEBvWc0FL02t5QvQq4cn4s6tjLVVR3BrDso/mtime:1718625985/sites/default/files/recursosturisticos/alojamientos/hostal_playa_1.png
67741;2024-06-14;Hostal Pacios;info@hostalpacios.es;(+34) 91 369 33 71 ;https://www.esmadrid.com/alojamientos/hostal-pacios;Atocha, 28-2º A;28012;;Spain;40.413385771061;-3.701652288437;Hostales;1 estrella;https://estaticos.esmadrid.com/cdn/farfuture/qaciJxnBAWhOUJkFBHWPa1TsAGKS6nZaERaboaJb8T4/mtime:1718358671/sites/default/files/recursosturisticos/alojamientos/hostal-pacios__0.png
67740;2023-03-31;Hostal Oriente;info@hostaloriente.es;(+34) 91 548 03 14;https://www.esmadrid.com/alojamientos/hostal-oriente;Arenal, 23-1º I;28013;;Spain;40.4178394;-3.7089866;Hostales;3 estrellas;https://estaticos.esmadrid.com/cdn/farfuture/v1YbXmMRDv1VIonxjkLFdby9PuNlFPo2UNEJb1bSEWM/mtime:1680265366/sites/default/files/recursosturisticos/alojamientos/hostal_oriente_5.png
67788;2023-04-04;Mendoza;;(+34) 91 531 39 50;https://www.esmadrid.com/alojamientos/mendoza;Chinchilla, 4-1º D;28013;;Spain;40.419509;-3.7038569;Pensiones;1 estrella;https://estaticos.esmadrid.com/cdn/farfuture/ww03cPH_Pt46gloF1t5bXuru82tnw-fkTCmtDsPrrZA/mtime:1680595999/sites/default/files/recursosturisticos/alojamientos/hostal_mendoza.jpg
67738;2023-04-03;"Casa de hu&eacute;spedes La Muralla";info@hostalmurallas.com;+34) 910 585 623;https://www.esmadrid.com/alojamientos/casa-de-huespedes-la-muralla;Fuencarral, 23-4º D;28004;;Spain;40.4215129;-3.7010783;Pensiones;1 estrella;https://estaticos.esmadrid.com/cdn/farfuture/9Zabwf4R4lRejWpjTAaOvFC0j9paz9BTvSfxyqKm9-w/mtime:1680523847/sites/default/files/recursosturisticos/alojamientos/hs-las-murallas.png
67839;2023-04-04;Naranjos I;hostalnaranjos15@gmail.com;(+34) 91 369 39 34;https://www.esmadrid.com/alojamientos/naranjos;Doctor Cortezo, 15-2º I;28012;;Spain;40.4128656;-3.7038234;Hostales;2 estrellas;https://estaticos.esmadrid.com/cdn/farfuture/aTl6ltd51PNNlrfRshE_el4gmTkvs1Z6U4J_V5AHpmA/mtime:1524834526/sites/default/files/naranjos.jpg
67739;2023-04-04;"Pensi&oacute;n Mollo";info@pensionmollo.es;(+34) 91 528 71 76;https://www.esmadrid.com/alojamientos/casa-de-huespedes-mollo;Atocha, 104-4º;28012;;Spain;40.410411;-3.695276;Pensiones;1 estrella;https://estaticos.esmadrid.com/cdn/farfuture/f-biJ-IuPBrrwK7bp7ifxn0oYZ0fkYlVxAw1JmlD3tQ/mtime:1532429254/sites/default/files/recursosturisticos/alojamientos/pension_mollo__0.jpg
67787;2023-04-04;Hostal Ivor (Hostal Ivor y Hostal Mayrit );reservas@hostalivor.com;(+34) 91 548 04 03;https://www.esmadrid.com/alojamientos/hostal-ivor-hostal-mayrit;Arenal, 24-3º I;28013;;Spain;40.4176328;-3.7079656;Pensiones;1 estrella;https://estaticos.esmadrid.com/cdn/farfuture/Rjx7YK5L4zgwA4pimHEDyHq7TTBvvfvZJlQXg6i-enc/mtime:1680598759/sites/default/files/recursosturisticos/alojamientos/hostal_ivor.png
67242;2023-04-03;Los Perales;;(+34) 91 522 71 91 ;https://www.esmadrid.com/alojamientos/los-perales;La Palma , 61-1º Izq.;28015;;Spain;40.4266927;-3.707616;Hostales;1 estrella;https://estaticos.esmadrid.com/cdn/farfuture/1FkUWsKkPrfIn7S9SvAiXjPmKP3XWXZIH1pgGvzD9GU/mtime:1524832472/sites/default/files/recursosturisticos/alojamientos/Losperales_1395223745.174.jpg
67243;2023-03-31;Marlasca;correo@hostalmarlasca.net;(+34) 91 521 48 38 ;https://www.esmadrid.com/alojamientos/marlasca;Cruz, 14-2º;28004;;Spain;40.4155638;-3.7017507;Hostales;2 estrellas;https://estaticos.esmadrid.com/cdn/farfuture/xP-HWgse6FcA0UfvM5oS_d0phvbLRhRvkFQBgQ80-Rw/mtime:1680268724/sites/default/files/recursosturisticos/alojamientos/hostal_marlasca.png
67837;2023-04-04;"Alojamiento Ja&eacute;n";hjaen@aliste.info ;(+34) 91 429 48 58;https://www.esmadrid.com/alojamientos/casa-de-huespedes-jaen;Cervantes, 5-3º D;28014;;Spain;40.4143094;-3.6980943;Pensiones;1 estrella;https://estaticos.esmadrid.com/cdn/farfuture/5B5zN5z-N36zZriXXLpO1iPSeuimyC7hbtAtGaGbnfk/mtime:1532430753/sites/default/files/recursosturisticos/alojamientos/casa_de_huespedes_jaen_2_.jpg
67833;2023-04-05;Guerra;contacto@hostalguerra.net;(+34) 91 522 55 77  ;https://www.esmadrid.com/alojamientos/guerra;San Jerónimo, 3;28014;;Spain;40.4166895;-3.7018073;Hostales;2 estrellas;https://estaticos.esmadrid.com/cdn/farfuture/3lS0w42swZQ8DsSE4GMCW1LNUqHrV3kUwGGlBy5BqYg/mtime:1680693400/sites/default/files/recursosturisticos/alojamientos/hostal-guerra.png
67838;2023-04-05;Las Fuentes;reserva@hostallasfuentes.com;(+34) 91 542 18 53 ;https://www.esmadrid.com/alojamientos/las-fuentes;Las Fuentes, 10-1º D;28013;;Spain;40.4174229;-3.7086383;Hostales;2 estrellas;https://estaticos.esmadrid.com/cdn/farfuture/5Ai6jqZcJuP7roYs1o7WfAWZxu1iBVGjhrw1P-LeBaQ/mtime:1524832472/sites/default/files/recursosturisticos/alojamientos/Lasfuentes_1395221953.75.jpg
67834;2023-04-05;Hostal Horizonte;info@hostalhorizonte.com;(+34) 91 369 09 96;https://www.esmadrid.com/alojamientos/hostal-horizonte;Atocha, 28-2ºB;28012;;Spain;40.4135057;-3.7016206;Hostales;3 estrellas;https://estaticos.esmadrid.com/cdn/farfuture/FIYbZMl9Hab8qfNaCp0VXYCED8Xrpf59N9s3wKpZEuQ/mtime:1524832472/sites/default/files/recursosturisticos/alojamientos/HostalHorizonte_1394709177.896.jpg
67835;2023-04-04;Internacional;reserva@hostalinternacional.net;(+34) 91 429 62 09;https://www.esmadrid.com/alojamientos/internacional;Echegaray, 5-2º D;28014;;Spain;40.4162034;-3.6996113;Hostales;1 estrella;https://estaticos.esmadrid.com/cdn/farfuture/NozyolJ8Q4a-ZGpHDNZCJA7vLCen7qdduidNACeYqcI/mtime:1532429931/sites/default/files/recursosturisticos/alojamientos/112415122_0.jpg
67733;2023-04-10;Conchita II;;(+34) 915 47 50 61;https://www.esmadrid.com/alojamientos/conchita-ii;Campomanes, 10-4º I;28013;;Spain;40.4192028;-3.7092202;Pensiones;1 estrella;https://estaticos.esmadrid.com/cdn/farfuture/GQWrF02QsnrfV_P8PryEJg7PecTV5-nhoonF-hy7yxc/mtime:1532432490/sites/default/files/recursosturisticos/alojamientos/conchita_ii_.jpg
67736;2023-03-22;El Pasaje;reservas@elpasajehs.com;(+34) 91 521 29 95;https://www.esmadrid.com/alojamientos/el-pasaje;Pozo, 4;28012;;Spain;40.4162535;-3.7013932;Hostales;3 estrellas;https://estaticos.esmadrid.com/cdn/farfuture/BlH3oGqq0BCToyQnbyqQfmX-53ol11S1Ey_LozTxsVE/mtime:1679492428/sites/default/files/recursosturisticos/alojamientos/hostal_el_pasaje_1.png
67735;2023-03-22;"El Catal&aacute;n";attcliente@hostalelcatalan.es;(+34) 91 532 30 17 ;https://www.esmadrid.com/alojamientos/el-catalan;Hortaleza, 17-2º I;28004;;Spain;40.4214494;-3.7003494;Hostales;2 estrellas;https://estaticos.esmadrid.com/cdn/farfuture/UzGf9TXnKaF-ZZdHHbf9VNCBCxd6QDiWgwTfFXmkHkI/mtime:1524832475/sites/default/files/recursosturisticos/alojamientos/Elcatalan_1394786125.903.jpg
67734;2023-04-10;Edreira;info@hostaledreira.com;(+34) 91 429 01 84;https://www.esmadrid.com/alojamientos/edreira;Atocha, 75-2º ;28012;;Spain;40.4119747;-3.6983846;Hostales;2 estrellas;https://estaticos.esmadrid.com/cdn/farfuture/hB1EKHTaeybtJv_9VLCDlL2w-gRyf434LjFAvpwFkek/mtime:1532432926/sites/default/files/recursosturisticos/alojamientos/edreira_1_.jpg
67732;2024-08-09;Abami  II;info@abami2.com;(+34) 91 542 46 88;https://www.esmadrid.com/alojamientos/abami-ii;San Bernardo, 35;28015;;Spain;40.4232935;-3.7075241;Hostales;2 estrellas;https://estaticos.esmadrid.com/cdn/farfuture/5tB0ayBNdML_9sfMht0DwVODM4a14nzBzoxYPvN3uf4/mtime:1723193724/sites/default/files/recursosturisticos/alojamientos/hostal-abami-ii-2_0.png
67731;2023-03-22;"Dom&iacute;nguez";postmaster@hostaldominguez.com ;(+34) 91 532 15 47;https://www.esmadrid.com/alojamientos/dominguez;Santa Brígida, 1-1º ;28004;;Spain;40.424398;-3.7005793;Hostales;2 estrellas;https://estaticos.esmadrid.com/cdn/farfuture/i7M4nYlGLrw9VKa52mWUdotTnRvsLJwKT7ml6IMRJdo/mtime:1679494214/sites/default/files/recursosturisticos/alojamientos/hostal_dominguez._2.png
67832;2023-03-23;Hostal Biarritz;contacto@hostalbiarritz.com;(+34) 91 521 92 12 ;https://www.esmadrid.com/alojamientos/hostal-biarritz;Victoria, 2-2º;28012;;Spain;40.4166312;-3.7016915;Hostales;2 estrellas;https://estaticos.esmadrid.com/cdn/farfuture/FLSZAtYGHFNU14FuQbHsooiptuguWVJsZtuZC0ki_14/mtime:1679561459/sites/default/files/recursosturisticos/alojamientos/hostal_biarritz.jpg
67730;2023-03-23;Aresol;;(+34) 91 521 58 67;https://www.esmadrid.com/alojamientos/aresol;Arenal , 6-3º;28013;;Spain;40.4168883;-3.7051733;Hostales;3 estrellas;https://estaticos.esmadrid.com/cdn/farfuture/U3TZgIcTICXpqhkTZP_e0gA75vR3jH8SmHgqoF3xORo/mtime:1679562628/sites/default/files/recursosturisticos/alojamientos/hostal_aresol.png
67726;2023-03-23;Hostal del Pez Azul;info@pezazul.com;(+34) 91 532 47 45;https://www.esmadrid.com/alojamientos/hostal-del-pez-azul;Pez, 9-1º-D;28004;;Spain;40.4233748;-3.7048764;Hostales;3 estrellas;https://estaticos.esmadrid.com/cdn/farfuture/qOyBgV9z4jVk1QUnySnunBRTWVhQXBNSqclkSuu-4sQ/mtime:1679563384/sites/default/files/recursosturisticos/alojamientos/hostal_pez_azul.png
67728;2023-03-23;Hispalense;info@hostalhispalense.es ;(+34) 91 542 18 52;https://www.esmadrid.com/alojamientos/hispalense;Fuentes, 12, 2º izq;28013;;Spain;40.4175434;-3.7086373;Hostales;2 estrellas;https://estaticos.esmadrid.com/cdn/farfuture/U37FbBE-Dd4yYehQMTEpHE0KAvUpl4l767q3ynamPgk/mtime:1679570214/sites/default/files/recursosturisticos/alojamientos/hostal_hispalense_1_0.png
67724;2023-03-23;Hostal Chelo;reservas@chelo.com;(+34) 91 532 70 33;https://www.esmadrid.com/alojamientos/hostal-chelo;Hortaleza , 17-3º I;28004;;Spain;40.4212338;-3.7004618;Hostales;2 estrellas;https://estaticos.esmadrid.com/cdn/farfuture/Tp-26a7y258msp5-NZx5coFUG_-ddwWstIDawGzKi_4/mtime:1679564429/sites/default/files/recursosturisticos/alojamientos/hostal_chelo.png
67725;2023-03-23;"Pensi&oacute;n Corbero";;(+34) 91 429 93 09;https://www.esmadrid.com/alojamientos/pension-corbero;Cervantes, 34;28014;;Spain;40.4141728;-3.6962286;Pensiones;2 estrellas;https://estaticos.esmadrid.com/cdn/farfuture/bbs8xSQqr6k4DBqb1UxvExDwjWIBaaj5NJhLUPyRdhk/mtime:1532509749/sites/default/files/recursosturisticos/alojamientos/corbero_2__0.jpg
67241;2023-03-23;"Casa de Hu&eacute;spedes Casillas";chcasillas4@gmail.com;+34 658 794 815;https://www.esmadrid.com/alojamientos/casa-huespedes-casillas;Hortaleza, 4-4º D;28004;;Spain;40.4205831;-3.7008971;Pensiones;2 estrellas;https://estaticos.esmadrid.com/cdn/farfuture/u10L7bYToUPNUY5majz58E30v9-rzy1OrmMGJUULQpQ/mtime:1679579344/sites/default/files/recursosturisticos/alojamientos/ch_casillas_0.png
67785;2023-03-28;"Pensi&oacute;n Berti";pensionbertimadrid@gmail.com;(+34) 918 27 56 71;https://www.esmadrid.com/alojamientos/pension-berti;Hortaleza, 7;28004;;Spain;40.4206125;-3.7008787;Pensiones;1 estrella;https://estaticos.esmadrid.com/cdn/farfuture/DQ2xHZmqO-pwRve2SuUkdPBrubNVhT4E8MnzY3Vgi7w/mtime:1680003337/sites/default/files/recursosturisticos/alojamientos/pension_berti_3.png
67786;2023-03-28;Hostal Adis Madrid;hadismadrid@gmail.com;(+34) 910006473;https://www.esmadrid.com/alojamientos/hostal-adis-madrid;La puebla, 14-1º;28004;;Spain;40.4222066;-3.7030833;Hostales;2 estrellas;https://estaticos.esmadrid.com/cdn/farfuture/5vDMMKdMCVP_o2igVtan_XhzanzZbOKBnbYnTdqlqpA/mtime:1679995649/sites/default/files/recursosturisticos/alojamientos/hostal_adis_madrid.png
67240;2023-03-28;"Pensi&oacute;n Numancia";info@pensionnumancia.es;(+34)  91 448 20 74;https://www.esmadrid.com/alojamientos/pension-numancia;Fernández de los Ríos, 3º-4º I;28015;;Spain;40.4349407;-3.7052092;Pensiones;1 estrella;https://estaticos.esmadrid.com/cdn/farfuture/aiV7-Qb3gsuztPscW_VT1uxPD1F1LdoAmPDQz_PYWpc/mtime:1532517031/sites/default/files/recursosturisticos/alojamientos/pensicon_numancia_2_.jpg
67829;2023-03-30;Angelines;info@hostalangelines.com;(+34) 91 543 56 40;https://www.esmadrid.com/alojamientos/angelines;Hilarión Eslava, 12-bajo;28015;;Spain;40.433372;-3.7168131;Pensiones;1 estrella;https://estaticos.esmadrid.com/cdn/farfuture/feORvOJ-TjpiJQ4nFVqn9tuEpzvW7fnWmIMk-q9qqwY/mtime:1532519126/sites/default/files/recursosturisticos/alojamientos/angelines_.jpg
67720;2023-03-28;Hostal Fuencarral Adeco;pensionadeco@hotmail.com;(+34) 915 31 73 89;https://www.esmadrid.com/alojamientos/hostal-fuencarral-adeco;Fuencarral, 27-2º;28004;;Spain;40.4217945;-3.701032;Pensiones;1 estrella;https://estaticos.esmadrid.com/cdn/farfuture/lE_NE-FthtbywIrvq3gASQL_pAinKWpFpvoxbu3tlEM/mtime:1680007199/sites/default/files/recursosturisticos/alojamientos/fuencarral_adeco_0.png
67828;2023-03-30;Alaska;hostalalaska@hotmail.com;(+34) 91 524 92 08;https://www.esmadrid.com/alojamientos/alaska;Espoz y Mina, 7-4º dch;28012;;Spain;40.4158952;-3.702363;Hostales;1 estrella;https://estaticos.esmadrid.com/cdn/farfuture/UfY09jfUAqsCqSyFAT4xTcK2AuFTrL09FKnmPAQBECg/mtime:1532519581/sites/default/files/recursosturisticos/alojamientos/hostal_alaska_.jpg
67239;2023-03-21;Ilunion Hotels Atrium;reservasatrium@ilunionhotels.com ;(+34) 91 398 38 70;https://www.esmadrid.com/alojamientos/ilunion-hotels-atrium;Emilio Vargas, 3 y 5;28043;;Spain;40.4475674;-3.6552612;Hoteles;4 estrellas;https://estaticos.esmadrid.com/cdn/farfuture/XtS2MvNRfhuSnI27OUeIBKF8WeZIjQd7Ue3W1tlUmjw/mtime:1679403075/sites/default/files/recursosturisticos/alojamientos/ilunion_atrium_0.png
67716;2023-03-15;NH Las Tablas;nhlastablas@nh-hotels.com;(+34) 91 718 69 99 ;https://www.esmadrid.com/alojamientos/nh-las-tablas;Burgos, 131;28050;;Spain;40.4984272;-3.6648217;Hoteles;4 estrellas;https://estaticos.esmadrid.com/cdn/farfuture/9pqK_p6gn6W2agVVBE5oAjWgAKmES85-M48R-IjZWH0/mtime:1678881622/sites/default/files/recursosturisticos/alojamientos/nh_las_tablas_room_standard_bed_1.jpg
67827;2023-03-15;Los Coronales;reservas@hostalcoronales.com;(+34) 91 748 15 45 ;https://www.esmadrid.com/alojamientos/los-coronales;Briones, 38;28042;;Spain;40.466579;-3.5901167;Hostales;3 estrellas;https://estaticos.esmadrid.com/cdn/farfuture/m_MgcFi-_OdL6JMbhe63lDKA_g8M9HO9f7tdFJKvDso/mtime:1532937145/sites/default/files/recursosturisticos/alojamientos/los_coronales__0.jpg
67718;2023-03-15;Apartamentos Madrid;info@apartamentosmadrid.com;(+34) 914 20 09 28;https://www.esmadrid.com/alojamientos/apartamentos-madrid;Atocha, 19-1 izq;28012;;Spain;40.408979;-3.691728;Apartahoteles;1 llave;https://estaticos.esmadrid.com/cdn/farfuture/2S0SkeMtoE8TuZ-HigclDVKkBg8t1HKHopq9F_qGaa4/mtime:1678887334/sites/default/files/recursosturisticos/alojamientos/apartamentos_madrid_1.png
67717;2023-03-15;Compostela Suites;reservas@compostelasuites.com;(+34) 91 748 00 90 ;https://www.esmadrid.com/alojamientos/compostela-suites;Zambrana, 4;28022;;Spain;40.4476712;-3.5803041;Apartahoteles;3 llaves;https://estaticos.esmadrid.com/cdn/farfuture/EmVvsw5RL6nORTlENXNfEnkgdGiaybWVoy7A2Yxm8-E/mtime:1678885823/sites/default/files/recursosturisticos/alojamientos/compostela_suites_1.png
67715;2024-05-06;Rosewood Villa Magna;villamagna@rosewoodhotels.com;(+34) 91 587 12 34;https://www.esmadrid.com/alojamientos/rosewood-villa-magna;Castellana, 22;28046;;Spain;40.4299515;-3.6881525;Hoteles;5 estrellas Gran Lujo;https://estaticos.esmadrid.com/cdn/farfuture/LA87vK3babU4Fcy4b-nQVb5Ix3dliiRnI5iP_XuYR9M/mtime:1710332828/sites/default/files/recursosturisticos/alojamientos/rosewood_villamagna_7.png
67826;2024-04-17;"Hotel Eco V&iacute;a Lusitana";ecovialusitana@ecohoteles.com;(+34) 91 511 03 80;https://www.esmadrid.com/alojamientos/hotel-eco-via-lusitana;Secoya, 2;28044;;Spain;40.3726052;-3.7422791;Hoteles;3 estrellas;https://estaticos.esmadrid.com/cdn/farfuture/SLEBNAQhCtJllZYpTUF2aSxU2vPQ9N1t3UxWh5kM2I8/mtime:1524832474/sites/default/files/recursosturisticos/alojamientos/HotelEco_1395050675.449.jpg
67825;2024-02-27;Eurostars Madrid Tower;reservations@eurostarsmadridtower.com;(+34) 91 334 27 00 ;https://www.esmadrid.com/alojamientos/eurostars-madrid-tower;de la Castellana, 259 B;28046;;Spain;40.476741677704;-3.687930107117;Hoteles;5 estrellas;https://estaticos.esmadrid.com/cdn/farfuture/8wc4-Oy2VxvVBoo1fDsuplZiaXqSNRFqkkZAviXTiV4/mtime:1524832474/sites/default/files/recursosturisticos/alojamientos/eurostars8.jpg
67714;2023-03-22;Petit Palace Plaza Mayor;plazamayor@petitpalace.com;(+34)   91 800 49 94;https://www.esmadrid.com/alojamientos/petit-palace-plaza-mayor;Mayor, 46;28013;;Spain;40.4159857;-3.7090799;Hoteles;4 estrellas;https://estaticos.esmadrid.com/cdn/farfuture/SSkD_dmusA4ah76NgQHGUfkuc2QyQKSQinX5n72sLxo/mtime:1678960574/sites/default/files/recursosturisticos/alojamientos/petit-palace-plaza-mayor-_1.png
67238;2023-03-15;"Hostal Hispano-Gran V&iacute;a";info@hostalhispano.com;+34 915 218 780;https://www.esmadrid.com/alojamientos/hostal-hispano-gran;Hortaleza, 38;28004;;Spain;40.421948;-3.6998037;Hostales;2 estrellas;https://estaticos.esmadrid.com/cdn/farfuture/TmdfPlRcoUyLVlVGMJUnBAIIQjVQXEso8xGaS69b7Pw/mtime:1678891956/sites/default/files/recursosturisticos/alojamientos/hostal_hispano_gran_via_1.png
67713;2023-03-16;Hotel Julia;madrid@hoteljulia.es;(+34) 91 440 12 17 ;https://www.esmadrid.com/alojamientos/hotel-julia;Julián Camarillo, 9;28037;;Spain;40.4342;-3.63272;Hoteles;2 estrellas;https://estaticos.esmadrid.com/cdn/farfuture/ss56DoTgZoVjf2CP13lQaIHD8RSLZ07QjAp3jcKAkBY/mtime:1678964111/sites/default/files/recursosturisticos/alojamientos/hotel_julia_3.png
67824;2024-09-30;Hilton Madrid Airport;info.madridairport@hilton.com;(+34) 91 153 40 00  ;https://www.esmadrid.com/alojamientos/hilton-madrid-airport;de la Hispanidad, 2-4;28042;;Spain;40.452180440898;-3.585748672485;Hoteles;4 estrellas;https://estaticos.esmadrid.com/cdn/farfuture/UIq9aDV_j5GyxurpX85MDsWY3LEIvmWKrCP5PjmH0_U/mtime:1727697773/sites/default/files/recursosturisticos/alojamientos/hilton_madrid_airport_2_2.png
67822;2023-06-30;Maydrit Airport;reservasmaydrit@h-santos.es;(+34) 91 196 92 00;https://www.esmadrid.com/alojamientos/maydrit-airport;Piragua, 1;28042;;Spain;40.4514;-3.593112;Hoteles;4 estrellas;https://estaticos.esmadrid.com/cdn/farfuture/_etdvRe39F1d3pA1ypzqmiAUE7v42SilKl3W7ldWgtI/mtime:1688119813/sites/default/files/recursosturisticos/alojamientos/maydrit_airport.png
67237;2023-03-16;"Limehome Ram&oacute;n de la Cruz 41";;(+34)  911 23 33 37;https://www.esmadrid.com/alojamientos/apartamentos-ramon-de-la-cruz;Ramón de la Cruz, 41;28001;;Spain;40.428963;-3.680408;Apartahoteles;1 llave;https://estaticos.esmadrid.com/cdn/farfuture/BAhTO2xWaNj-1Qi_0xbBK7ABfvccewF2wQEx9UXvPKs/mtime:1678967416/sites/default/files/recursosturisticos/alojamientos/limehome_ramon_de_la_cruz_1.png
67782;2023-07-03;"Ibis Madrid Calle Alcal&aacute;";H3312@ACCOR.COM;(+34) 91 375 90 43 ;https://www.esmadrid.com/alojamientos/ibis-madrid-alcala-hotel;Valentín Beato, 20;28037;;Spain;40.4393942;-3.6264506;Hoteles;1 estrella;https://estaticos.esmadrid.com/cdn/farfuture/KnKw_L3Dk-RjmzL-EUZZllbHt2BIGRZpcDkNZiDjexs/mtime:1532942968/sites/default/files/recursosturisticos/alojamientos/ibis_madrid_3_.jpg
67783;2023-03-07;"B&amp;B Hotel Madrid Aeropuerto T1-T2-T3";hotel.madridairportt1t2t3@hotelbb.com;(+34) 91 748 16 57;https://www.esmadrid.com/alojamientos/bb-hotel-madrid-aeropuerto-t1-t2-t3;Lola Flores, 2;28022;;Spain;40.4476821;-3.5488583;Hoteles;3 estrellas;https://estaticos.esmadrid.com/cdn/farfuture/7F_MnB7MRebMFBpJE5kc4iH11gpu4qqOfSSEHQhdZp4/mtime:1678195187/sites/default/files/recursosturisticos/alojamientos/bb_hotel_madrid_aeropuerto_t1-t2-t3.png
67781;2023-03-16;"Eco Alcal&aacute; Suites";alcalasuites@ecohoteles.com;(+34) 91 440 10 54;https://www.esmadrid.com/alojamientos/eco-alcala-suites;Santa Leonor, 24;28037;;Spain;40.437748;-3.631643;Hoteles;4 estrellas;https://estaticos.esmadrid.com/cdn/farfuture/Xz1UqG7FSMWmcyXOhPznEUPJHWnKU60161YVv6RaQ94/mtime:1524832472/sites/default/files/recursosturisticos/alojamientos/1363294982_3062010115514_adj.jpg
67780;2024-11-05;"Suites Viena Plaza de Espa&ntilde;a";reservas@suitesviena.es;(+34) 91 758 36 05 ;https://www.esmadrid.com/alojamientos/suites-viena-plaza-espana;Juan Álvarez Mendizábal, 17;28008;;Spain;40.42483;-3.714895;Hoteles;3 estrellas;https://estaticos.esmadrid.com/cdn/farfuture/9vwNgKj-fTA90i98Wd8O2j_gi4ELTXNySdiX-EwQpn8/mtime:1678973393/sites/default/files/recursosturisticos/alojamientos/suites_viena_plaza_de_espana.png
67712;2024-07-12;"Adri&aacute; Santa Ana";info@hostaladriasantaana.com;(+34) 91 521 13 39;https://www.esmadrid.com/alojamientos/adria-santa-ana;Nuñez del Arce, 15, 3º;28012;;Spain;40.4151746;-3.7012781;Hostales;3 estrellas;https://estaticos.esmadrid.com/cdn/farfuture/3d4Nboi8Kab-75gvx3camAwomniKzF0_fALk9KiRnbg/mtime:1670239788/sites/default/files/recursosturisticos/alojamientos/hostal-adria-staana-11.jpg
67226;2023-03-17;Armesto;reservas@hostalarmesto.com;(+34) 91 429 90 31;https://www.esmadrid.com/alojamientos/armesto;San Agustín, 6, 1º D;28014;;Spain;40.414906;-3.696927;Hostales;2 estrellas;https://estaticos.esmadrid.com/cdn/farfuture/xp5G6MQyijQ30qd8kMnVzzlUCP6lPsoLlcF_pEueDJA/mtime:1679044971/sites/default/files/recursosturisticos/alojamientos/hostal_armesto.png
67777;2023-03-07;Occidental Castellana Norte;castellananorte@occidentalhotels.com ;(+34) 91 383 09 50;https://www.esmadrid.com/alojamientos/occidental-castellana-norte;Manoteras, 20;28050;;Spain;40.4884151;-3.6687308;Hoteles;4 estrellas;https://estaticos.esmadrid.com/cdn/farfuture/Q5kb6GqCxM8Qs1HJOcWbYL_xQJ3fTgCsHmtwo2pZb6o/mtime:1678196734/sites/default/files/recursosturisticos/alojamientos/occidental_castellana_norte.png
67821;2023-03-17;Hostal La Fontana ;info@hostallafontana.com;(+34) 91 521 84 49 ;https://www.esmadrid.com/alojamientos/hostal-la-fontana;de Valverde , 6, 1º;28004;;Spain;40.420834;-3.702205;Hostales;2 estrellas;https://estaticos.esmadrid.com/cdn/farfuture/FoITVEsxew2WBdihZ0WwGTrKnZhDCVwUEZkvWC57bIY/mtime:1679047156/sites/default/files/recursosturisticos/alojamientos/hostal_la_fontana_2.png
67710;2023-03-17;Pizarro;informacion@hostalpizarro.eu;(+34) 91 531 91 58;https://www.esmadrid.com/alojamientos/pizarro;Pizarro, 14;28004;;Spain;40.42313;-3.705918;Hostales;3 estrellas;https://estaticos.esmadrid.com/cdn/farfuture/5KuWCt8O0SE5W0fjO3_d__KsQVtI_9UbpHE9KpaPa0M/mtime:1679050554/sites/default/files/recursosturisticos/alojamientos/hostal_pizarro_4.png
67709;2024-06-06;"Room Mate &Oacute;scar ";oscar@room-matehotels.com;(+34) 91 701 11 73;https://www.esmadrid.com/alojamientos/room-mate-oscar;Pedro Zerolo , 12;28004;;Spain;40.4206586;-3.6991975;Hoteles;3 estrellas;https://estaticos.esmadrid.com/cdn/farfuture/fRYI3M4oy7L_yR2kEGawovyJYEAtAJFFzrHa9e8pATg/mtime:1717677762/sites/default/files/recursosturisticos/alojamientos/room_mate_oscar_terraza_3.jpg
67814;2023-03-17;Apartamentos Juan Bravo;juanbravo@apartamentos-jb.com;(+34) 91 402 98 00;https://www.esmadrid.com/alojamientos/apartamentos-juan-bravo;Juan Bravo, 58;28006;;Spain;40.4322116;-3.6742632;Apartahoteles;1 llave;https://estaticos.esmadrid.com/cdn/farfuture/W0N6MrgOTHL17nr0GnooiQxL8AFhPPkwdkGXiEq2okA/mtime:1532951217/sites/default/files/recursosturisticos/alojamientos/apartamentos_juan_bravo_.jpg
67235;2023-03-17;Hostal MuchoMadrid;reservas@muchomadrid.com;(+34) 91 559 23 50 ;https://www.esmadrid.com/alojamientos/hostal-mucho-madrid;Gran Vía 59, 7ºdr;28013;;Spain;40.42225;-3.709113;Albergues;;https://estaticos.esmadrid.com/cdn/farfuture/9yQ3BFGul8rZkYbkHPufMAh9ocSI1Pe4JXRmttR_olQ/mtime:1679056320/sites/default/files/recursosturisticos/alojamientos/hostal_mucho_madrid.png
67231;2023-03-17;Cats Chill Out Hostel;info@madhostel.com ;(+34) 91 506 48 40;https://www.esmadrid.com/alojamientos/cats-chill-out-hostel;De la Cabeza, 24;28012;;Spain;40.411934;-3.702172;Albergues;;https://estaticos.esmadrid.com/cdn/farfuture/9BFUzfah7e4GPVkjZlhk3kzkjG2tNoxA4Lnbj3BxKyk/mtime:1532949984/sites/default/files/recursosturisticos/alojamientos/cats_chill_out_hostel_2_.jpg
67232;2023-03-17;"San Ferm&iacute;n";albergue@san-fermin.org;(+34) 91 792 08 97 ;https://www.esmadrid.com/alojamientos/san-fermin;de los Fueros, 36;28041;;Spain;40.37039;-3.688983;Albergues;;https://estaticos.esmadrid.com/cdn/farfuture/HmjcIbUmk4waWyu77oXQUFj0wW_gqBL4-ra-AY0xepU/mtime:1679058207/sites/default/files/recursosturisticos/alojamientos/albergue_juvenil_san_fermin.png
67775;2023-06-27;Cats Hostel Madrid Sol;madridsol@catshostels.com;(+34) 91 369 28 07;https://www.esmadrid.com/alojamientos/cats-hostel-madrid-sol;de los Cañizares, 6;28012;;Spain;40.413143;-3.701653;Albergues;;https://estaticos.esmadrid.com/cdn/farfuture/pcvJyXSJJO1OGxfX2EKBbAm7AKvoBE4Jz_WwMQhCnOU/mtime:1562933506/sites/default/files/recursosturisticos/alojamientos/nueva2.jpg
67228;2023-03-22;Sonder Santa Ana;inquiries@sonder.com;+34 618 56 78 74;https://www.esmadrid.com/alojamientos/sonder-santa-ana;Príncipe, 11;28012;;Spain;40.415874;-3.700367;Apartahoteles;2 llaves;https://estaticos.esmadrid.com/cdn/farfuture/iDTIh0vhioUeaNshXIwvrQO5hK06x2MlzFYClsEIwOA/mtime:1678458427/sites/default/files/recursosturisticos/alojamientos/sonder_santa_ana.png
67707;2023-10-25;"VP El Madro&ntilde;o";md@vphoteles.com;(+34) 91 562 52 92 ;https://www.esmadrid.com/alojamientos/vp-madrono;del General Díaz Porlier, 101;28006;;Spain;40.435055;-3.67641;Hoteles;3 estrellas;https://estaticos.esmadrid.com/cdn/farfuture/_OSiWPW7NqfD452xaDR_Dq7WmUES5uY5Hlas1PDS6A8/mtime:1698230379/sites/default/files/recursosturisticos/alojamientos/vp_madrono_6.png
67212;2024-02-29;"Residencia U. Nuestra Se&ntilde;ora del Rosario"; resimadrid@gmail.com;(+34) 91 435 60 13 ;https://www.esmadrid.com/alojamientos/residencia-u-nuestra-senora-del-rosario;Don ramón de la Cruz, 4;28001;;Spain;40.429317;-3.6868313;Residencias universitarias;;https://estaticos.esmadrid.com/cdn/farfuture/Qta3CrYSBnmZRzC0-FsgHFj4qj5bEo9pkopE2rwS1So/mtime:1709204282/sites/default/files/recursosturisticos/alojamientos/residencia_universitaria_rosario.png
67230;2023-03-13;Aparthotel Serrano Recoletos;info@apart-hotelserranorecoletos.com;(+34) 91 431 91 00;https://www.esmadrid.com/alojamientos/aparthotel-serrano-recoletos;Villanueva , 2;28001;;Spain;40.42306;-3.690676;Apartahoteles;2 llaves;https://estaticos.esmadrid.com/cdn/farfuture/HtqdduZ1VTxUB9Cck0s6qJvOAvNDvYbHCI-oZM_Hy1M/mtime:1678717471/sites/default/files/recursosturisticos/alojamientos/aparthotel_serrano.png
67229;2023-03-10;Apartamentos Olano;info@apartamentosolano.es;(+34) 91 519 15 20;https://www.esmadrid.com/alojamientos/apartamentos-olano;Ros de Olano, 2;28002;;Spain;40.445118;-3.67257;Apartahoteles;1 llave;https://estaticos.esmadrid.com/cdn/farfuture/F_fpb4P1-hpqKWHBOpOyW7Ych1V9f7zwa6sOMwKNKfo/mtime:1524832474/sites/default/files/recursosturisticos/alojamientos/ol_1429785552.425.jpg
67227;2023-03-10;Apartamentos Goya 75;info@apartamentosgoya75.com;(+34) 91 435 63 46;https://www.esmadrid.com/alojamientos/apartamentos-goya-75;General Pardiñas, 13;28001;;Spain;40.42516;-3.678654;Apartahoteles;3 llaves;https://estaticos.esmadrid.com/cdn/farfuture/7eWMjpRMNa6H6AJ1fxsOeb8qeqKfGpXitHWqYIYCJlA/mtime:1678455089/sites/default/files/recursosturisticos/alojamientos/apartementos_goya.png
67224;2024-09-10;The Pavilions Madrid;Info.madrid@pavilionshotels.com;(+34) 91 310 75 00;https://www.esmadrid.com/alojamientos/pavilions-madrid;Amador de los Ríos, 3;28010;;Spain;40.427079362067;-3.691411614418;Hoteles;4 estrellas;https://estaticos.esmadrid.com/cdn/farfuture/gS6e3-RuLKJ7SuDtrlegWiDOogjCB6sLX_sX2pcB0fE/mtime:1527686491/sites/default/files/recursosturisticos/alojamientos/pavilion_1.jpg
67223;2023-03-09;"Residencia U. Instituci&oacute;n del Divino Maestro";solicitudes@instituciondeldivinomaestro.es ;(+34)  91 531 08 98;https://www.esmadrid.com/alojamientos/residencia-u-institucion-del-divino-maestro;San Vicente Ferrer, 82;28015;;Spain;40.42623;-3.708466;Residencias universitarias;;https://estaticos.esmadrid.com/cdn/farfuture/l2tj0Ma_jSnDh3rttq_iyqeL4IDTbMfWgb7n4F-MgBw/mtime:1678370719/sites/default/files/recursosturisticos/alojamientos/residencia_universitaria_indima.png
67222;2023-03-09;"Residencias de Postgraduados P&iacute;o XI y Le&oacute;n XIII"; info@fpablovi.org;(+34) 915 141 700;https://www.esmadrid.com/alojamientos/residencia-de-postgraduados-pio-xi-y-leon-xiii;Juan XXIII, 3;28040;;Spain;40.444874;-3.719954;Residencias universitarias;;https://estaticos.esmadrid.com/cdn/farfuture/eGuCaPfcClbUsn08tZxzLYmxJwekIk3ZwKlp2DhNTkA/mtime:1678373937/sites/default/files/recursosturisticos/alojamientos/residencias_de_postgraduados_pio_xi.png
67220;2023-03-10;Stylish city aparhotel;alejandro_groizard@yahoo.com ;(+34) 634259009 ;https://www.esmadrid.com/alojamientos/stylish-city-aparhotel;Luis Cabrera, 37;28002;;Spain;40.44314;-3.674407;Apartahoteles;3 llaves;https://estaticos.esmadrid.com/cdn/farfuture/_Uu9WXuag-rrYGfX-XEREEq61lgKJBnWUQY2H139RxA/mtime:1678452485/sites/default/files/recursosturisticos/alojamientos/stylish-city-apartamentos_1.png
67219;2023-03-10;Residencia Universitaria Augustinus-Nebrija;residencias@nebrija.es;(+34) 91 452 11 50;https://www.esmadrid.com/alojamientos/residencia-universitaria-augustinus-nebrija;Cea Bermúdez, 59;28003;;Spain;40.439056;-3.715409;Residencias universitarias;;https://estaticos.esmadrid.com/cdn/farfuture/e4T1EBoNuY4lqogcKZwqecnAfJ3hBL0kYyXr8OlN-DA/mtime:1524834484/sites/default/files/10.jpg
67213;2023-03-14;"Residencia U. Siervas del Sagrado Coraz&oacute;n";BASIBEA@HOTMAIL.COM;(+34) 91 766 46 89;https://www.esmadrid.com/alojamientos/residencia-u-siervas-del-sagrado-corazon;Cardenal Marcelo Spínola, 40;28016;;Spain;40.46811;-3.670696;Residencias universitarias;;https://estaticos.esmadrid.com/cdn/farfuture/4ysXFTt3MbCS9aGlTdTXNl5uEJ2Sno4e9VE2SeX-AkU/mtime:1678795488/sites/default/files/recursosturisticos/alojamientos/residencia-de-estudiantes-sagrado-corazn-baner-2.png
67214;2023-03-10;Residencia Universitaria Virgen de las Nieves;residenciavirgennieves@gmail.com;(+34) 91 559 99 52;https://www.esmadrid.com/alojamientos/residencia-universitaria-virgen-de-las-nieves;Bravo Murillo, 297, portal 2, escalera b, piso 2.;28020;;Spain;40.46162;-3.697949;Residencias universitarias;;https://estaticos.esmadrid.com/cdn/farfuture/NDUsCWi0d8F6QnoqUe-Yig2ySM8YvIOVQYEiGNRSt9I/mtime:1524834511/sites/default/files/hab_individual.jpg
67215;2023-03-10;Residencia Universitaria Cardenal Spinola;residencia@ruspinolamadrid.es;(+34) 91 533 14 05 ;https://www.esmadrid.com/alojamientos/residencia-universitaria-cardenal-spinola;del Maestro Ángel Llorca, 11;28003;;Spain;40.4441195;-3.7142049;Residencias universitarias;;https://estaticos.esmadrid.com/cdn/farfuture/IfrVgmvRu4gZ1YtQo4ErfKF3Q05UC7-9y8Q_hfeQ5tk/mtime:1678448947/sites/default/files/recursosturisticos/alojamientos/residencia_universitaria_cardenal_spinola_1.png
67216;2023-03-10;"Apartamentos Centro Col&oacute;n"; reservas@apartahotel-centro-colon.es;(+34) 91 349 00 00 ;https://www.esmadrid.com/alojamientos/apartamentos-centro-colon;Marqués de la Ensenada, 16;28004;;Spain;40.42529;-3.692233;Apartahoteles;3 llaves;https://estaticos.esmadrid.com/cdn/farfuture/rFW-BLAkINv-bGy73wo5uPtpE8ja9C9bFrMqucoVPjE/mtime:1678450229/sites/default/files/recursosturisticos/alojamientos/apartamentos_centro_colon_1.png
67218;2023-03-10;"Residencia Universitaria Mar&iacute;a Inmaculada";resid.riosrosas.es@religiosasmariainmaculada.org;(+34) 91 442 60 11;https://www.esmadrid.com/alojamientos/residencia-universitaria-maria-inmaculada;Ponzano, 66;28003;;Spain;40.4428251;-3.6988729;Residencias universitarias;;https://estaticos.esmadrid.com/cdn/farfuture/Y3xYykk7gYvmVrqSVj1bcfhwE4AierWNzEC9SaQtwl4/mtime:1678451525/sites/default/files/recursosturisticos/alojamientos/residencia_maria_inmaculada.png
67694;2023-02-28;Colegio Mayor Santillana;cmsantillana@cmsantillana.org;(+34) 91 735 50 31;https://www.esmadrid.com/alojamientos/colegio-mayor-santillana;Marbella, 60;28034;;Spain;40.49471;-3.706283;Residencias universitarias;;https://estaticos.esmadrid.com/cdn/farfuture/MGMu1_-hbq5fh_YmgBNUqF57YpwpaDnxelzalTp_ato/mtime:1677593107/sites/default/files/recursosturisticos/alojamientos/colegio_mayor_santillana.png
67693;2023-03-01;Colegio Mayor San Pablo;colegiomayor@cmusp.com;(+34) 91 598 96 00;https://www.esmadrid.com/alojamientos/colegio-mayor-san-pablo;Isaac Peral, 58;28040;;Spain;40.440326421945;-3.715342283249;Residencias universitarias;;https://estaticos.esmadrid.com/cdn/farfuture/-wcljUcDb1mfUCKzkW_E3BHv0GHMFy0_q7MTnVcgfgQ/mtime:1677675379/sites/default/files/recursosturisticos/alojamientos/c.m._san_pablo_ceu_7.png
67696;2023-02-20;Colegio Mayor Antonio de Nebrija ;;(+34) 91 394 10 05  ;https://www.esmadrid.com/alojamientos/colegio-mayor-antonio-de-nebrija;Séneca, 8;28040;;Spain;40.435673;-3.727911;Residencias universitarias;;https://estaticos.esmadrid.com/cdn/farfuture/W6tayUKYwCDAsib-8cOvA_DEzwrI5osjqe8jR8DxKCs/mtime:1676894681/sites/default/files/recursosturisticos/alojamientos/c.m.antonio_de_nebrija-2.png
67697;2023-03-07;Residencia Universitaria Ciudad Escolar;residenciadeestudiantes@educa.madrid.org;(+34) 91 734 27 00 ;https://www.esmadrid.com/alojamientos/residencia-universitaria-ciudad-escolar;Colmenar Viejo, km 12, 80;28049;;Spain;40.5239;-3.68726;Residencias universitarias;;https://estaticos.esmadrid.com/cdn/farfuture/lVM9W4ViVDRZsmwSPpiimZcpeTivu0nfjGQ7iG-qCEA/mtime:1678199378/sites/default/files/recursosturisticos/alojamientos/residencia_universitaria_ciudad_escolar_1.png
67699;2023-02-28;"Residencia Universitaria Nebrija-Chamber&iacute;";residencias@nebrija.es;(+34) 91 447 12 00;https://www.esmadrid.com/alojamientos/residencia-universitaria-nebrija-chamberi;Nicasio Gallego, 12;28010;;Spain;40.42953;-3.698915;Residencias universitarias;;https://estaticos.esmadrid.com/cdn/farfuture/Z1zXVtZQfHxXJn9cMcBHGR88r6DrjMBSORr-VGsG5kc/mtime:1533288989/sites/default/files/recursosturisticos/alojamientos/nebrija1.jpg
67700;2023-02-28;Residencia Universitaria Madre del Divino Pastor;residenciamdp@yahoo.es;(+34) 91 543 83 64;https://www.esmadrid.com/alojamientos/residencia-universitaria-madre-del-divino-pastor;Andrés Mellado, 31;28015;;Spain;40.433537;-3.714497;Residencias universitarias;;https://estaticos.esmadrid.com/cdn/farfuture/3N7iCYqpMhpECQp5SqW1vKDgPulVfM5gV5n3TbacQCM/mtime:1533293287/sites/default/files/recursosturisticos/alojamientos/divino1.jpg
67701;2023-02-28;"Residencia Nuestra Se&ntilde;ora de Coromoto";info@residenciacoromoto.es;(+34) 91 553 54 16;https://www.esmadrid.com/alojamientos/residencia-nuestra-senora-de-coromoto;Poeta Ángela Figuera, 19 ;28003;;Spain;40.444965;-3.716383;Residencias universitarias;;https://estaticos.esmadrid.com/cdn/farfuture/2FmlHw-5Y3d1iFK5S2_Sp4QEHn1bMZ_2AnzIs5hLFA0/mtime:1677588570/sites/default/files/recursosturisticos/alojamientos/residencia_nuestra_senora_de_coromoto_2.png
67703;2023-02-28;"Residencia Sant&iacute;sima Trinidad";resitrinitariasaltamirano@gmail.com;(+34) 91 548 49 44;https://www.esmadrid.com/alojamientos/residencia-santisima-trinidad;Altamirano, 9;28008;;Spain;40.4308539;-3.7184695;Residencias universitarias;;https://estaticos.esmadrid.com/cdn/farfuture/Np2hkqKVzOxVh3HycQB-52Ro3uXHs46SpVXbq7MpQys/mtime:1533295996/sites/default/files/recursosturisticos/alojamientos/trinidad1.jpg
67704;2023-02-28;Aparthotel Quo Eraso;quoeraso@homeabout.es;(+34) 689 35 75 33;https://www.esmadrid.com/alojamientos/aparthotel-quo-eraso;Ardemans, 13;28028;Madrid;Spain;40.43392;-3.671806;Apartahoteles;3 llaves;https://estaticos.esmadrid.com/cdn/farfuture/HTxoSbqNmP_Ryc1stM3k_f7fXJORjKIpojEXBaa4eSM/mtime:1677579048/sites/default/files/recursosturisticos/alojamientos/hotel_quo_eraso.png
67705;2023-02-28;Residencia Trinitarias de Madrid;resitrinitariasurquijo@gmail.com;(+34) 91 541 22 78 ;https://www.esmadrid.com/alojamientos/residencia-trinitarias-de-madrid;Marques de Urquijo, 18;28008;;Spain;40.429977;-3.718278;Residencias universitarias;;https://estaticos.esmadrid.com/cdn/farfuture/vIbPLGIclXvLxe2mCuuifK9pHdVsM5q3uX9-fZavwoA/mtime:1677576939/sites/default/files/recursosturisticos/alojamientos/residencia_trinitarias_de_madrid.png
67695;2024-06-21;"Espahotel Plaza Bas&iacute;lica";plazabasilica@espahotel.es;(+34) 91 535 36 42;https://www.esmadrid.com/alojamientos/aparthotel-plaza-basilica;Comandante Zorita, 27-31;28020;;Spain;40.449835266989;-3.698455095291;Apartahoteles;3 llaves;https://estaticos.esmadrid.com/cdn/farfuture/WFwaANfG-XRVVU99G0tvJgZBmGXi8U2YNd69K6E_Du0/mtime:1718965053/sites/default/files/recursosturisticos/alojamientos/espahotel_plaza_basilica_0.png
67198;2023-02-28;"Residencia Universitaria Benito P&eacute;rez Gald&oacute;s";galdos@yugo.com;(+34) 91 144 16 54;https://www.esmadrid.com/alojamientos/residencia-universitaria-benito-perez-galdos;Ramiro de Maeztu, 2;28040;;Spain;40.4491;-3.718392;Residencias universitarias;;https://estaticos.esmadrid.com/cdn/farfuture/NTqzmJvWOZ_3w3ZvxLcbpCAhSRfCbnk_gq1V8KYuW9c/mtime:1677596061/sites/default/files/recursosturisticos/alojamientos/residencia_universitaria_benito_perez_galdos.png
67197;2023-03-08;Residencia de Estudiantes EASO;info@easo.es;(+34) 91 542 31 83 ;https://www.esmadrid.com/alojamientos/residencia-de-estudiantes-easo;Gran Vía, 64-8º Iz;28013;;Spain;40.4221;-3.708881;Residencias universitarias;;https://estaticos.esmadrid.com/cdn/farfuture/Ho1927PwyuQW9xaT-5uNybDekCyMGk82JsXWs51P_Yk/mtime:1533210796/sites/default/files/recursosturisticos/alojamientos/easo1.jpg
67196;2023-03-08;"Residencia Universitaria G&oacute;mez-Pardo";residencia@fgomezpardo.es ;(+34) 91 441 79 21 ;https://www.esmadrid.com/alojamientos/residencia-universitaria-gomez-pardo;Cristobal Bordiú, 30 bis;28003;;Spain;40.4430559;-3.7011186;Residencias universitarias;;https://estaticos.esmadrid.com/cdn/farfuture/iBrC1WgTFHMGgzqmUD6ZfvHq5xjliGJnVJLJSc-o0WQ/mtime:1533209793/sites/default/files/recursosturisticos/alojamientos/gomez1.jpg
67195;2023-03-08;Colegio Mayor Jaime del Amo;secretaria@jaimedelamo.org;(+34) 91 554 08 04  ;https://www.esmadrid.com/alojamientos/colegio-mayor-jaime-del-amo;Gregorio del Amo, 5;28040;;Spain;40.44595;-3.722282;Residencias universitarias;;https://estaticos.esmadrid.com/cdn/farfuture/eSoZUOYH1SJJv0gDznqmC4xmrltpI8Nb1y1XQfxEpRY/mtime:1678277202/sites/default/files/recursosturisticos/alojamientos/colegio_mayor_universitario_jaime_del_amo_1.png
67193;2023-03-08;"Colegio Mayor Xim&eacute;nez de Cisneros";ccmm@ucm.es ;(+34) 91 394 10 06;https://www.esmadrid.com/alojamientos/colegio-mayor-ximenez-de-cisneros;Séneca, 8;28040;;Spain;40.435673;-3.727911;Residencias universitarias;;https://estaticos.esmadrid.com/cdn/farfuture/ZEe5njPLBica60gaiSI6_l7UX4WwU4MUyInZu1TZevM/mtime:1678275925/sites/default/files/recursosturisticos/alojamientos/c.m._ximenez_de_cisneros.png
67211;2023-03-08;"Boutique Urban Madrid G&eacute;nova";reservas.genova@boutiqueurbanhotels.com;(+34) 91 319 80 94 ;https://www.esmadrid.com/alojamientos/boutique-urban-madrid-genova;Almagro, 10;28010;;Spain;40.42864;-3.694697;Apartahoteles;2 llaves;https://estaticos.esmadrid.com/cdn/farfuture/ihMe4uUiBSgkskuDwVwrvGSZp-G5IHtoSbh-ayckcqI/mtime:1678280170/sites/default/files/recursosturisticos/alojamientos/boutique_urban_madrid_genova.png
67191;2024-01-23;Colegio Mayor Aquinas;aquinas@aquinas.es;(+34) 91 543 88 00;https://www.esmadrid.com/alojamientos/colegio-mayor-aquinas;Leonardo Prieto Castro, 6;28040;;Spain;40.4526714;-3.7214717;Residencias universitarias;;https://estaticos.esmadrid.com/cdn/farfuture/yhQyvmLjfvmCu0At9Em73pFrKMD6QVIN9vbff-lIlUw/mtime:1678271845/sites/default/files/recursosturisticos/alojamientos/colegio_mayor_aquinas_2.png
67189;2023-03-08;"Colegio Mayor P&iacute;o XII";comunicacion@fpablovi.org;(+34) 91 514 17 11;https://www.esmadrid.com/alojamientos/colegio-mayor-pio-xii;Juan XXIII, 3;28040;;Spain;40.444874;-3.719954;Residencias universitarias;;https://estaticos.esmadrid.com/cdn/farfuture/yXYgnaI55lT_nF-58o23ByQLm4znaXRSvoUJk_PXiaU/mtime:1678269189/sites/default/files/recursosturisticos/alojamientos/colegio_mayor_pio_xiii.png
67199;2023-07-03;Aparthotel Th la Florida;thlaflorida@th-hoteles.com;(+34) 91 372 88 93 ;https://www.esmadrid.com/alojamientos/aparthotel-th-la-florida;Procion,  12;28023;;Spain;40.467724;-3.801265;Apartahoteles;3 llaves;https://estaticos.esmadrid.com/cdn/farfuture/eKKatrZiG9NHz-UA88moYwfWYLS3_iyP9_nrbmP-6ME/mtime:1524832474/sites/default/files/recursosturisticos/alojamientos/514489246_236201015436_adj.jpg
67200;2023-03-03;"Residencia Universitaria Presentaci&oacute;n de Mar&iacute;a";residencia.universipm@gmail.com;(+34) 91 554 72 44;https://www.esmadrid.com/alojamientos/residencia-universitaria-presentacion-de-maria;Poeta Ángela Figuera, 12;28003;;Spain;40.4451705;-3.7163403;Residencias universitarias;;https://estaticos.esmadrid.com/cdn/farfuture/WCFcVmoEccHLI6DCGpyjB9xqOjQ8AoXehECrRuCGuR0/mtime:1677844814/sites/default/files/recursosturisticos/alojamientos/residencia_universitaria_presentacion_de_maria_5.png
67209;2023-03-01;Residencia Virgen del Pilar;;(+34) 91 563 35 64;https://www.esmadrid.com/alojamientos/residencia-virgen-del-pilar;Velázquez, 103;28006;;Spain;40.43566;-3.683312;Residencias universitarias;;https://estaticos.esmadrid.com/cdn/farfuture/1aZ7ijGrSrLMjYRoWa-1Xmf1lk-LYuE2xTywaWRCmVs/mtime:1677678734/sites/default/files/recursosturisticos/alojamientos/residencia_virgen_del_pilar.png
67210;2023-03-08;Residencia Universitaria El Pilar;residenciaelpilar_mic@yahoo.es ;(+34) 91 307 13 40 ;https://www.esmadrid.com/alojamientos/residencia-universitaria-el-pilar;Padre Huidobro, km 9;28023;;Spain;40.458583;-3.7535671;Residencias universitarias;;https://estaticos.esmadrid.com/cdn/farfuture/10_YEeC7Y7I-lla4PEoYPQNj30dHSLswScTlMJ2rros/mtime:1678283701/sites/default/files/recursosturisticos/alojamientos/residencia_universitaria_el_pilar_3.png
67208;2023-03-08;Residencia Universitaria Verbo Encarnado ;residencia@verboencarnado.es;(+34) 91 534 05 16 ;https://www.esmadrid.com/alojamientos/residencia-universitaria-verbo-encarnado;Alenza, 28;28003;;Spain;40.44609;-3.700432;Residencias universitarias;;https://estaticos.esmadrid.com/cdn/farfuture/1CR7mq4B1uR2jdAptNeWak9UTVHDgkO6R19q3DbgwBQ/mtime:1524834551/sites/default/files/x10.jpg
67192;2023-03-07;Centro Universitario Castilla;cucastilla@gmail.com;(+34) 91 345 59 58;https://www.esmadrid.com/alojamientos/centro-universitario-castilla;Vitruvio, 3;28006;;Spain;40.4422924;-3.6898772;Residencias universitarias;;https://estaticos.esmadrid.com/cdn/farfuture/28z31xxxbBjLpFm9bTNckpuPTk2MuYc7jJ0GetKwSeU/mtime:1678200496/sites/default/files/recursosturisticos/alojamientos/centro_universitario_castilla.png
67207;2023-07-03;Aparthotel Th  Aravaca;tharavaca@th-hoteles.com;(+34) 91 357 16 00;https://www.esmadrid.com/alojamientos/aparthotel-th-aravaca;Alsasua, 5;28023;;Spain;40.46421;-3.799467;Apartahoteles;3 llaves;https://estaticos.esmadrid.com/cdn/farfuture/7mKCwgedJM-FoerCNYAWM4dP0fhlhMzqeytqy9ms5p0/mtime:1533200888/sites/default/files/recursosturisticos/alojamientos/nh_aravaca1.jpg
67206;2023-03-01;Residencia Universitaria Porta Coeli;porta-coeli@planalfa.es ;(+34) 91 448 66 95 ;https://www.esmadrid.com/alojamientos/residencia-universitaria-porta-coeli;García de Paredes, 21;28010;;Spain;40.43684;-3.700681;Residencias universitarias;;https://estaticos.esmadrid.com/cdn/farfuture/gfgHHZTigWYRwR9HDu55yz0TJsBfqKF7Q4tHM9z_lms/mtime:1533278703/sites/default/files/recursosturisticos/alojamientos/trinitarias1.jpg
67205;2023-02-20;"Residencia Universitaria Sant&iacute;sima Trinidad";trini@anayfran.com;(+34) 91 406 15 29;https://www.esmadrid.com/alojamientos/residencia-universitaria-santisima-trinidad;Arturo Soria, 28;28027;;Spain;40.440674;-3.640028;Residencias universitarias;;https://estaticos.esmadrid.com/cdn/farfuture/QpSvv3ZHUFq3LLnm2zdY4lUqfPEJtktqVgpIFjtZF7A/mtime:1676896960/sites/default/files/recursosturisticos/alojamientos/residencia_universitaria_santisima_trinidad_2.png
67202;2023-03-02;"Aparthotel G3 Gale&oacute;n";reservas@g3galeon.com;(+34) 91 571 21 20 ;https://www.esmadrid.com/alojamientos/aparthotel-g-3-galeon;Francisco Medrano, 4;28020;;Spain;40.4587387;-3.6992805;Apartahoteles;3 llaves;https://estaticos.esmadrid.com/cdn/farfuture/r16yxfji-i_6a3QD5QdehyiU1qb2tzkuSX7zHH4WOAo/mtime:1677759362/sites/default/files/recursosturisticos/alojamientos/aparthotel_g3_galeon_1.png
67201;2023-03-03;Tagaste Madrid;holamadrid@tagaste.com;(+34) 91 435 41 80 ;https://www.esmadrid.com/alojamientos/tagaste-madrid;General Pardiñas, 34 (bis);28001;;Spain;40.426838;-3.678506;Residencias universitarias;;https://estaticos.esmadrid.com/cdn/farfuture/gZ0yOR0yCq11EbxRs7qza5YiyYqeX5u1CBd-OTgTXJw/mtime:1677842335/sites/default/files/recursosturisticos/alojamientos/tagaste_9.png
67183;2023-02-21;"Colegio Mayor Argentino Nuestra Se&ntilde;ora de Luj&aacute;n";administracion@cmanslujan.com;(+34) 91 181 20 50;https://www.esmadrid.com/alojamientos/colegio-mayor-argentino-nuestra-senora-de-lujan;Martín Fierro, 3;28040;;Spain;40.43562;-3.731367;Residencias universitarias;;https://estaticos.esmadrid.com/cdn/farfuture/US6XUK1qPvJIx_bUPmJxP-DpQfsrU3NMsMGs8KGvwvw/mtime:1533557746/sites/default/files/recursosturisticos/alojamientos/argen2.jpg
67188;2023-02-22;Residencia Universitaria Erasmo;erasmo@resa.es ;(+34) 91 131 21 00 ;https://www.esmadrid.com/alojamientos/residencia-universitaria-erasmo;Erasmo de Rotterdam, 5-7;28049;;Spain;40.54843;-3.698033;Residencias universitarias;;https://estaticos.esmadrid.com/cdn/farfuture/CWw9h5JNnnqMVpm46SWDY5QBr0dNMwHuTe8fbODDC3E/mtime:1677054952/sites/default/files/recursosturisticos/alojamientos/residencia_universitaria_erasmo_5.png
67187;2023-02-22;"Colegio Mayor Barber&aacute;n";cmubarberan@mde.es;(+34) 91 549 54 00;https://www.esmadrid.com/alojamientos/colegio-mayor-barberan;Séneca, 16;28040;;Spain;40.43447;-3.732797;Residencias universitarias;;https://estaticos.esmadrid.com/cdn/farfuture/WV1ArS8yrBn8kySErOV-QriUBRcHF55U1UitOoqKZJ0/mtime:1533553687/sites/default/files/recursosturisticos/alojamientos/aire1.jpg
67186;2023-02-22;Colegio Mayor Chaminade;secretaria@fugjchaminade.es ;(+34) 91 554 54 00;https://www.esmadrid.com/alojamientos/colegio-mayor-chaminade; Juan XXIII, 9;28040;;Spain;40.44716;-3.717772;Residencias universitarias;;https://estaticos.esmadrid.com/cdn/farfuture/2TBgfSDa6yBWTAQxrHOPYCMSLghGRO5GHXooQlshXPo/mtime:1677056631/sites/default/files/recursosturisticos/alojamientos/colegio_mayor_chaminade_1.png
